     2.11           OBSERVATION DATA    M                   RINEX VERSION / TYPE
Leica SpiderQC v4.0.0.49 (Free Version) 23/09/15 00:39:00   PGM / RUN BY / DATE
G. Evans            Office of the Surveyor-General (ACT)    OBSERVER / AGENCY
00AA                                                        MARKER NAME
00AA                                                        MARKER NUMBER
470591              LEICA GX1230GG      5.62                REC # / TYPE / VERS
                    LEIAX1202GG     NONE                    ANT # / TYPE
 -4443543.4448  2670408.5438 -3704662.7979                  APPROX POSITION XYZ
        1.2310        0.0000        0.0000                  ANTENNA: DELTA H/E/N
L1PhaOff:   0.0634  L2PhaOff:   0.0621                      COMMENT
     1     1                                                WAVELENGTH FACT L1/2
     6    C1    L1    D1    P2    L2    D2                  # / TYPES OF OBSERV
  2015     5    13     3    11   10.0000000     GPS         TIME OF FIRST OBS
    16                                                      LEAP SECONDS
    55                                                      # OF SATELLITES
          C1    L1    D1    P2    L2    D2                  COMMENT
                                                            END OF HEADER
 15  5 13  3 11 30.0000000  0 12G18G21G22G27G15G16G14R 8R22R 1R24R23
  19815523.688   104131278.83949      -435.723    19815526.266    81141266.70548
      -339.527  
  20900461.082   109832661.26649     -1668.426    20900463.954    85583904.51847
     -1300.073  
  20947677.402   110080786.07349      1644.426    20947679.338    85777245.36948
      1281.371  
  22190228.670   116610440.53248      2329.745    22190236.341    90865309.96047
      1815.386  
  23000865.328   120870358.23348     -2247.444    23000870.883    94184718.17747
     -1751.265  
  23807853.853   125111115.39546     -1675.855    23807863.165    97489215.57645
     -1305.875  
  23603477.573   124037111.89047      3839.241    23603486.304    96652311.18245
      2991.613  
  20172649.308   108023614.228 9     -2540.527    20172656.004    84018398.550 8
     -1975.969  
  22850148.089   121975634.680 5     -3991.222    22850161.835    94869987.936 6
     -3104.292  
  19701007.668   105313175.289 9      1084.605    19701017.966    81910289.200 6
       843.582  
  20297470.217   108539698.362 7      2707.401    20297477.026    84419789.128 7
      2105.758  
  19343872.724   103476671.549 9     -1091.703    19343882.478    80481897.730 6
      -849.105  
 15  5 13  3 12  0.0000000  0 12G18G21G22G27G15G16G14R 8R22R 1R24R23
  19818048.194   104144545.14849      -448.758    19818050.785    81151604.06448
      -349.683  
  20910015.523   109882869.75249     -1678.772    20910018.281    85623027.95247
     -1308.141  
  20938320.413   110031614.79949      1633.581    20938322.233    85738930.12348
      1272.922  
  22176969.571   116540762.80548      2315.484    22176977.079    90811015.68547
      1804.273  
  23013730.852   120937966.61048     -2259.984    23013736.429    94237399.90747
     -1761.035  
  23817456.485   125161577.34746     -1688.438    23817466.106    97528536.35845
     -1315.671  
  23581566.369   123921967.17647      3836.819    23581575.129    96562588.08445
      2989.730  
  20186915.130   108100006.273 9     -2552.315    20186921.719    84077814.498 8
     -1985.141  
  22872598.732   122095479.705 6     -3999.339    22872613.123    94963200.383 6
     -3110.613  
  19694973.534   105280919.636 9      1065.706    19694984.003    81885201.486 7
       828.883  
  20282322.487   108458696.267 7      2692.375    20282329.156    84356787.549 7
      2094.070  
  19350058.909   103509762.903 9     -1114.483    19350068.596    80507635.392 6
      -866.824  
 15  5 13  3 12 30.0000000  0 12G18G21G22G27G15G16G14R 8R22R 1R24R23
  19820648.254   104158208.58349      -461.933    19820650.838    81162250.87848
      -359.952  
  20919630.487   109933396.29149     -1689.390    20919633.204    85662399.23347
     -1316.413  
  20929026.472   109982774.86949      1622.515    20929028.357    85700873.06548
      1264.297  
  22163793.404   116471521.51848      2300.757    22163800.802    90757061.46847
      1792.796  
  23026670.299   121005963.86448     -2273.030    23026675.901    94290384.66447
     -1771.194  
  23827132.011   125212422.67846     -1700.886    23827141.436    97568155.87245
     -1325.378  
  23559673.589   123806920.33747      3833.508    23559682.615    96472941.30445
      2987.151  
  20201247.906   108176757.013 9     -2564.238    20201254.482    84137509.422 8
     -1994.409  
  22895100.198   122215593.841 6     -4007.976    22895114.382    95056622.143 6
     -3117.323  
  19689046.771   105249237.877 9      1046.511    19689057.089    81860560.127 7
       813.948  
  20267261.234   108378157.635 7      2676.859    20267267.921    84294146.457 7
      2082.000  
  19356375.182   103543550.515 9     -1137.894    19356384.837    80533914.595 6
      -885.030  
 15  5 13  3 13  0.0000000  0 12G18G21G22G27G15G16G14R 8R22R 1R24R23
  19823323.630   104172267.72049      -474.550    19823326.234    81173206.02248
      -369.785  
  20929305.804   109984240.21049     -1699.418    20929308.587    85702017.81147
     -1324.226  
  20919795.441   109934265.85249      1612.093    20919797.384    85663073.87048
      1256.176  
  22150700.663   116402718.82748      2286.784    22150708.034    90703449.02547
      1781.909  
  23039683.333   121074347.69548     -2285.187    23039689.170    94343670.63747
     -1780.671  
  23836880.185   125263647.86447     -1712.999    23836889.568    97608071.37344
     -1334.813  
  23537800.011   123691973.84947      3830.699    23537809.223    96383372.70345
      2984.965  
  20215646.885   108253862.612 9     -2575.343    20215653.570    84197480.365 8
     -2003.051  
  22917651.740   122335974.317 6     -4016.332    22917666.042    95150251.063 6
     -3123.824  
  19683227.216   105218129.083 9      1028.059    19683237.581    81836364.416 7
       799.602  
  20252287.269   108298085.773 8      2662.159    20252293.994    84231868.392 7
      2070.569  
  19362821.470   103578033.528 9     -1160.511    19362831.303    80560734.644 6
      -902.624  
 15  5 13  3 13 30.0000000  0 12G18G21G22G27G15G16G14R 8R22R 1R24R23
  19826073.529   104186718.59749      -488.344    19826076.166    81184466.40948
      -380.531  
  20939040.895   110035398.61449     -1710.663    20939043.754    85741881.44447
     -1332.988  
  20910626.811   109886084.99849      1600.359    20910628.912    85625530.38448
      1247.035  
  22137691.294   116334354.34648      2271.390    22137698.689    90650178.05647
      1769.913  
  23052769.031   121143112.84649     -2298.652    23052774.970    94397253.76847
     -1791.164  
  23846699.761   125315247.58446     -1726.261    23846709.062    97648278.68644
     -1345.151  
  23515945.599   123577127.54148      3826.249    23515954.625    96293882.15045
      2981.491  
  20230111.034   108331317.037 9     -2587.656    20230117.712    84257722.596 8
     -2012.629  
  22940252.556   122456615.413 6     -4026.152    22940266.405    95244082.725 6
     -3131.464  
  19677514.383   105187590.213 9      1008.343    19677524.617    81812611.966 7
       784.261  
  20237400.924   108218481.610 7      2645.582    20237407.639    84169954.115 7
      2057.676  
  19369397.299   103613209.340 9     -1184.145    19369407.013    80588093.551 6
      -921.004  
 15  5 13  3 14  0.0000000  0 12G18G21G22G27G15G16G14R 8R22R 1R24R23
  19828899.074   104201567.02949      -501.726    19828901.814    81196036.59148
      -390.957  
  20948837.209   110086878.86949     -1721.426    20948840.210    85781995.88447
     -1341.375  
  20901522.186   109838239.90549      1589.241    20901524.189    85588248.53348
      1238.371  
  22124767.168   116266437.95448      2256.059    22124774.643    90597256.24947
      1757.969  
  23065928.362   121212264.94048     -2311.805    23065934.358    94451138.38746
     -1801.410  
  23856590.999   125367226.29746     -1739.340    23856600.409    97688781.35143
     -1355.335  
  23494112.197   123462391.89548      3822.391    23494120.783    96204477.81346
      2978.480  
  20244641.099   108409124.466 9     -2599.742    20244647.842    84318239.421 8
     -2022.026  
  22962902.602   122577521.713 7     -4034.723    22962916.476    95338120.575 6
     -3138.128  
  19671909.328   105157628.299 9       988.887    19671919.572    81789308.271 6
       769.132  
  20222604.173   108139356.763 7      2629.397    20222610.843    84108412.607 7
      2045.086  
  19376104.004   103649085.252 9     -1207.672    19376113.671    80615996.963 6
      -939.304  
 15  5 13  3 14 30.0000000  0 12G18G21G22G27G15G16G14R 8R22R 1R24R23
  19831799.718   104216809.73549      -514.617    19831802.480    81207913.98848
      -401.004  
  20958694.327   110138678.22049     -1731.816    20958697.390    85822358.95247
     -1349.472  
  20892480.910   109790728.14549      1578.207    20892482.910    85551226.41148
      1229.773  
  22111928.309   116198969.66648      2241.491    22111935.902    90544683.59248
      1746.616  
  23079160.474   121281799.53048     -2324.160    23079166.583    94505321.07547
     -1811.038  
  23866553.752   125419578.91846     -1751.117    23866562.922    97729575.39545
     -1364.520  
  23472299.759   123347767.23047      3818.813    23472308.477    96115159.97446
      2975.699  
  20259235.925   108487279.067 9     -2610.843    20259242.804    84379026.266 8
     -2030.659  
  22985602.028   122698688.413 7     -4043.292    22985615.695    95432361.042 6
     -3144.796  
  19666411.545   105128239.556 9       970.160    19666421.847    81766450.366 7
       754.569  
  20207897.209   108060712.362 7      2613.546    20207903.889    84047244.797 7
      2032.758  
  19382941.164   103685658.731 9     -1230.676    19382950.726    80644442.937 6
      -957.194  
 15  5 13  3 15  0.0000000  0 12G18G21G22G27G15G16G14R 8R22R 1R24R23
  19834774.358   104232441.35649      -527.894    19834777.078    81220094.44148
      -411.352  
  20968611.358   110190792.25749     -1742.793    20968614.408    85862967.23247
     -1358.022  
  20883502.325   109743545.70849      1566.948    20883504.255    85514460.91548
      1220.999  
  22099174.506   116131948.07648      2226.395    22099182.090    90492459.02348
      1734.851  
  23092464.126   121351710.13348     -2336.668    23092470.439    94559796.73347
     -1820.784  
  23876586.216   125472298.71346     -1763.723    23876595.446    97770655.52746
     -1374.335  
  23450508.271   123233252.65848      3814.862    23450517.028    96025927.91245
      2972.621  
  20273894.238   108565773.541 9     -2622.328    20273901.211    84440077.452 8
     -2039.594  
  23008348.666   122820108.916 7     -4051.930    23008362.224    95526798.841 7
     -3151.519  
  19661020.258   105099420.038 9       951.019    19661030.614    81744035.191 6
       739.684  
  20193280.129   107982548.297 8      2597.331    20193286.629    83986450.592 7
      2020.148  
  19389907.871   103722925.727 9     -1254.133    19389917.605    80673428.303 6
      -975.440  
 15  5 13  3 15 30.0000000  0 12G18G21G22G27G15G16G14R 8R22R 1R24R23
  19837823.263   104248463.58549      -540.538    19837826.053    81232579.26448
      -421.203  
  20978588.788   110243223.84949     -1753.022    20978591.862    85903822.95947
     -1365.996  
  20874587.051   109696695.56649      1556.132    20874588.991    85477954.33748
      1212.569  
  22086506.718   116065378.46148      2211.378    22086514.281    90440586.65048
      1723.151  
  23105839.629   121421997.93948     -2349.245    23105845.899    94614566.35047
     -1830.586  
  23886688.323   125525386.20646     -1775.586    23886697.648    97812022.13744
     -1383.581  
  23428738.689   123118853.92147      3811.280    23428747.396    95936786.09645
      2969.828  
  20288616.013   108644607.448 9     -2633.472    20288622.863    84501392.642 8
     -2048.261  
  23031142.785   122941783.380 7     -4060.140    23031156.342    95621434.219 6
     -3157.898  
  19655735.919   105071171.938 9       931.852    19655746.172    81722064.455 6
       724.773  
  20178754.242   107904871.473 7      2581.082    20178760.627    83926035.354 7
      2007.508  
  19397004.630   103760888.385 9     -1277.069    19397014.457    80702954.747 6
      -993.281  
 15  5 13  3 16  0.0000000  0 11G18G21G22G27G15G16G14R 8R 1R24R23
  19840947.344   104264880.27249      -553.594    19840950.020    81245371.44948
      -431.375  
  20988627.573   110295977.61549     -1763.727    20988630.576    85944929.71847
     -1374.335  
  20865735.914   109650182.71049      1545.054    20865737.864    85441710.57748
      1203.937  
  22073926.333   115999268.15748      2196.176    22073933.881    90389072.17048
      1711.305  
  23119287.370   121492665.73348     -2361.722    23119293.554    94669632.06346
     -1840.308  
  23896861.087   125578842.72547     -1787.749    23896870.078    97853676.34945
     -1393.063  
  23406993.111   123004579.13848      3807.293    23407001.523    95847740.88145
      2966.722  
  20303401.519   108723782.474 9     -2644.660    20303408.336    84562973.146 8
     -2056.960  
  19650559.319   105043499.918 9       912.944    19650569.432    81700541.787 7
       710.070  
  20164321.008   107827690.644 8      2564.542    20164327.352    83866005.870 7
      1994.644  
  19404232.408   103799552.063 9     -1300.250    19404242.156    80733026.432 6
     -1011.327  
 15  5 13  3 16 30.0000000  0 11G18G21G22G27G15G16G14R 8R 1R24R23
  19844144.310   104281680.28449      -566.315    19844146.926    81258462.33648
      -441.288  
  20998725.733   110349043.55549     -1774.059    20998728.720    85986279.74547
     -1382.387  
  20856947.109   109603997.29149      1534.063    20856948.979    85405721.96948
      1195.375  
  22061431.997   115933609.85249      2180.918    22061439.552    90337909.88848
      1699.418  
  23132805.115   121563701.43248     -2373.949    23132811.357    94724984.42346
     -1849.840  
  23907101.740   125632656.19047     -1799.866    23907110.711    97895608.68845
     -1402.503  
  23385269.511   122890421.00348      3803.132    23385278.103    95758786.57845
      2963.480  
  20318248.191   108803285.540 9     -2655.457    20318255.044    84624808.785 8
     -2065.358  
  19645488.371   105016392.955 9       894.129    19645498.457    81679458.609 7
       695.429  
  20149979.215   107750999.600 7      2548.301    20149985.798    83806357.331 7
      1982.012  
  19411589.352   103838906.503 9     -1323.405    19411599.104    80763635.369 6
     -1029.250  
 15  5 13  3 17  0.0000000  0 12G18G21G22G27G15G16G14R 8R 2R 1R24R23
  19847414.379   104298864.39749      -579.042    19847416.924    81271852.52848
      -451.207  
  21008883.609   110402423.52249     -1784.386    21008886.613    86027874.46147
     -1390.433  
  20848221.032   109558141.44649      1523.210    20848222.963    85369990.17348
      1186.917  
  22049024.519   115868408.02049      2165.852    22049032.019    90287103.30148
      1687.676  
  23146392.931   121635104.97748     -2386.038    23146398.946    94780623.45447
     -1859.254  
  23917410.207   125686825.51547     -1811.456    23917418.891    97937818.30445
     -1411.531  
  23363569.192   122776384.68247      3799.387    23363577.769    95669927.18045
      2960.562  
  20333155.807   108883115.209 9     -2666.254    20333162.666    84686898.472 8
     -2073.757  
  23086237.641   123192585.17217      3473.647    23086253.456    95816522.21617
      2701.726  
  19640523.467   104989852.787 9       875.358    19640533.691    81658816.261 6
       680.836  
  20135730.276   107674804.246 8      2531.637    20135736.949    83747094.335 7
      1969.116  
  19419075.638   103878953.084 9     -1346.309    19419085.448    80794782.640 6
     -1047.132  
 15  5 13  3 17 30.0000000  0 12G18G21G22G27G15G16G14R 8R 2R 1R24R23
  19850757.675   104316433.44349      -592.195    19850760.275    81285542.67848
      -461.453  
  21019101.633   110456119.34849     -1795.124    21019104.709    86069715.29447
     -1398.801  
  20839558.170   109512617.67749      1511.737    20839560.076    85334517.13048
      1177.977  
  22036704.706   115803667.24948      2150.159    22036712.116    90236655.98548
      1675.448  
  23160050.728   121706876.87448     -2398.641    23160056.812    94836549.50847
     -1869.074  
  23927786.358   125741350.27747     -1823.452    23927795.082    97980304.91744
     -1420.878  
  23341892.749   122662475.20647      3794.675    23341901.269    95581166.59845
      2956.891  
  20348124.295   108963270.660 9     -2677.461    20348131.197    84749241.532 8
     -2082.473  
  23066735.646   123088517.509 6      3464.121    23066751.476    95735580.792 7
      2694.316  
  19635664.855   104963880.849 9       856.233    19635675.171    81638615.868 7
       665.961  
  20121575.202   107599110.826 8      2514.538    20121581.679    83688221.734 7
      1955.753  
  19426691.837   103919694.142 9     -1369.808    19426701.590    80826470.071 6
     -1065.410  
 15  5 13  3 18  0.0000000  0 12G18G21G22G27G15G16G14R 8R 2R 1R24R23
  19854174.721   104334390.04749      -605.261    19854177.436    81299534.81948
      -471.637  
  21029380.388   110510134.50749     -1805.995    21029383.588    86111804.96247
     -1407.272  
  20830959.022   109467429.03449      1500.504    20830960.940    85299305.23148
      1169.222  
  22024473.742   115739393.43849      2134.359    22024481.138    90186572.54948
      1663.136  
  23173778.634   121779018.25548     -2410.897    23173785.021    94892763.47847
     -1878.625  
  23938230.038   125796231.15647     -1835.706    23938238.975    98023069.00544
     -1430.434  
  23320241.806   122548699.10648      3790.112    23320250.102    95492510.00145
      2953.336  
  20363153.641   109043751.934 9     -2688.262    20363160.449    84811838.023 8
     -2090.875  
  23047285.760   122984732.318 7      3454.594    23047301.538    95654859.078 7
      2686.910  
  19630913.093   104938480.113 9       837.077    19630923.314    81618859.754 6
       651.059  
  20107515.299   107523926.580 8      2497.280    20107521.964    83629745.153 7
      1942.327  
  19434438.436   103961132.787 9     -1393.097    19434448.121    80858700.059 6
     -1083.522  
 15  5 13  3 18 30.0000000  0 12G18G21G22G27G15G16G14R 8R 2R 1R24R23
  19857665.075   104352732.04449      -617.012    19857667.821    81313827.26748
      -480.792  
  21039719.554   110564467.38049     -1815.597    21039722.836    86154142.20248
     -1414.753  
  20822423.367   109422574.64749      1490.210    20822425.405    85264353.79748
      1161.203  
  22012332.048   115675588.03349      2119.895    22012339.294    90136854.10148
      1651.866  
  23187576.328   121851525.91148     -2422.241    23187582.810    94949262.84047
     -1887.465  
  23948740.752   125851464.32847     -1846.254    23948749.667    98066107.59344
     -1438.647  
  23298616.755   122435058.35248      3786.354    23298624.777    95403958.84845
      2950.409  
  20378243.013   109124554.773 9     -2697.949    20378249.861    84874684.611 8
     -2098.410  
  23027889.751   122881230.464 7      3445.922    23027905.311    95574357.693 7
      2680.160  
  19626267.852   104913648.575 9       818.948    19626278.042    81599546.350 7
       636.960  
  20093551.248   107449254.493 8      2481.223    20093557.730    83571666.906 7
      1929.722  
  19442315.128   104003267.560 9     -1415.358    19442324.815    80891471.476 6
     -1100.839  
 15  5 13  3 19  0.0000000  0 12G18G21G22G27G15G16G14R 8R 2R 1R24R23
  19861227.332   104371451.67349      -630.042    19861230.029    81328413.97648
      -490.945  
  21050118.041   110619111.32949     -1826.406    21050121.315    86196721.83147
     -1423.175  
  20813950.281   109378048.27849      1479.051    20813952.281    85229657.96048
      1152.508  
  22000278.622   115612246.91649      2103.762    22000285.838    90087497.43348
      1639.293  
  23201442.144   121924390.98348     -2434.578    23201448.472    95006040.74947
     -1897.078  
  23959316.721   125907040.17447     -1857.832    23959325.555    98109413.24344
     -1447.671  
  23277016.755   122321549.62047      3781.702    23277024.815    95315510.58445
      2946.784  
  20393390.675   109205669.538 9     -2708.750    20393397.574    84937773.801 8
     -2106.809  
  23008545.514   122778006.788 7      3436.519    23008561.271    95494072.651 6
      2672.848  
  19621727.761   104889379.157 9       799.792    19621737.928    81580670.157 6
       622.058  
  20079682.350   107375091.514 8      2463.784    20079688.853    83513984.639 7
      1916.261  
  19450320.682   104046091.498 9     -1438.741    19450330.480    80924778.929 6
     -1119.026  
 15  5 13  3 19 30.0000000  0 12G18G21G22G27G15G16G14R 8R 2R 1R24R23
  19864862.151   104390552.62049      -642.918    19864864.806    81343297.81248
      -500.979  
  21060576.702   110674071.52449     -1837.038    21060579.963    86239547.90047
     -1431.465  
  20805540.534   109333854.82449      1467.746    20805542.509    85195221.53548
      1143.699  
  21988314.842   115549377.57749      2087.965    21988322.099    90038508.39148
      1626.984  
  23215376.633   121997616.74748     -2446.698    23215383.189    95063099.71147
     -1906.526  
  23969958.297   125962961.31247     -1869.722    23969967.437    98152987.90844
     -1456.937  
  23255443.252   122208180.75248      3776.827    23255451.485    95227171.30945
      2942.988  
  20408597.031   109287098.130 9     -2719.171    20408603.917    85001107.091 8
     -2114.914  
  22989255.057   122675068.460 7      3426.590    22989270.389    95414009.548 6
      2665.125  
  19617293.658   104865676.333 9       780.944    19617303.847    81562234.657 6
       607.401  
  20065910.371   107301446.676 8      2446.570    20065916.923    83456705.363 7
      1902.886  
  19458455.944   104089609.292 9     -1462.000    19458465.738    80958626.029 6
     -1137.113  
 15  5 13  3 20  0.0000000  0 12G18G21G22G27G15G16G14R 8R 2R 1R24R23
  19868569.328   104410033.87049      -655.824    19868572.022    81358477.99348
      -511.034  
  21071095.416   110729347.36949     -1848.026    21071098.652    86282619.92447
     -1440.022  
  20797194.114   109289994.33949      1456.280    20797196.138    85161044.57448
      1134.766  
  21976441.448   115486982.31549      2071.737    21976448.632    89989888.74648
      1614.340  
  23229379.259   122071200.82548     -2458.901    23229385.891    95120437.87446
     -1916.030  
  23980665.071   126019224.47948     -1881.292    23980674.122    98196829.08644
     -1465.953  
  23233896.829   122094954.37947      3771.542    23233905.088    95138943.07245
      2938.866  
  20423861.225   109368837.103 8     -2729.722    20423868.215    85064681.788 8
     -2123.121  
  22970018.139   122572416.769 7      3416.730    22970033.518    95334169.358 6
      2657.457  
  19612965.286   104842539.050 9       761.690    19612975.584    81544239.020 7
       592.425  
  20052236.101   107228323.992 8      2428.746    20052242.495    83399832.207 7
      1889.022  
  19466720.743   104133820.111 9     -1485.448    19466730.588    80993012.156 6
     -1155.351  
 15  5 13  3 20 30.0000000  0 12G18G21G22G27G15G16G14R 8R 2R 1R24R23
  19872348.615   104429894.09849      -667.874    19872351.347    81373953.47748
      -520.426  
  21081674.229   110784939.05849     -1857.934    21081677.393    86325938.06947
     -1447.745  
  20788911.192   109246467.00849      1445.754    20788913.089    85127127.21648
      1126.563  
  21964658.825   115425063.80649      2056.504    21964665.884    89941640.61348
      1602.468  
  23243449.852   122145141.35148     -2470.062    23243456.363    95178053.79247
     -1924.726  
  23991436.367   126075827.17548     -1891.933    23991445.428    98240934.81544
     -1474.245  
  23212378.337   121981874.09648      3767.190    23212386.519    95050828.66145
      2935.472  
  20439182.929   109450883.604 8     -2739.413    20439189.844    85128495.675 8
     -2130.660  
  22950835.529   122470053.807 7      3407.711    22950850.623    95254553.756 7
      2650.441  
  19608742.585   104819966.821 9       743.473    19608752.936    81526682.871 6
       578.257  
  20038660.050   107155727.342 8      2411.543    20038666.529    83343368.195 7
      1875.645  
  19475115.051   104178724.000 9     -1507.862    19475124.875    81027937.345 6
     -1172.785  
 15  5 13  3 21  0.0000000  0 12G18G21G22G27G15G16G14R 8R 2R 1R24R23
  19876199.232   104450129.22749      -680.480    19876201.984    81389721.09848
      -530.249  
  21092312.547   110840843.39149     -1868.366    21092315.766    86369499.83547
     -1455.875  
  20780691.085   109203269.90149      1434.711    20780692.808    85093467.16348
      1117.956  
  21952966.592   115363621.39648      2040.440    21952973.769    89893763.48348
      1589.957  
  23257587.167   122219433.60348     -2482.105    23257593.676    95235943.78847
     -1934.113  
  24002271.236   126132763.79648     -1902.992    24002279.981    98285300.78343
     -1482.863  
  23190887.541   121868939.79248      3762.379    23190895.652    94962827.99545
      2931.722  
  20454560.822   109533231.367 9     -2749.551    20454567.848    85192543.864 8
     -2138.542  
  22931706.838   122367978.385 7      3398.035    22931721.751    95175161.803 7
      2642.913  
  19604625.008   104797956.109 9       724.809    19604635.349    81509563.467 7
       563.738  
  20025182.480   107083657.340 8      2393.840    20025188.919    83287313.785 7
      1861.874  
  19483638.214   104224317.142 9     -1530.944    19483648.181    81063398.613 7
     -1190.737  
 15  5 13  3 21 30.0000000  0 12G18G21G22G27G15G16G14R 8R 2R 1R24R23
  19880121.614   104470741.54749      -693.210    19880124.320    81405782.62648
      -540.168  
  21103010.925   110897063.43649     -1879.218    21103014.118    86413307.61147
     -1464.331  
  20772534.368   109160406.40649      1423.265    20772536.228    85060067.08348
      1109.038  
  21941366.114   115302660.90849      2024.140    21941373.336    89846261.86648
      1577.254  
  23271791.557   122294078.51548     -2493.883    23271798.073    95294108.60547
     -1943.289  
  24013169.719   126190034.65048     -1914.479    24013178.583    98329927.20541
     -1491.808  
  23169425.681   121756157.77048      3756.934    23169433.889    94874946.00846
      2927.480  
  20469995.080   109615880.900 9     -2759.909    20470002.209    85256826.777 8
     -2146.601  
  22912632.695   122266195.321 7      3387.835    22912647.897    95095997.260 7
      2634.984  
  19600612.957   104776509.334 9       705.559    19600623.190    81492882.680 7
       548.770  
  20011804.878   107012121.635 8      2375.624    20011811.362    83231674.947 7
      1847.707  
  19492290.906   104270602.931 9     -1554.366    19492300.828    81099398.605 6
     -1208.957  
 15  5 13  3 22  0.0000000  0 12G18G21G22G27G15G16G14R 8R 2R 1R24R23
  19884114.764   104491725.68949      -705.925    19884117.358    81422133.88748
      -550.073  
  21113768.465   110953594.62749     -1889.754    21113771.655    86457357.83147
     -1472.538  
  20764440.331   109117872.14249      1412.104    20764442.198    85026923.53948
      1100.343  
  21929856.984   115242180.18049      2007.871    21929864.179    89799134.07448
      1564.569  
  23286061.843   122369069.62848     -2505.651    23286068.573    95352543.16847
     -1952.461  
  24024130.362   126247632.43647     -1925.765    24024139.264    98374808.36043
     -1500.612  
  23147992.592   121643526.72348      3751.554    23148000.689    94787181.66845
      2923.288  
  20485484.170   109698824.241 8     -2769.831    20485491.287    85321338.208 8
     -2154.315  
  22893612.531   122164701.831 7      3378.065    22893627.688    95017057.925 6
      2627.386  
  19596705.371   104755621.140 9       686.765    19596715.577    81476636.342 7
       534.152  
  19998527.102   106941119.434 8      2357.656    19998533.459    83176451.052 7
      1833.733  
  19501072.146   104317575.988 9     -1577.430    19501082.065    81135933.141 7
     -1226.894  
 15  5 13  3 22 30.0000000  0 12G18G21G22G27G15G16G14R 8R 2R 1R24R23
  19888178.852   104513082.71149      -717.925    19888181.423    81438775.70948
      -559.426  
  21124585.668   111010439.28949     -1899.776    21124588.897    86501652.31847
     -1480.351  
  20756409.325   109075669.48249      1401.492    20756411.306    84994038.37948
      1092.070  
  21918440.012   115182184.17849      1991.917    21918447.163    89752383.99247
      1552.140  
  23300398.106   122444407.22748     -2516.761    23300405.020    95411247.71147
     -1961.116  
  24035152.948   126305556.92147     -1936.050    24035160.920    98419944.23143
     -1508.617  
  23126589.426   121531052.38848      3746.675    23126597.216    94699539.42945
      2919.491  
  20501028.020   109782060.883 8     -2779.211    20501035.212    85386077.762 8
     -2161.613  
  22874647.749   122063502.123 7      3368.625    22874662.911    94938347.088 7
      2620.042  
  19592902.590   104735293.255 9       668.589    19592912.779    81460825.791 6
       520.015  
  19985350.173   106870657.000 8      2339.812    19985356.542    83121646.983 7
      1819.804  
  19509982.164   104365238.292 9     -1599.972    19509992.135    81173003.757 6
     -1244.425  
 15  5 13  3 23  0.0000000  0 12G18G21G22G27G15G16G14R 8R 2R 1R24R23
  19892313.735   104534811.54349      -730.718    19892316.379    81455707.25648
      -569.394  
  21135462.515   111067597.22349     -1910.632    21135465.723    86546190.91147
     -1488.809  
  20748441.586   109033799.10949      1389.917    20748443.585    84961412.14448
      1083.054  
  21907115.735   115122675.57549      1975.316    21907122.930    89706013.71247
      1539.206  
  23314799.949   122520089.92448     -2528.526    23314807.019    95470221.17347
     -1970.284  
  24046237.406   126363805.61047     -1947.171    24046246.700    98465332.55244
     -1517.293  
  23105216.596   121418737.75048      3740.875    23105224.293    94612021.60545
      2914.968  
  20516626.177   109865588.146 9     -2789.121    20516633.385    85451043.352 8
     -2169.319  
  22855738.438   121962598.135 7      3358.183    22855753.663    94859866.222 7
      2611.918  
  19589204.576   104715525.374 9       649.586    19589214.795    81445450.797 7
       505.230  
  19972275.115   106800738.508 8      2321.253    19972281.434    83067265.977 7
      1805.417  
  19519021.116   104413589.905 9     -1623.328    19519030.982    81210610.507 6
     -1262.594  
 15  5 13  3 23 30.0000000  0 13G18G21G22G27G15G16G14R 8R 2R17R 1R24
                                R23
  19896518.920   104556909.90849      -743.104    19896521.594    81472926.75548
      -579.047  
  21146398.710   111125066.88049     -1921.272    21146401.876    86590972.41447
     -1497.101  
  20740536.824   108992259.33449      1378.781    20740538.819    84929043.51248
      1074.375  
  21895884.432   115063655.24349      1958.960    21895891.693    89660023.92248
      1526.465  
  23329266.811   122596113.86048     -2540.070    23329274.065    95529460.52947
     -1979.280  
  24057382.826   126422373.96748     -1957.930    24057392.401    98510969.99144
     -1525.668  
  23083874.350   121306584.43248      3735.577    23083882.305    94524629.51145
      2910.839  
  20532277.792   109949401.398 8     -2798.824    20532284.955    85516231.369 8
     -2176.867  
  22836884.616   121861990.184 7      3348.323    22836899.740    94781615.662 6
      2604.253  
  23141142.069   123398721.58015      4106.633                                  
                
  19585610.790   104696314.715 9       630.781    19585621.029    81430509.207 6
       490.555  
  19959302.079   106731366.387 8      2302.828    19959308.506    83013309.919 7
      1791.089  
  19528188.327   104462628.236 9     -1646.472    19528198.194    81248751.363 6
     -1280.593  
 15  5 13  3 24  0.0000000  0 13G18G21G22G27G15G16G14R 8R 2R17R 1R24
                                R23
  19900793.732   104579374.10249      -754.977    19900796.449    81490431.31948
      -588.297  
  21157393.784   111182846.01049     -1931.245    21157396.843    86635995.05847
     -1504.870  
  20732694.597   108951047.87349      1368.167    20732696.483    84896930.70448
      1066.105  
  21884746.202   115005123.19749      1942.898    21884753.335    89614414.58548
      1513.945  
  23343797.951   122672474.42548     -2550.973    23343805.257    95588962.17247
     -1987.772  
  24068588.051   126481256.88548     -1967.995    24068597.482    98556852.51644
     -1533.512  
  23062562.911   121194593.09448      3730.156    23062571.084    94437363.65746
      2906.620  
  20547981.776   110033495.051 8     -2807.886    20547988.906    85581637.490 8
     -2183.914  
  22818085.855   121761677.267 7      3338.461    22818100.922    94703594.523 6
      2596.577  
  23118047.335   123275558.226 5      4104.219    23118061.400    95881043.16614
      3192.179  
  19582120.793   104677658.492 9       612.625    19582130.853    81415998.840 6
       476.539  
  19946431.533   106662541.979 8      2285.035    19946438.058    82959779.867 7
      1777.250  
  19537483.415   104512350.222 9     -1668.952    19537493.374    81287423.953 6
     -1298.078  
 15  5 13  3 24 30.0000000  0 13G18G21G22G27G15G16G14R 8R 2R17R 1R24
                                R23
  19905139.311   104602209.99349      -767.348    19905141.943    81508225.51748
      -597.938  
  21168448.979   111240941.16849     -1941.854    21168452.048    86681263.96447
     -1513.136  
  20724916.212   108910171.87349      1356.972    20724918.065    84865079.29148
      1057.383  
  21873702.655   114947088.93749      1926.229    21873709.848    89569193.13248
      1500.957  
  23358394.039   122749176.76048     -2562.531    23358400.970    95648730.18047
     -1996.780  
  24079854.225   126540458.71948     -1978.698    24079863.442    98602983.58344
     -1541.855  
  23041284.544   121082774.17748      3724.539    23041292.655    94350232.10945
      2902.237  
  20563738.888   110117873.329 9     -2817.285    20563746.041    85647264.963 8
     -2191.226  
  22799344.273   121661668.532 7      3328.425    22799359.501    94625809.982 6
      2588.777  
  23094968.003   123152489.692 6      4100.602    23094981.401    95785323.435 3
      3189.362  
  19578735.629   104659562.788 9       593.887    19578745.646    81401924.427 7
       461.953  
  19933665.421   106594276.374 8      2266.245    19933671.951    82906684.440 7
      1762.636  
  19546907.536   104562762.665 9     -1691.914    19546917.532    81326633.571 6
     -1315.938  
 15  5 13  3 25  0.0000000  0 12G18G21G22G27G15G14R 8R 2R17R 1R24R23
  19909554.847   104625413.66449      -779.457    19909557.569    81526306.29848
      -607.370  
  21179563.742   111299349.42249     -1952.058    21179566.804    86726776.84447
     -1521.089  
  20717201.078   108869628.63349      1346.043    20717202.835    84833487.18048
      1048.863  
  21862753.579   114889551.84249      1909.895    21862760.826    89524359.09347
      1488.229  
  23373054.168   122826215.85248     -2573.503    23373061.180    95708760.56947
     -2005.332  
  23020038.863   120971127.46548      3718.816    23020046.820    94263234.74746
      2897.781  
  20579547.976   110202530.211 9     -2826.437    20579555.087    85713109.143 8
     -2198.344  
  22780659.185   121561962.635 6      3318.491    22780674.293    94548260.993 6
      2581.046  
  23071906.219   123029517.418 6      4097.761    23071920.898    95689678.592 3
      3187.159  
  19575454.550   104642023.887 9       575.426    19575464.720    81388283.083 7
       447.555  
  19921003.949   106526570.355 8      2247.812    19921010.559    82854024.255 7
      1748.175  
  19556459.977   104613861.598 9     -1714.644    19556469.901    81366377.126 6
     -1333.617  
 15  5 13  3 25 30.0000000  0 12G18G21G22G27G15G14R 8R 2R17R 1R24R23
  19914038.904   104648977.85749      -791.694    19914041.787    81544668.01548
      -616.910  
  21190736.809   111358064.41049     -1962.542    21190739.915    86772528.74147
     -1529.258  
  20709548.106   108829411.83649      1334.922    20709549.760    84802149.43248
      1040.198  
  21851898.468   114832507.97649      1893.179    21851905.600    89479909.41348
      1475.203  
  23387776.991   122903583.71348     -2584.601    23387783.942    95769047.13047
     -2013.979  
  22998825.323   120859650.11948      3712.753    22998833.092    94176369.38846
      2893.059  
  20595407.386   110287456.317 8     -2835.590    20595414.413    85779162.708 8
     -2205.460  
  22762030.232   121462554.879 7      3308.339    22762044.992    94470943.884 6
      2573.147  
  23048862.002   122906638.346 6      4094.015    23048877.394    95594106.285 3
      3184.241  
  19572276.299   104625034.436 9       556.875    19572286.579    81375069.083 7
       433.125  
  19908446.926   106459421.562 8      2228.929    19908453.309    82801797.458 7
      1733.508  
  19566139.442   104665640.020 9     -1737.499    19566149.434    81406649.162 6
     -1351.395  
 15  5 13  3 26  0.0000000  0 12G18G21G22G27G15G14R 8R 2R17R 1R24R23
  19918592.193   104672905.61249      -803.297    19918595.071    81563313.01548
      -625.948  
  21201969.049   111417090.29149     -1972.383    21201972.256    86818522.89447
     -1536.926  
  20701958.121   108789526.19549      1324.382    20701959.657    84771069.72748
      1031.988  
  21841138.476   114775964.17649      1876.890    21841145.526    89435849.36548
      1462.512  
  23402562.648   122981282.55348     -2595.008    23402569.621    95829591.60947
     -2022.090  
  22977645.395   120748349.78348      3707.391    22977653.306    94089641.95645
      2888.875  
  20611317.479   110372653.175 8     -2843.937    20611324.515    85845426.846 8
     -2211.956  
  22743457.990   121363451.307 6      3298.683    22743473.454    94393863.419 7
      2565.645  
  23025836.846   122783860.637 6      4091.051    23025852.181    95498612.772 3
      3181.938  
  19569201.600   104608598.407 9       538.961    19569211.837    81362285.514 7
       419.188  
  19895995.490   106392837.982 8      2210.261    19896001.779    82750010.275 7
      1719.026  
  19575946.692   104718102.036 9     -1759.831    19575956.631    81447452.886 6
     -1368.762  
 15  5 13  3 26 30.0000000  0 12G18G21G22G27G15G14R 8R 2R17R 1R24R23
  19923214.519   104697196.07149      -815.604    19923217.315    81582240.64348
      -635.538  
  21213260.452   111476426.98649     -1983.020    21213263.763    86864759.22547
     -1545.214  
  20694431.099   108749971.55249      1313.129    20694432.656    84740247.95048
      1023.218  
  21830474.090   114719923.04649      1859.780    21830481.163    89392180.99047
      1449.176  
  23417410.882   123059310.26748     -2606.347    23417417.919    95890392.34446
     -2030.925  
  22956499.745   120637229.58048      3700.922    22956508.041    94003054.91445
      2883.836  
  20627277.568   110458117.914 9     -2853.120    20627284.568    85911899.338 8
     -2219.098  
  22724943.470   121264653.684 6      3288.020    22724958.690    94317020.899 6
      2557.347  
  23002831.457   122661187.051 7      4087.570    23002846.457    95403200.217 3
      3179.227  
  19566230.158   104592714.628 9       520.355    19566240.331    81349931.479 7
       404.722  
  19883650.565   106326824.089 8      2190.938    19883656.730    82698666.174 7
      1704.085  
  19585881.497   104771246.671 9     -1782.734    19585891.610    81488787.539 7
     -1386.573  
 15  5 13  3 27  0.0000000  0 12G18G21G22G27G15G14R 8R 2R17R 1R24R23
  19927905.543   104721847.41049      -827.406    19927908.348    81601449.48448
      -644.730  
  21224610.889   111536073.71449     -1993.151    21224614.237    86911237.14447
     -1553.109  
  20686966.994   108710747.41449      1302.214    20686968.551    84709683.71848
      1014.711  
  21819905.775   114664386.05049      1842.855    21819912.846    89348905.46448
      1435.992  
  23432321.188   123137663.89148     -2616.937    23432328.130    95951447.07247
     -2039.179  
  22935388.921   120526291.73748      3694.934    22935397.255    93916609.96046
      2879.168  
  20643286.959   110543846.976 8     -2861.917    20643293.964    85978577.409 8
     -2225.941  
  22706486.258   121166163.030 7      3278.022    22706501.571    94240417.130 6
      2549.574  
  22979846.370   122538622.667 6      4083.956    22979861.660    95307872.677 2
      3176.413  
  19563361.766   104577381.586 9       502.297    19563371.904    81338005.794 7
       390.671  
  19871412.631   106261382.478 8      2171.957    19871418.905    82647767.188 7
      1689.300  
  19595943.654   104825072.269 9     -1805.379    19595953.691    81530651.824 7
     -1404.187  
 15  5 13  3 27 30.0000000  0 13G18G21G22G27G15G19G14R 8R 2R17R 1R24
                                R23
  19932664.894   104746857.97149      -839.437    19932667.645    81620938.22748
      -654.108  
  21236020.118   111596029.49149     -2003.438    21236023.477    86957955.88547
     -1561.125  
  20679565.594   108671853.26349      1291.233    20679567.156    84679376.61948
      1006.156  
  21809433.719   114609354.93049      1826.214    21809440.825    89306024.13548
      1423.022  
  23447292.849   123216341.15748     -2627.835    23447299.962    96012753.94147
     -2047.668  
  24549060.767   129006172.55256      3389.813    24549067.858   100524307.29356
      2641.421  
  22914313.190   120415538.95948      3689.022    22914321.540    93830309.21146
      2874.562  
  20659344.899   110629836.735 8     -2870.444    20659351.789    86045458.247 8
     -2232.573  
  22688087.074   121067980.269 7      3267.785    22688101.963    94164052.831 6
      2541.609  
  22956881.950   122416168.734 6      4080.120    22956897.172    95212630.989 3
      3173.433  
  19560596.165   104562597.707 9       483.875    19560606.269    81326507.234 7
       376.351  
  19859282.334   106196516.611 8      2152.804    19859288.658    82597316.009 7
      1674.402  
  19606132.941   104879577.646 9     -1827.910    19606142.993    81573044.828 6
     -1421.711  
 15  5 13  3 28  0.0000000  0 13G18G21G22G27G15G19G14R 8R 2R17R 1R24
                                R23
  19937488.914   104772208.74049      -851.546    19937491.673    81640692.06748
      -663.546  
  21247484.876   111656276.61249     -2014.046    21247488.166    87004901.65347
     -1569.391  
  20672223.690   108633271.45749      1279.949    20672225.293    84649312.91648
       997.362  
  21799055.001   114554814.24449      1808.964    21799062.059    89263524.94548
      1409.581  
  23462322.400   123295322.07348     -2638.602    23462329.587    96074297.43047
     -2056.062  
  24529725.077   128904563.78447      3382.953    24529731.964   100445131.82245
      2636.070  
  22893269.798   120304956.56248      3682.328    22893278.119    93744141.23246
      2869.347  
  20675447.666   110716066.135 8     -2879.222    20675454.615    86112525.477 8
     -2239.397  
  22669742.215   120970088.868 7      3257.272    22669757.314    94087915.164 7
      2533.437  
  22933936.008   122293812.365 6      4075.832    22933950.732    95117465.219 3
      3170.098  
  19557929.695   104548343.490 9       465.433    19557939.816    81315420.631 6
       361.984  
  19847256.991   106132212.231 8      2133.051    19847263.404    82547301.541 7
      1659.038  
  19616445.671   104934743.892 9     -1850.828    19616455.805    81615951.831 6
     -1439.535  
 15  5 13  3 28 30.0000000  0 13G18G21G22G27G15G19G14R 8R 2R17R 1R24
                                R23
  19942384.664   104797936.11249      -863.065    19942387.426    81660739.35448
      -672.522  
  21259012.129   111716852.45149     -2023.944    21259015.424    87052103.56747
     -1577.105  
  20664948.377   108595039.64649      1269.270    20664949.994    84619521.93948
       989.042  
  21788777.160   114500803.94849      1792.301    21788784.106    89221439.07248
      1396.598  
  23477416.840   123374642.42148     -2648.828    23477423.528    96136105.43847
     -2064.026  
  24510429.693   128803168.38447      3377.176    24510437.035   100366122.56546
      2631.570  
  22872266.871   120194585.34348      3676.297    22872275.021    93658137.80646
      2864.651  
  20691601.729   110802570.563 8     -2887.292    20691608.728    86179806.632 8
     -2245.676  
  22651459.477   120872528.987 7      3247.015    22651474.591    94012035.326 7
      2525.457  
  22911016.027   122171595.029 6      4072.323    22911031.413    95022407.552 3
      3167.371  
  19555369.335   104534657.087 9       447.573    19555379.479    81304775.665 7
       348.112  
  19835344.649   106068511.581 8      2113.988    19835351.058    82497756.641 7
      1644.214  
  19626889.038   104990608.333 9     -1872.917    19626899.207    81659401.886 7
     -1456.719  
 15  5 13  3 29  0.0000000  0 13G18G21G22G27G15G19G14R 8R 2R17R 1R24
                                R23
  19947347.147   104824014.04349      -875.461    19947349.880    81681059.80648
      -682.179  
  21270597.086   111777731.62449     -2034.706    21270600.426    87099541.84047
     -1585.488  
  20657734.831   108557132.48749      1257.801    20657736.536    84589983.93948
       980.104  
  21778595.809   114447301.08849      1774.640    21778602.652    89179748.59648
      1382.836  
  23492570.484   123454274.55048     -2660.102    23492577.064    96198156.35547
     -2072.813  
  24491171.062   128701963.75347      3369.718    24491178.505   100287261.97946
      2625.762  
  22851300.056   120084403.17248      3669.191    22851308.084    93572281.70446
      2859.113  
  20707801.817   110889321.486 8     -2895.973    20707808.909    86247279.501 8
     -2252.426  
  22633234.330   120775276.235 7      3236.379    22633249.210    93936394.386 7
      2517.184  
  22888118.478   122049495.369 6      4067.395    22888133.288    94927441.355 4
      3163.535  
  19552910.179   104521511.523 9       428.871    19552920.180    81294551.341 7
       333.566  
  19823540.967   106005392.428 8      2093.858    19823547.461    82448664.008 7
      1628.558  
  19637457.905   105047144.081 9     -1896.085    19637467.885    81703374.069 6
     -1474.737  
 15  5 13  3 29 30.0000000  0 13G18G21G22G27G15G19G14R 8R 2R17R 1R24
                                R23
  19952377.108   104850446.51049      -887.136    19952379.815    81701656.51848
      -691.276  
  21282240.661   111838919.02549     -2044.788    21282244.037    87147220.29247
     -1593.348  
  20650584.051   108519555.35449      1246.938    20650585.783    84560703.11448
       971.640  
  21768512.548   114394313.25549      1757.441    21768519.368    89138459.42048
      1369.433  
  23507784.022   123534222.16748     -2670.316    23507790.686    96260453.12346
     -2080.770  
  24471950.177   128600958.54247      3363.487    24471957.800   100208556.87446
      2620.905  
  22830370.535   119974418.01848      3662.604    22830378.487    93486579.09746
      2853.976  
  20724048.453   110976321.299 8     -2904.180    20724055.570    86314945.958 8
     -2258.808  
  22615068.045   120678337.898 7      3226.124    22615083.228    93860998.004 7
      2509.206  
  22865244.056   121927520.784 5      4063.832    22865259.403    94832572.531 3
      3160.766  
  19550552.955   104508911.057 9       410.862    19550562.915    81284750.992 7
       319.558  
  19811847.824   105942864.001 8      2074.233    19811854.342    82400030.839 7
      1613.292  
  19648153.057   105104355.904 9     -1918.344    19648163.203    81747872.087 6
     -1492.050  
 15  5 13  3 30  0.0000000  0 13G18G21G22G27G15G19G14R 8R 2R17R 1R24
                                R23
  19957474.533   104877233.43849      -898.964    19957477.215    81722529.42448
      -700.495  
  21293943.056   111900415.62149     -2055.246    21293946.431    87195139.67047
     -1601.496  
  20643496.328   108482309.40049      1235.854    20643498.014    84531680.35448
       963.003  
  21758527.849   114341843.62149      1740.105    21758534.721    89097574.05448
      1355.925  
  23523057.482   123614484.02148     -2680.832    23523064.006    96322994.75447
     -2088.964  
  24452768.228   128500156.68748      3356.550    24452775.846   100130010.22946
      2615.495  
  22809479.355   119864634.90348      3655.824    22809487.476    93401033.96246
      2848.699  
  20740341.194   111063568.093 8     -2912.534    20740348.571    86382804.511 8
     -2265.309  
  22596961.242   120581716.524 7      3215.035    22596976.112    93785848.127 7
      2500.581  
  22842394.004   121805677.399 5      4058.647    22842409.517    94737805.744 4
      3156.737  
  19548297.769   104496855.732 9       392.483    19548307.879    81275374.644 7
       305.351  
  19800266.102   105880931.046 8      2054.191    19800272.333    82351860.820 7
      1597.702  
  19658974.660   105162243.963 9     -1941.145    19658984.735    81792896.070 6
     -1509.781  
 15  5 13  3 30 30.0000000  0 13G18G21G22G27G15G19G14R 8R 2R17R 1R24
                                R23
  19962638.205   104904368.44149      -910.272    19962640.935    81743673.55948
      -709.308  
  21305703.283   111962216.09349     -2064.957    21305706.720    87243295.83647
     -1609.062  
  20636470.635   108445389.53949      1225.270    20636472.411    84502911.68748
       954.754  
  21748641.084   114289889.19849      1723.164    21748648.051    89057090.16848
      1342.726  
  23538389.349   123695052.59048     -2690.617    23538395.932    96385775.36446
     -2096.590  
  24433624.355   128399555.36348      3350.027    24433631.789   100051619.76545
      2610.413  
  22788626.270   119755051.36048      3649.569    22788634.315    93315644.31846
      2843.820  
  20756678.525   111151053.729 8     -2919.956    20756686.235    86450848.839 8
     -2271.081  
  22578913.135   120485408.088 7      3204.972    22578927.739    93710941.647 7
      2492.757  
  22819568.727   121683964.037 5      4055.253    22819584.162    94643140.043 4
      3154.089  
  19546143.295   104485339.085 9       375.023    19546153.385    81266417.252 6
       291.680  
  19788795.227   105819591.875 8      2034.796    19788801.553    82304152.636 7
      1582.620  
  19669921.520   105220801.659 9     -1962.999    19669931.671    81838440.868 6
     -1526.781  
 15  5 13  3 31  0.0000000  0 13G18G21G22G27G15G19G14R 8R 2R17R 1R24
                                R23
  19967868.797   104931855.07449      -922.003    19967871.533    81765091.70048
      -718.448  
  21317522.266   112024325.04749     -2075.336    21317525.589    87291692.38247
     -1617.147  
  20629507.828   108408800.05549      1214.179    20629509.611    84474400.46648
       946.112  
  21738853.825   114238456.93049      1705.714    21738860.676    89017013.12948
      1329.128  
  23553779.990   123775930.48748     -2700.901    23553786.497    96448797.03046
     -2104.602  
  24414520.167   128299162.83148      3343.051    24414527.787    99973392.10246
      2604.984  
  22767812.498   119645674.96948      3642.417    22767820.364    93230416.07546
      2838.245  
  20773060.882   111238780.224 8     -2928.145    20773068.645    86519080.499 8
     -2277.448  
  22560924.720   120389419.144 7      3194.449    22560939.683    93636283.721 7
      2484.574  
  22796769.340   121562389.411 4      4049.698    22796785.244    94548582.363 4
      3149.776  
  19544090.262   104474364.760 9       356.815    19544100.429    81257881.682 7
       277.531  
  19777437.209   105758855.105 8      2014.503    19777443.341    82256912.979 7
      1566.836  
  19680994.264   105280032.996 9     -1985.538    19681004.328    81884509.620 6
     -1544.313  
 15  5 13  3 31 30.0000000  0 13G18G21G22G27G15G19G14R 8R 2R17R 1R24
                                R23
  19973165.422   104959689.08549      -933.616    19973168.118    81786780.52048
      -727.495  
  21329399.436   112086739.09049     -2085.465    21329402.629    87340326.65647
     -1625.042  
  20622607.445   108372538.29849      1203.285    20622609.173    84446144.60448
       937.624  
  21729165.807   114187545.92349      1688.374    21729172.601    88977342.26648
      1315.616  
  23569228.452   123857112.60748     -2711.023    23569234.901    96512055.75746
     -2112.488  
  24395455.783   128198978.94348      3335.897    24395463.136    99895326.94746
      2599.406  
  22747038.161   119536505.93348      3635.379    22747045.995    93145349.41246
      2832.765  
  20789487.176   111326741.222 8     -2935.909    20789494.595    86587494.561 8
     -2283.483  
  22542995.735   120293747.836 7      3183.547    22543010.862    93561872.803 7
      2476.093  
  22773996.376   121440953.346 5      4045.374    22774011.586    94454132.446 4
      3146.414  
  19542137.967   104463928.783 9       338.859    19542148.091    81249764.820 7
       263.559  
  19766191.791   105698721.362 8      1994.301    19766197.906    82210142.345 7
      1551.120  
  19692192.053   105339933.243 9     -2007.862    19692202.210    81931098.628 6
     -1561.675  
 15  5 13  3 32  0.0000000  0 13G18G21G22G27G15G19G14R 8R 2R17R 1R24
                                R23
  19978527.604   104987867.60749      -944.883    19978530.248    81808737.79548
      -736.276  
  21341334.046   112149455.82849     -2095.487    21341337.365    87389196.77847
     -1632.852  
  20615769.023   108336602.36549      1192.559    20615770.789    84418142.63048
       929.266  
  21719576.981   114137156.61449      1670.949    21719583.880    88938077.93448
      1302.039  
  23584734.281   123938595.19748     -2721.008    23584740.728    96575548.58946
     -2120.270  
  24376431.196   128099004.65748      3329.108    24376438.338    99817425.14245
      2594.113  
  22726303.675   119427545.69548      3628.640    22726311.507    93060445.43046
      2827.515  
  20805956.316   111414932.496 8     -2943.289    20805963.799    86656087.713 8
     -2289.230  
  22525126.530   120198394.142 7      3173.382    22525141.588    93487708.964 7
      2468.190  
  22751249.621   121319658.693 5      4041.187    22751264.726    94359792.453 4
      3143.147  
  19540285.882   104454028.075 9       321.316    19540295.994    81242064.293 6
       249.913  
  19755059.509   105639192.547 8      1974.437    19755065.789    82163842.204 7
      1535.671  
  19703514.383   105400499.760 9     -2029.901    19703524.459    81978205.855 6
     -1578.816  
 15  5 13  3 32 30.0000000  0 13G18G21G22G27G15G19G14R 8R 2R17R 1R24
                                R23
  19983955.939   105016393.66649      -956.656    19983958.551    81830965.88248
      -745.448  
  21353327.012   112212479.16349     -2105.800    21353330.377    87438305.81347
     -1640.886  
  20608993.389   108300996.23349      1181.417    20608995.103    84390397.64048
       920.585  
  21710088.610   114087295.20449      1653.250    21710095.580    88899224.96148
      1288.245  
  23600297.587   124020380.32848     -2731.215    23600303.915    96639277.20846
     -2128.222  
  24357447.729   127999246.86548      3321.784    24357454.741    99739691.92444
      2588.405  
  22705610.269   119318801.23748      3621.315    22705618.060    92975709.60146
      2821.805  
  20822468.502   111503354.974 8     -2951.296    20822476.001    86724860.704 8
     -2295.457  
  22507317.702   120103363.543 7      3162.323    22507332.597    93413796.414 7
      2459.590  
  22728530.971   121198512.536 5      4035.612    22728545.483    94265567.907 5
      3138.815  
  19538534.461   104444665.756 9       303.199    19538544.492    81234782.504 6
       235.805  
  19744041.806   105580276.342 8      1953.688    19744048.137    82118018.544 7
      1519.535  
  19714961.731   105461735.352 9     -2052.343    19714971.917    82025833.467 6
     -1596.269  
 15  5 13  3 33  0.0000000  0 13G18G21G22G27G15G19G14R 8R 2R17R 1R24
                                R23
  19989449.704   105045263.87949      -967.965    19989452.452    81853462.14548
      -754.261  
  21365377.895   112275806.73349     -2116.003    21365381.184    87487651.91747
     -1648.840  
  20602280.080   108265717.77249      1170.530    20602281.838    84362907.97348
       912.102  
  21700700.686   114037961.48549      1635.745    21700707.646    88860783.16148
      1274.604  
  23615917.644   124102463.56048     -2741.047    23615923.957    96703238.10446
     -2135.882  
  24338505.545   127899706.32647      3314.397    24338512.890    99662128.05345
      2582.656  
  22684958.050   119210273.46748      3613.926    22684965.762    92891142.61046
      2816.046  
  20839023.041   111592003.591 8     -2958.625    20839030.550    86793809.565 8
     -2301.155  
  22489569.291   120008655.152 7      3151.734    22489584.178    93340134.450 7
      2451.351  
  22705840.447   121077516.918 6      4030.727    22705854.828    94171460.523 5
      3135.016  
  19536883.013   104435837.913 9       285.476    19536893.119    81227916.422 7
       222.035  
  19733138.891   105521973.932 8      1933.116    19733145.314    82072672.284 7
      1503.535  
  19726533.584   105523636.713 9     -2074.465    19726543.794    82073978.888 6
     -1613.479  
 15  5 13  3 33 30.0000000  0 13G18G21G22G27G15G19G14R 8R 2R17R 1R24
                                R23
  19995009.464   105074480.70749      -979.343    19995012.253    81876228.50548
      -763.129  
  21377487.304   112339442.10649     -2125.840    21377490.733    87537237.86947
     -1656.504  
  20595629.722   108230770.34449      1159.745    20595631.513    84335676.25448
       903.699  
  21691414.214   113989161.33949      1617.980    21691421.165    88822757.13548
      1260.766  
  23631594.411   124184846.31048     -2750.746    23631601.035    96767432.36746
     -2143.440  
  24319605.784   127800389.25848      3307.319    24319613.692    99584738.43846
      2577.136  
  22664348.234   119101969.09248      3606.664    22664355.805    92806749.68646
      2810.391  
  20855619.904   111680879.195 8     -2965.983    20855627.468    86862934.985 8
     -2306.879  
  22471882.224   119914274.261 8      3141.097    22471897.216    93266727.241 7
      2443.078  
  22683179.746   120956679.484 6      4025.788    22683193.664    94077476.079 4
      3131.171  
  19535332.192   104427547.669 9       267.608    19535342.307    81221468.475 7
       208.176  
  19722352.295   105464292.845 8      1912.563    19722358.552    82027809.268 7
      1487.547  
  19738230.355   105586206.268 9     -2096.495    19738240.554    82122644.021 6
     -1630.612  
 15  5 13  3 34  0.0000000  0 13G18G21G22G27G15G19G14R 8R 2R17R 1R24
                                R23
  20000633.188   105104033.60949      -990.808    20000635.976    81899256.74348
      -772.059  
  21389653.490   112403375.90449     -2136.144    21389656.948    87587056.36347
     -1664.531  
  20589040.740   108196145.16849      1148.651    20589042.480    84308695.63848
       895.055  
  21682227.967   113940887.63049      1600.167    21682234.938    88785141.32448
      1246.883  
  23647326.076   124267517.29748     -2760.488    23647332.468    96831851.27046
     -2151.030  
  24300747.970   127701290.37348      3299.574    24300755.558    99507518.74944
      2571.097  
  22643779.957   118993882.16048      3599.266    22643787.583    92722526.19246
      2804.620  
  20872256.961   111769969.849 8     -2973.327    20872264.680    86932227.666 8
     -2312.594  
  22454255.095   119820212.836 8      3129.875    22454270.131    93193568.511 7
      2434.352  
  22660547.083   120835994.658 6      4020.245    22660561.276    93983610.445 5
      3126.866  
  19533879.842   104419784.369 9       249.964    19533890.091    81215430.394 7
       194.418  
  19711680.696   105407227.070 8      1891.933    19711686.843    81983424.833 7
      1471.503  
  19750050.078   105649433.472 9     -2118.578    19750060.317    82171820.671 6
     -1647.785  
 15  5 13  3 34 30.0000000  0 13G18G21G22G27G15G19G14R 8R 2R17R 1R24
                                R23
  20006321.666   105133926.69849     -1001.816    20006324.387    81922550.05348
      -780.640  
  21401877.446   112467612.75849     -2146.116    21401880.906    87637110.99147
     -1672.305  
  20582513.994   108161847.03749      1137.968    20582515.650    84281969.86348
       886.729  
  21673143.350   113893147.45649      1582.617    21673150.223    88747941.24748
      1233.206  
  23663113.300   124350479.62648     -2770.105    23663119.823    96896497.16146
     -2158.526  
  24281932.979   127602416.95548      3292.387    24281940.068    99430474.68043
      2565.499  
  22623254.582   118886020.99348      3591.633    22623262.187    92638478.62746
      2798.676  
  20888934.569   111859277.588 8     -2980.387    20888942.294    87001689.186 8
     -2318.081  
  22436689.038   119726477.585 7      3119.417    22436703.798    93120663.459 7
      2426.219  
  22637944.923   120715471.115 6      4014.804    22637959.082    93889870.139 5
      3122.633  
  19532526.748   104412551.528 9       232.421    19532536.776    81209804.885 7
       180.745  
  19701125.794   105350785.390 8      1871.238    19701131.826    81939525.799 7
      1455.406  
  19761993.422   105713322.124 9     -2140.520    19762003.734    82221511.761 6
     -1664.852  
 15  5 13  3 35  0.0000000  0 13G18G21G22G27G15G19G14R 8R 2R17R 1R24
                                R23
  20012075.443   105164162.69049     -1013.363    20012078.073    81946110.56348
      -789.637  
  21414159.751   112532156.42649     -2156.305    21414163.178    87687404.71547
     -1680.242  
  20576050.153   108127879.70049      1126.925    20576051.769    84255501.84848
       878.125  
  21664161.464   113845946.95149      1564.570    21664168.204    88711161.69048
      1219.144  
  23678956.078   124433734.79848     -2779.831    23678962.942    96961371.21146
     -2166.105  
  24263161.888   127503776.30347      3284.425    24263168.509    99353612.00244
      2559.296  
  22602773.379   118778392.17148      3583.855    22602781.045    92554612.11946
      2792.612  
  20905652.999   111948803.802 8     -2987.503    20905660.542    87071320.628 8
     -2323.616  
  22419185.018   119633073.937 8      3108.094    22419199.875    93048016.365 7
      2417.409  
  22615374.775   120595117.646 7      4009.191    22615388.783    93796262.174 4
      3118.269  
  19531273.475   104405852.315 9       214.676    19531283.521    81204594.420 7
       166.964  
  19690689.086   105294975.937 8      1849.827    19690695.142    81896118.490 7
      1438.754  
  19774060.932   105777875.101 9     -2162.617    19774071.243    82271719.553 6
     -1682.043  
 15  5 13  3 35 30.0000000  0 13G18G21G22G27G15G19G14R 8R 2R17R 1R24
                                R23
  20017893.008   105194734.10549     -1024.543    20017895.696    81969932.44248
      -798.344  
  21426499.209   112597000.18349     -2166.292    21426502.597    87737932.25947
     -1688.023  
  20569648.060   108094236.82049      1116.093    20569649.670    84229286.66748
       869.679  
  21655281.264   113799281.62649      1546.688    21655288.034    88674799.16048
      1205.211  
  23694853.230   124517274.39948     -2789.140    23694859.920    97026466.92746
     -2173.358  
  24244434.502   127405364.75447      3276.484    24244441.525    99276927.91745
      2553.108  
  22582335.851   118670992.83048      3576.226    22582343.397    92470924.43046
      2786.672  
  20922410.420   112038538.907 8     -2994.480    20922418.107    87141114.545 8
     -2329.042  
  22401742.406   119539996.723 8      3097.261    22401757.138    92975623.159 7
      2408.983  
  22592835.490   120474930.283 7      4003.629    22592849.657    93702783.312 4
      3113.937  
  19530118.651   104399679.150 9       197.030    19530128.727    81199793.108 7
       153.245  
  19680370.008   105239795.001 8      1829.004    19680376.002    81853200.029 7
      1422.559  
  19786251.125   105843084.354 9     -2184.516    19786261.482    82322437.785 6
     -1699.069  
 15  5 13  3 36  0.0000000  0 13G18G21G22G27G15G19G14R 8R 2R17R 1R24
                                R23
  20023774.204   105225640.12549     -1035.844    20023776.953    81994015.05148
      -807.155  
  21438895.698   112662143.99049     -2176.554    21438899.191    87788693.61747
     -1696.020  
  20563307.833   108060918.76249      1105.136    20563309.458    84203324.59348
       861.145  
  21646503.365   113753153.98649      1528.445    21646510.233    88638855.59748
      1190.996  
  23710804.109   124601096.95648     -2798.933    23710811.254    97091783.06846
     -2180.995  
  24225751.068   127307185.74147      3268.551    24225758.844    99200425.11846
      2546.933  
  22561942.686   118563826.46048      3568.183    22561950.115    92387418.28946
      2780.401  
  20939206.464   112128480.774 8     -3001.594    20939214.240    87211069.253 8
     -2334.577  
  22384361.145   119447247.794 8      3086.254    22384375.896    92903485.269 7
      2400.421  
  22570328.783   120354914.921 6      3997.938    22570342.723    93609438.247 4
      3109.515  
  19529062.043   104394030.910 9       179.398    19529072.057    81195400.076 7
       139.530  
  19670169.143   105185246.986 8      1807.477    19670175.303    81810773.835 7
      1405.815  
  19798563.849   105908948.653 9     -2206.429    19798574.222    82373665.506 6
     -1716.116  
 15  5 13  3 36 30.0000000  0 13G18G21G22G27G15G19G14R 8R 2R17R 1R24
                                R23
  20029719.000   105256880.61249     -1046.956    20029721.858    82018358.28548
      -815.815  
  21451349.464   112727588.96949     -2186.586    21451352.951    87839689.64847
     -1703.836  
  20557029.624   108027926.77149      1094.229    20557031.182    84177616.60048
       852.648  
  21637828.522   113707567.22149      1510.410    21637835.348    88603333.48648
      1176.941  
  23726808.673   124685201.63048     -2808.124    23726815.796    97157319.08646
     -2188.156  
  24207113.045   127209243.33148      3260.750    24207120.900    99124106.56946
      2540.844  
  22541594.628   118456897.07248      3560.219    22541602.054    92304096.81746
      2774.199  
  20956041.015   112218627.998 8     -3008.308    20956048.795    87281183.704 8
     -2339.801  
  22367041.795   119354829.615 7      3075.090    22367056.636    92831604.661 7
      2391.741  
  22547855.144   120235076.204 6      3991.586    22547868.911    93516230.552 4
      3104.569  
  19528103.536   104388907.486 9       161.926    19528113.632    81191415.234 7
       125.940  
  19660087.459   105131336.283 8      1786.469    19660093.732    81768843.328 7
      1389.476  
  19810999.077   105975468.146 9     -2228.285    19811009.366    82425402.812 6
     -1733.112  
 15  5 13  3 37  0.0000000  0 13G18G21G22G27G15G19G14R 8R 2R17R 1R24
                                R23
  20035727.099   105288453.41849     -1057.874    20035729.929    82042960.45848
      -824.319  
  21463860.326   112793333.68249     -2196.461    21463863.750    87890919.24947
     -1711.531  
  20550813.243   107995259.68849      1083.566    20550814.788    84152161.78848
       844.336  
  21629256.817   113662522.32549      1492.577    21629263.495    88568233.61948
      1163.046  
  23742866.490   124769585.56447     -2817.352    23742873.773    97223072.69146
     -2195.348  
  24188520.726   127111539.65847      3252.987    24188528.061    99047973.97245
      2534.800  
  22521291.832   118350206.78348      3552.476    22521299.636    92220961.68346
      2768.168  
  20972912.895   112308976.588 8     -3014.738    20972920.849    87351454.774 8
     -2344.801  
  22349784.640   119262742.751 7      3064.207    22349799.332    92759981.724 7
      2383.276  
  22525415.111   120115417.754 6      3986.188    22525428.986    93423163.088 4
      3100.374  
  19527242.756   104384306.593 9       144.777    19527252.785    81187836.802 6
       112.605  
  19650125.445   105078065.513 8      1765.097    19650131.831    81727410.544 7
      1372.855  
  19823556.272   106042640.451 9     -2249.824    19823566.703    82477647.861 6
     -1749.867  
 15  5 13  3 37 30.0000000  0 13G18G21G22G27G15G19G14R 8R 2R17R 1R24
                                R23
  20041799.008   105320361.42249     -1068.710    20041801.795    82067823.82948
      -832.766  
  21476428.856   112859381.84649     -2206.141    21476432.385    87942385.30247
     -1719.074  
  20544659.509   107962921.44049      1072.894    20544660.937    84126963.20148
       836.023  
  21620789.175   113618025.22149      1474.608    21620795.951    88533560.59548
      1149.046  
  23758977.787   124854249.46848     -2826.184    23758984.821    97289044.45846
     -2202.226  
  24169974.212   127014081.25946      3245.262    24169981.930    98972032.66646
      2528.780  
  22501036.092   118243762.89748      3544.347    22501043.777    92138018.54546
      2761.827  
  20989822.758   112399527.726 8     -3021.269    20989830.527    87421883.361 8
     -2349.879  
  22332590.413   119170992.312 8      3053.155    22332605.122    92688620.463 7
      2374.679  
  22503010.202   119995945.752 6      3979.905    22503023.856    93330240.594 4
      3095.488  
  19526480.195   104380230.767 9       127.597    19526490.279    81184666.743 7
        99.237  
  19640284.539   105025442.047 8      1743.718    19640290.836    81686481.218 7
      1356.227  
  19836235.980   106110467.870 9     -2271.344    19836246.292    82530402.450 6
     -1766.604  
 15  5 13  3 38  0.0000000  0 13G18G21G22G27G15G19G14R 8R 2R17R 1R24
                                R23
  20047932.932   105352595.25649     -1080.022    20047935.719    82092941.09548
      -841.582  
  21489053.513   112925724.46149     -2216.551    21489057.074    87994080.79147
     -1727.187  
  20538566.679   107930903.43649      1061.780    20538568.073    84102014.16148
       827.363  
  21612424.532   113574069.22749      1455.938    21612431.332    88499309.22348
      1134.496  
  23775140.292   124939183.41048     -2835.930    23775147.487    97355226.59446
     -2209.820  
  24151473.763   126916862.77347      3236.457    24151481.688    98896278.23446
      2521.917  
  22480826.387   118137559.86848      3535.866    22480833.892    92055263.10146
      2755.229  
  21006768.460   112490270.100 8     -3028.164    21006775.995    87492460.700 8
     -2355.242  
  22315457.842   119079570.976 7      3041.680    22315472.736    92617515.198 7
      2365.754  
  22480639.487   119876656.123 6      3973.124    22480652.924    93237459.934 4
      3090.210  
  19525814.078   104376669.960 9       110.026    19525824.173    81181897.265 7
        85.577  
  19630563.691   104973460.707 8      1721.558    19630569.973    81646051.317 7
      1338.988  
  19849036.233   106178940.219 9     -2293.289    19849046.658    82583658.639 6
     -1783.671  
 15  5 13  3 38 30.0000000  0 13G18G21G22G27G15G19G14R 8R 2R17R 1R24
                                R23
  20054129.233   105385156.91249     -1091.175    20054132.025    82118313.80948
      -850.269  
  21501734.780   112992365.03049     -2226.656    21501738.445    88046008.45247
     -1735.062  
  20532535.399   107899209.25049      1050.777    20532536.852    84077317.44648
       818.788  
  21604164.056   113530659.91549      1437.570    21604170.746    88465483.81948
      1120.183  
  23791354.665   125024388.67348     -2844.897    23791361.505    97421620.19446
     -2216.809  
  24133020.823   126819890.98346      3228.066    24133027.951    98820715.95446
      2515.382  
  22460663.574   118031604.32348      3527.410    22460671.136    91972700.51746
      2748.637  
  21023749.882   112581204.626 8     -3034.559    21023757.441    87563187.480 8
     -2360.218  
  22298387.984   118988483.598 7      3030.344    22298402.697    92546669.670 7
      2356.937  
  22458304.396   119757556.991 6      3966.500    22458318.040    93144827.498 4
      3085.062  
  19525244.842   104373626.533 9        92.597    19525254.873    81179530.181 7
        72.019  
  19620964.403   104922128.722 8      1699.870    19620970.635    81606126.480 7
      1322.120  
  19861957.429   106248059.530 9     -2314.987    19861967.727    82637418.021 6
     -1800.550  
 15  5 13  3 39  0.0000000  0 13G18G21G22G27G15G19G14R 8R 2R17R 1R24
                                R23
  20060388.448   105418049.34149     -1101.535    20060391.214    82143944.26848
      -858.344  
  21514473.463   113059306.85349     -2235.901    21514477.007    88098170.85547
     -1742.266  
  20526566.439   107867842.30849      1040.410    20526567.926    84052875.72348
       810.710  
  21596008.605   113487802.88449      1419.590    21596015.283    88432088.77948
      1106.176  
  23807620.646   125109867.10248     -2853.363    23807627.524    97488226.63346
     -2223.401  
  24114615.797   126723172.41947      3220.062    24114623.111    98745351.17947
      2509.148  
  22440549.240   117925902.81748      3519.370    22440556.515    91890335.85346
      2742.370  
  21040767.344   112672332.425 8     -3040.586    21040774.933    87634064.575 8
     -2364.901  
  22281381.584   118897735.504 7      3019.581    22281396.226    92476088.030 7
      2348.569  
  22436006.892   119638656.441 6      3960.050    22436019.793    93052349.454 4
      3080.046  
  19524772.732   104371102.993 9        75.780    19524782.876    81177567.459 7
        58.941  
  19611487.741   104871453.003 8      1678.526    19611493.996    81566712.058 7
      1305.520  
  19874999.989   106317827.995 9     -2336.137    19875010.389    82691682.301 6
     -1816.999  
 15  5 13  3 39 30.0000000  0 13G18G21G22G27G15G19G14R 8R 2R17R 1R24
                                R23
  20066709.472   105451266.38949     -1112.621    20066712.193    82169827.68148
      -866.977  
  21527268.552   113126545.15849     -2246.136    21527272.139    88150564.28247
     -1750.242  
  20520658.860   107836797.98949      1029.456    20520660.433    84028685.40248
       802.176  
  21587957.677   113445495.50349      1401.112    21587964.383    88399122.03248
      1091.776  
  23823937.357   125195611.74748     -2862.675    23823944.269    97555040.51046
     -2230.664  
  24096258.307   126626705.22145      3211.085    24096265.959    98670182.24446
      2502.159  
  22420482.818   117820453.96148      3510.878    22420489.865    91808168.08746
      2735.754  
  21057819.614   112763645.960 8     -3046.805    21057827.197    87705086.122 8
     -2369.746  
  22264437.877   118807323.387 7      3008.183    22264452.713    92405767.726 7
      2339.703  
  22413746.279   119519953.047 6      3953.680    22413759.223    92960024.795 3
      3075.089  
  19524396.773   104369093.184 9        58.563    19524406.799    81176004.297 7
        45.547  
  19602133.613   104821432.245 8      1656.339    19602139.759    81527807.066 7
      1288.265  
  19888162.759   106388239.623 9     -2357.688    19888173.111    82746446.823 6
     -1833.761  
 15  5 13  3 40  0.0000000  0 13G18G21G22G27G15G19G14R 8R 2R17R 1R24
                                R23
  20073092.668   105484810.02549     -1123.660    20073095.344    82195965.58548
      -875.582  
  21540120.472   113194082.17049     -2256.367    21540124.021    88203190.46747
     -1758.211  
  20514813.095   107806078.84949      1018.323    20514814.779    84004748.45848
       793.500  
  21580012.232   113403742.25349      1382.328    21580018.982    88366587.06848
      1077.140  
  23840304.941   125281623.14048     -2871.683    23840311.810    97622062.26146
     -2237.684  
  24077950.226   126530495.13847      3202.551    24077957.139    98595213.46746
      2495.492  
  22400465.560   117715263.68648      3501.926    22400472.966    91726201.82346
      2728.777  
  21074906.520   112855145.317 8     -3053.156    21074914.334    87776252.194 8
     -2374.684  
  22247558.090   118717251.076 7      2996.703    22247573.219    92335711.745 7
      2330.777  
  22391523.597   119401454.732 6      3946.733    22391536.736    92867859.614 4
      3069.688  
  19524117.117   104367598.418 9        41.140    19524127.102    81174841.720 7
        32.000  
  19592903.095   104772072.421 8      1634.124    19592909.226    81489416.131 7
      1270.984  
  19901445.928   106459295.248 9     -2379.363    19901456.274    82801712.230 6
     -1850.621  
 15  5 13  3 40 30.0000000  0 13G18G21G22G27G15G19G14R 8R 2R17R 1R24
                                R23
  20079537.013   105518675.31849     -1134.214    20079539.720    82222354.13348
      -883.808  
  21553028.469   113261914.18748     -2266.104    21553032.185    88256046.52047
     -1765.801  
  20509028.629   107775681.71649      1007.804    20509030.423    83981062.42448
       785.301  
  21572172.020   113362541.72449      1364.098    21572178.726    88334482.81348
      1062.934  
  23856722.484   125367896.00348     -2880.211    23856729.086    97689287.76146
     -2244.327  
  24059690.986   126434541.99447      3194.019    24059697.801    98520445.03046
      2488.855  
  22380497.714   117610331.82148      3493.414    22380505.116    91644436.91146
      2722.145  
  21092027.072   112946824.470 8     -3058.973    21092034.893    87847558.123 8
     -2379.202  
  22230741.844   118627516.331 7      2985.499    22230756.842    92265918.290 7
      2322.058  
  22369339.546   119283161.634 5      3939.691    22369353.355    92775854.125 4
      3064.210  
  19523932.911   104366613.826 9        24.355    19523942.851    81174075.947 7
        18.941  
  19583796.183   104723373.764 8      1612.273    19583802.318    81451539.438 7
      1253.992  
  19914848.571   106530990.068 9     -2400.546    19914859.086    82857474.791 6
     -1867.098  
 15  5 13  3 41  0.0000000  0 13G18G21G22G27G15G19G14R 8R 2R17R 1R24
                                R23
  20086042.068   105552859.89849     -1144.870    20086044.770    82248991.47648
      -892.109  
  21565992.387   113330039.91049     -2275.844    21565996.077    88309131.43247
     -1773.387  
  20503305.140   107745604.92149       997.171    20503306.968    83957626.01948
       777.016  
  21564437.014   113321894.49449      1345.656    21564443.725    88302809.68348
      1048.562  
  23873188.912   125454426.97948     -2888.550    23873195.306    97756714.39746
     -2250.823  
  24041481.059   126338847.49248      3185.551    24041487.504    98445878.12846
      2482.249  
  22360579.103   117505659.91048      3484.683    22360586.535    91562874.55746
      2715.339  
  21109180.411   113038679.666 8     -3064.905    21109188.325    87919000.969 8
     -2383.819  
  22213988.898   118538119.433 7      2974.328    22214003.156    92196387.585 6
      2313.371  
  22347194.870   119165076.595 6      3932.624    22347208.640    92684010.408 4
      3058.710  
  19523843.699   104366136.994 9         7.335    19523853.700    81173705.098 7
         5.707  
  19574813.274   104675338.239 8      1589.999    19574819.270    81414178.514 7
      1236.667  
  19928370.122   106603321.059 9     -2421.620    19928380.575    82913732.149 6
     -1883.487  
 15  5 13  3 41 30.0000000  0 14G18G21G22G27G15G19G24G14R 8R 2R17R 1
                                R24R23
  20092608.906   105587369.33349     -1155.565    20092611.625    82275881.96248
      -900.440  
  21579013.418   113398465.67249     -2285.676    21579017.083    88362450.14747
     -1781.051  
  20497643.987   107715855.48849       986.202    20497645.820    83934444.68948
       768.469  
  21556808.883   113281809.17549      1326.874    21556815.819    88271574.43448
      1033.929  
  23889705.253   125541220.65748     -2897.351    23889711.862    97824345.71446
     -2257.680  
  24023322.066   126243421.40447      3176.492    24023328.233    98371520.29446
      2475.191  
  24336360.126   127888433.38657      1582.531    24336369.811    99653363.62956
      1233.141  
  22340712.020   117401257.93148      3475.652    22340719.212    91481522.53546
      2708.305  
  21126367.442   113130714.967 8     -3070.788    21126375.261    87990583.886 8
     -2388.394  
  22197300.620   118449068.274 7      2962.801    22197314.757    92127125.783 7
      2304.405  
  22325091.035   119047210.678 6      3925.179    22325105.013    92592337.131 4
      3052.921  
  19523850.348   104366173.164 9        -9.684    19523860.364    81173733.244 7
        -7.534  
  19565956.382   104627976.080 8      1567.745    19565962.168    81377341.328 7
      1219.358  
  19942011.525   106676293.149 9     -2443.015    19942022.054    82970488.141 6
     -1900.129  
 15  5 13  3 42  0.0000000  0 14G18G21G22G27G15G19G24G14R 8R 2R17R 1
                                R24R23
  20099237.232   105622201.48049     -1166.222    20099239.888    82303023.90448
      -908.746  
  21592091.145   113467189.40449     -2295.695    21592094.942    88416001.04547
     -1788.855  
  20492044.757   107686431.55549       975.487    20492046.505    83911516.99148
       760.120  
  21549287.866   113242285.90149      1308.194    21549294.778    88240777.12248
      1019.370  
  23906270.918   125628273.15648     -2905.777    23906277.660    97892178.70147
     -2264.250  
  24005214.471   126148265.07248      3167.617    24005220.440    98297372.68647
      2468.277  
  24327357.144   127841128.11546      1571.624    24327368.948    99616502.56746
      1224.647  
  22320896.520   117297127.33848      3466.688    22320903.555    91400381.98246
      2701.319  
  21143587.242   113222926.275 8     -3076.452    21143595.188    88062303.711 7
     -2392.805  
  22180676.851   118360362.405 7      2951.398    22180691.182    92058132.587 7
      2295.539  
  22303028.557   118929565.203 6      3917.988    22303042.214    92500835.314 4
      3047.331  
  19523952.483   104366719.229 9       -26.469    19523962.643    81174157.984 7
       -20.585  
  19557225.487   104581288.561 8      1545.108    19557231.596    81341028.861 7
      1201.750  
  19955772.095   106749903.078 9     -2464.055    19955782.688    83027740.232 6
     -1916.492  
 15  5 13  3 42 30.0000000  0 14G18G21G22G27G15G19G24G14R 8R 2R17R 1
                                R24R23
  20105924.326   105657342.49349     -1176.757    20105927.012    82330406.53048
      -916.953  
  21605223.146   113536198.41048     -2305.300    21605226.920    88469774.23747
     -1796.343  
  20486505.151   107657320.85349       964.953    20486506.804    83888833.37548
       751.910  
  21541871.766   113203314.37949      1289.710    21541878.544    88210409.75948
      1004.968  
  23922883.094   125715570.51548     -2914.370    23922889.979    97960202.49347
     -2270.944  
  23987156.367   126053369.24748      3158.570    23987162.152    98223428.01947
      2461.226  
  24318416.456   127794140.45347      1560.788    24318427.549    99579889.00346
      1216.202  
  22301130.753   117193259.06448      3457.602    22301137.885    91319445.83647
      2694.238  
  21160837.243   113315298.686 8     -3082.117    21160844.946    88134148.846 7
     -2397.207  
  22164115.759   118271990.871 7      2939.750    22164130.241    91989399.438 7
      2286.336  
  22281006.304   118812133.411 6      3910.320    22281019.978    92409499.635 4
      3041.363  
  19524147.453   104367761.485 9       -43.237    19524157.561    81174968.641 7
       -33.628  
  19548619.232   104535267.111 8      1522.680    19548625.347    81305234.435 7
      1184.304  
  19969649.519   106824137.344 9     -2485.145    19969660.169    83085477.914 6
     -1932.895  
 15  5 13  3 43  0.0000000  0 14G18G21G22G27G15G19G24G14R 8R 2R17R 1
                                R24R23
  20112671.791   105692800.59949     -1187.202    20112674.490    82358036.23048
      -925.094  
  21618411.279   113605502.17148     -2315.132    21618415.072    88523777.10947
     -1804.004  
  20481026.862   107628532.59549       954.229    20481028.553    83866401.00948
       743.554  
  21534562.756   113164905.67649      1270.890    21534569.433    88180480.95348
       990.304  
  23939543.358   125803119.66948     -2922.574    23939550.215    98028422.49946
     -2277.340  
  23969149.842   125958746.35348      3149.339    23969155.964    98149696.09447
      2454.035  
  24309537.475   127747482.65446      1550.035    24309548.736    99543532.43645
      1207.820  
  22281417.524   117089665.56448      3448.488    22281424.617    91238723.79946
      2687.133  
  21178118.482   113407838.688 8     -3087.516    21178126.150    88206124.323 7
     -2401.405  
  22147619.472   118183964.399 7      2928.617    22147633.772    91920934.655 7
      2277.770  
  22259026.813   118694928.930 6      3903.211    22259040.386    92318340.817 4
      3035.836  
  19524436.776   104369308.022 9       -59.995    19524446.857    81176171.531 7
       -46.664  
  19540139.828   104489924.083 8      1500.171    19540145.809    81269967.679 7
      1166.800  
  19983644.803   106899002.709 9     -2506.105    19983655.533    83143706.465 6
     -1949.195  
 15  5 13  3 43 30.0000000  0 14G18G21G22G27G15G19G24G14R 8R 2R17R 1
                                R24R23
  20119479.985   105728577.71349     -1197.543    20119482.609    82385914.49548
      -933.151  
  21631655.904   113675103.08348     -2324.679    21631659.822    88578011.51947
     -1811.441  
  20475610.475   107600069.60149       943.753    20475612.153    83844222.10048
       735.394  
  21527361.864   113127064.48649      1252.284    21527368.567    88150994.35848
       975.804  
  23956251.558   125890921.75848     -2930.737    23956258.625    98096839.58346
     -2283.695  
  23951196.583   125864402.37248      3140.488    23951202.724    98076181.45146
      2447.137  
  24300722.514   127701160.15947      1538.598    24300733.480    99507437.15546
      1198.909  
  22261757.700   116986352.86648      3439.379    22261764.867    91158220.56446
      2680.039  
  21195431.085   113500546.954 8     -3092.695    21195439.032    88278230.681 8
     -2405.434  
  22131188.714   118096286.945 7      2917.176    22131202.728    91852741.287 7
      2268.918  
  22237090.973   118577957.808 6      3895.301    22237104.398    92227363.476 4
      3029.683  
  19524820.679   104371359.891 9       -76.500    19524830.707    81177767.453 7
       -59.500  
  19531788.373   104445265.665 8      1477.347    19531794.477    81235233.393 7
      1149.047  
  19997758.504   106974500.864 9     -2526.812    19997769.362    83202427.179 6
     -1965.300  
 15  5 13  3 44  0.0000000  0 14G18G21G22G27G15G19G24G14R 8R 2R17R 1
                                R24R23
  20126347.687   105764667.60449     -1208.305    20126350.271    82414036.48648
      -941.539  
  21644956.185   113744996.06348     -2334.628    21644960.122    88632473.52447
     -1819.195  
  20470255.152   107571926.90849       932.664    20470256.579    83822292.76648
       726.749  
  21520268.336   113089787.70949      1233.102    21520275.030    88121947.57348
       960.858  
  23973006.584   125978969.69948     -2939.027    23973013.867    98165448.24946
     -2290.155  
  23933296.180   125770335.52648      3130.914    23933302.379    98002882.78247
      2439.676  
  24291970.906   127655170.67947      1527.577    24291981.957    99471601.38246
      1190.323  
  22242150.933   116883319.20448      3429.644    22242157.970    91077934.75746
      2672.449  
  21212773.821   113593416.047 8     -3098.456    21212781.983    88350462.145 8
     -2409.913  
  22114822.789   118008954.793 7      2905.257    22114836.489    91784816.504 7
      2259.699  
  22215198.903   118461220.273 6      3887.367    22215212.231    92136567.782 5
      3023.508  
  19525297.823   104373910.844 9       -93.405    19525307.945    81179751.554 7
       -72.647  
  19523564.734   104401290.295 8      1454.339    19523570.864    81201030.370 7
      1131.152  
  20011989.133   107050624.883 9     -2547.944    20011999.918    83261634.671 6
     -1981.738  
 15  5 13  3 44 30.0000000  0 14G18G21G22G27G15G19G24G14R 8R 2R17R 1
                                R24R23
  20133274.421   105801067.77349     -1218.694    20133277.068    82442400.24748
      -949.636  
  21658311.570   113815178.99248     -2344.422    21658315.372    88687161.44647
     -1826.823  
  20464960.440   107544102.78749       922.042    20464961.758    83800611.67048
       718.477  
  21513282.185   113053075.36449      1214.046    21513288.803    88093340.60848
       946.012  
  23989807.675   126067259.52648     -2947.144    23989814.807    98234245.41546
     -2296.479  
  23915448.720   125676546.89748      3121.277    23915455.066    97929800.89147
      2432.163  
  24283282.889   127609515.37547      1516.019    24283294.068    99436026.02346
      1181.316  
  22222597.504   116780566.05448      3420.176    22222604.480    90997867.54447
      2665.073  
  21230145.734   113686441.664 8     -3103.570    21230153.892    88422815.344 7
     -2413.891  
  22098521.366   117921967.619 7      2893.559    22098534.953    91717160.047 7
      2250.555  
  22193351.079   118344718.241 7      3879.047    22193364.305    92045955.295 5
      3017.034  
  19525867.850   104376958.117 9      -110.016    19525877.832    81182121.674 7
       -85.566  
  19515469.134   104357999.201 8      1431.354    19515475.054    81167359.553 7
      1113.277  
  20026336.122   107127371.292 9     -2568.746    20026346.787    83321326.251 6
     -1997.917  
 15  5 13  3 45  0.0000000  0 14G18G21G22G27G15G19G24G14R 8R 2R17R 1
                                R24R23
  20140260.946   105837781.99449     -1228.602    20140263.619    82471008.72548
      -957.355  
  21671722.970   113885655.93349     -2353.688    21671726.802    88742078.48047
     -1834.046  
  20459727.125   107516601.78049       911.729    20459728.440    83779182.35648
       710.438  
  21506404.626   113016933.64549      1195.660    21506411.097    88065178.27548
       931.683  
  24006655.187   126155793.86648     -2954.914    24006662.608    98303233.09446
     -2302.535  
  23897655.166   125583044.23148      3112.320    23897661.710    97856941.76346
      2425.183  
  24274659.900   127564201.72847      1505.148    24274671.125    99400716.82446
      1172.848  
  22203098.830   116678100.73748      3411.081    22203105.685    90918024.61346
      2657.988  
  21247547.125   113779626.012 8     -3108.332    21247555.205    88495292.011 7
     -2417.593  
  22082285.617   117835331.053 8      2882.492    22082298.987    91649776.262 7
      2241.941  
  22171548.903   118228459.375 7      3871.773    22171561.958    91955531.907 5
      3011.383  
  19526531.223   104380504.164 9      -126.175    19526541.124    81184879.735 6
       -98.136  
  19507502.762   104315400.085 8      1408.949    19507508.861    81134226.954 7
      1095.848  
  20040799.988   107204742.876 9     -2589.034    20040810.743    83381504.074 6
     -2013.698  
 15  5 13  3 45 30.0000000  0 14G18G21G22G27G15G19G24G14R 8R 2R17R 1
                                R24R23
  20147306.132   105874804.94449     -1238.772    20147308.910    82499857.76548
      -965.280  
  21685189.532   113956423.13548     -2363.203    21685193.460    88797221.69547
     -1841.461  
  20454554.682   107489420.40849       901.160    20454555.923    83758002.10648
       702.202  
  21499635.257   112981360.99249      1176.577    21499641.806    88037459.37748
       916.812  
  24023548.175   126244567.30348     -2962.636    24023555.714    98372407.06846
     -2308.555  
  23879916.410   125489827.28548      3102.906    23879923.161    97784305.33946
      2417.852  
  24266101.685   127519229.22747      1493.766    24266112.821    99365673.49946
      1163.977  
  22183654.949   116575923.23548      3401.526    22183661.793    90838405.93846
      2650.538  
  21264977.147   113872963.110 8     -3113.354    21264985.292    88567887.460 7
     -2421.504  
  22066115.155   117749042.777 8      2870.729    22066128.624    91582663.407 7
      2232.887  
  22149792.536   118112445.651 7      3863.813    22149805.513    91865299.179 5
      3005.190  
  19527287.006   104384544.383 9      -142.440    19527296.869    81188022.153 6
      -110.789  
  19499665.836   104273492.899 8      1385.871    19499671.846    81101632.500 7
      1077.895  
  20055379.675   107282734.371 9     -2609.671    20055390.399    83442164.058 6
     -2029.749  
 15  5 13  3 46  0.0000000  0 14G18G21G22G27G15G19G24G14R 8R 2R17R 1
                                R24R23
  20154409.456   105912133.44649     -1249.823    20154412.345    82528944.89448
      -973.895  
  21698710.896   114027477.94248     -2373.723    21698714.852    88852589.00447
     -1849.656  
  20449442.555   107462555.93849       889.656    20449443.763    83737068.79448
       693.237  
  21492974.090   112946356.51449      1156.832    21492980.769    88010183.20148
       901.425  
  24040485.812   126333574.99748     -2971.241    24040493.480    98441763.57946
     -2315.258  
  23862232.403   125396896.54448      3092.409    23862238.930    97711891.90146
      2409.672  
  24257608.384   127474598.09847      1481.479    24257619.662    99330896.12145
      1154.401  
  22164266.047   116474033.96148      3391.051    22164272.787    90759011.85847
      2642.383  
  21282434.782   113966447.798 8     -3118.905    21282442.929    88640597.712 7
     -2425.820  
  22050009.737   117663101.616 8      2858.418    22050022.732    91515820.477 7
      2223.171  
  22128082.659   117996679.495 7      3854.266    22128095.639    91775259.035 5
      2997.765  
  19528134.506   104389074.478 9      -159.574    19528144.375    81191545.583 6
      -124.113  
  19491958.587   104232278.243 8      1361.718    19491964.523    81069576.701 7
      1059.113  
  20070074.454   107361341.218 9     -2630.897    20070085.191    83503302.639 6
     -2046.203  
 15  5 13  3 46 30.0000000  0 14G18G21G22G27G15G19G24G14R 8R 2R17R 1
                                R24R23
  20161571.258   105949769.09449     -1259.570    20161574.189    82558271.35348
      -981.488  
  21712287.451   114098822.59748     -2382.870    21712291.359    88908182.18547
     -1856.784  
  20444391.192   107436011.16049       879.538    20444392.402    83716384.59748
       685.354  
  21486421.881   112911924.57949      1138.266    21486428.549    87983353.17448
       886.957  
  24057468.134   126422817.86148     -2978.651    24057475.843    98511303.36046
     -2321.030  
  23844603.752   125304257.51448      3082.867    23844609.956    97639705.79145
      2402.237  
  24249181.328   127430313.61747      1470.410    24249192.613    99296388.88946
      1145.772  
  22144932.834   116372438.64848      3381.422    22144939.709    90679846.85347
      2634.879  
  21299920.213   114060080.550 8     -3123.452    21299928.413    88713423.105 7
     -2429.354  
  22033969.881   117577511.343 7      2847.270    22033982.835    91449250.482 7
      2214.546  
  22106420.416   117881167.564 6      3846.410    22106433.177    91685416.563 5
      2991.655  
  19529073.819   104394095.986 9      -175.551    19529083.744    81195451.227 6
      -136.539  
  19484381.831   104191761.925 8      1338.901    19484387.535    81038064.041 6
      1041.367  
  20084884.473   107440564.366 9     -2651.038    20084895.273    83564920.580 6
     -2061.922  
 15  5 13  3 47  0.0000000  0 14G18G21G22G27G15G19G24G14R 8R 2R17R 1
                                R24R23
  20168791.264   105987710.38849     -1269.710    20168794.180    82587835.97948
      -989.390  
  21725918.965   114170456.28148     -2392.495    21725922.802    88964000.57447
     -1864.284  
  20439400.536   107409785.42949       869.073    20439401.723    83695949.00548
       677.199  
  21479978.820   112878066.34449      1119.054    21479985.386    87956970.18448
       871.992  
  24074494.759   126512293.87647     -2986.202    24074502.558    98581024.78446
     -2326.913  
  23827031.130   125211913.13848      3073.281    23827036.951    97567749.27346
      2394.769  
  24240820.413   127386377.68547      1458.397    24240831.788    99262153.23846
      1136.410  
  22125656.212   116271140.03448      3371.706    22125662.945    90600913.04047
      2627.309  
  21317432.662   114153858.388 8     -3128.175    21317440.944    88786361.336 7
     -2433.031  
  22017995.802   117492272.691 8      2835.519    22018009.036    91382953.970 7
      2205.409  
  22084806.473   117765912.937 7      3837.667    22084819.174    91595774.229 5
      2984.855  
  19530104.678   104399606.831 9      -191.690    19530114.487    81199737.467 7
      -149.094  
  19476936.026   104151946.358 8      1315.426    19476941.938    81007096.418 7
      1023.109  
  20099809.151   107520401.080 9     -2671.417    20099819.908    83627015.727 6
     -2077.773  
 15  5 13  3 47 30.0000000  0 14G18G21G22G27G15G19G24G14R 8R 2R17R 1
                                R24R23
  20176068.994   106025955.14749     -1279.664    20176071.951    82617637.07848
      -997.144  
  21739605.370   114242378.26248     -2402.085    21739609.169    89020043.61547
     -1871.758  
  20434470.461   107383877.74149       858.448    20434471.691    83675761.25448
       668.922  
  21473645.147   112844782.54249      1100.022    21473651.469    87931034.79148
       857.160  
  24091565.207   126601998.97147     -2993.636    24091572.930    98650924.73245
     -2332.707  
  23809515.018   125119865.31648      3063.320    23809520.486    97496023.83945
      2387.003  
  24232526.307   127342792.79947      1446.945    24232537.289    99228191.12146
      1127.491  
  22106436.474   116170140.25348      3361.854    22106443.153    90522212.08246
      2619.633  
  21334971.618   114247778.109 8     -3132.922    21334979.945    88859409.935 7
     -2436.723  
  22002087.731   117407385.579 8      2823.796    22002101.275    91316930.887 7
      2196.289  
  22063241.170   117650918.708 6      3829.000    22063253.969    91506334.443 5
      2978.112  
  19531226.649   104405604.535 9      -207.770    19531236.519    81204402.377 6
      -161.597  
  19469621.786   104112833.920 8      1292.176    19469627.685    80976675.664 7
      1005.026  
  20114848.077   107600848.631 9     -2691.629    20114858.823    83689585.967 6
     -2093.496  
 15  5 13  3 48  0.0000000  0 14G18G21G22G27G15G19G24G14R 8R 2R17R 1
                                R24R23
  20183404.059   106064501.23949     -1289.886    20183407.055    82647672.97948
     -1005.109  
  21753346.121   114314586.17648     -2411.620    21753349.798    89076309.44347
     -1879.187  
  20429600.645   107358286.68849       847.733    20429601.917    83655820.21948
       660.570  
  21467420.825   112812073.51149      1080.624    21467427.233    87905547.27348
       842.046  
  24108678.622   126691930.38747     -3001.495    24108685.993    98721001.01745
     -2338.832  
  23792055.538   125028115.97148      3053.207    23792060.700    97424530.96846
      2379.121  
  24224299.436   127299560.39547      1435.315    24224310.521    99194503.66346
      1118.433  
  22087273.900   116069441.34148      3351.469    22087280.779    90443745.58047
      2611.539  
  21352536.204   114341835.701 8     -3137.468    21352544.532    88932565.757 7
     -2440.257  
  21986245.715   117322850.235 8      2811.890    21986259.316    91251181.377 7
      2187.031  
  22041725.348   117536187.745 6      3819.758    22041738.017    91417099.395 5
      2970.926  
  19532439.070   104412085.961 9      -224.229    19532449.024    81209443.510 7
      -174.401  
  19462439.232   104074425.985 8      1268.460    19462445.247    80946802.868 7
       986.582  
  20130000.532   107681903.638 9     -2712.059    20130011.256    83752628.664 6
     -2109.355  
 15  5 13  3 48 30.0000000  0 14G18G21G22G27G15G19G24G14R 8R 2R17R 1
                                R24R23
  20190796.758   106103350.19549     -1299.929    20190799.855    82677944.88348
     -1012.938  
  21767141.798   114387082.88448     -2421.104    21767145.541    89132800.32947
     -1886.578  
  20424791.506   107333014.86749       837.320    20424792.886    83636127.94748
       652.456  
  21461306.618   112779943.54349      1061.456    21461313.137    87880510.97648
       827.108  
  24125835.012   126782088.76247     -3008.772    24125842.586    98791254.15045
     -2344.507  
  23774653.796   124936670.85948      3043.328    23774659.353    97353275.23746
      2371.430  
  24216140.658   127256685.41347      1423.319    24216151.635    99161094.70246
      1109.081  
  22068169.748   115969048.84448      3341.461    22068176.550    90365517.83047
      2603.738  
  21370126.625   114436031.729 8     -3142.004    21370134.777    89005829.226 7
     -2443.784  
  21970470.342   117238670.195 8      2800.210    21970483.562    91185708.206 7
      2177.945  
  22020260.353   117421728.404 7      3810.804    22020273.195    91328075.627 4
      2963.960  
  19533742.391   104419052.587 9      -240.035    19533752.236    81214862.021 7
      -186.698  
  19455389.560   104036728.470 8      1244.930    19455395.417    80917482.600 7
       968.272  
  20145266.613   107763566.911 9     -2732.003    20145277.447    83816144.472 6
     -2124.895  
 15  5 13  3 49  0.0000000  0 14G18G21G22G27G15G19G24G14R 8R 2R17R 1
                                R24R23
  20198246.607   106142499.32349     -1309.820    20198249.730    82708450.68648
     -1020.644  
  21780992.048   114459865.94348     -2430.780    21780995.765    89189514.33547
     -1894.121  
  20420042.743   107308060.29149       826.707    20420044.170    83616682.87448
       644.188  
  21455302.642   112748392.31249      1042.332    21455309.068    87855925.63248
       812.207  
  24143034.409   126872469.98347     -3016.140    24143041.099    98861680.99945
     -2350.241  
  23757310.240   124845530.94847      3033.065    23757315.970    97282257.19845
      2363.433  
  24208049.738   127214169.40747      1411.390    24208060.902    99127965.47046
      1099.784  
  22049124.011   115868963.82448      3331.121    22049130.702    90287529.67347
      2595.684  
  21387742.253   114530361.992 8     -3146.523    21387750.182    89079197.108 7
     -2447.301  
  21954761.245   117154844.882 8      2788.305    21954774.642    91120510.916 7
      2168.683  
  21998846.798   117307543.087 6      3801.625    21998859.878    91239265.004 4
      2956.819  
  19535135.738   104426500.790 9      -256.183    19535145.606    81220655.096 6
      -199.253  
  19448472.840   103999742.378 8      1221.117    19448478.706    80888715.681 7
       949.758  
  20160645.751   107845834.430 9     -2752.116    20160656.463    83880130.235 6
     -2140.538  
 15  5 13  3 49 30.0000000  0 14G18G21G22G27G15G19G24G14R 8R 2R17R 1
                                R24R23
  20205752.745   106181944.00049     -1319.422    20205755.808    82739186.79148
     -1028.125  
  21794896.056   114532931.68549     -2439.839    21794899.870    89246448.60347
     -1901.180  
  20415353.803   107283419.86749       816.386    20415355.167    83597482.59748
       636.145  
  21449408.353   112717418.08249      1023.168    21449414.761    87831789.89848
       797.272  
  24160275.043   126963069.44047     -3023.266    24160282.276    98932277.79845
     -2355.800  
  23740024.784   124754695.95448      3022.948    23740030.693    97211476.84845
      2355.543  
  24200027.467   127172011.52547      1399.573    24200038.460    99095115.32046
      1090.581  
  22030136.908   115769186.48848      3320.979    22030143.658    90209781.27747
      2587.780  
  21405381.919   114624820.666 8     -3150.444    21405389.685    89152664.892 7
     -2450.352  
  21939118.380   117071371.808 8      2776.934    21939131.622    91055587.607 7
      2159.840  
  21977484.619   117193632.006 6      3792.757    21977497.739    91150667.638 4
      2949.925  
  19536618.248   104434425.816 9      -271.741    19536627.964    81226819.029 6
      -211.355  
  19441689.190   103963467.343 8      1197.688    19441695.100    80860501.799 7
       931.535  
  20176136.746   107928700.777 9     -2771.793    20176147.508    83944581.756 6
     -2155.843  
 15  5 13  3 50  0.0000000  0 14G18G21G22G27G15G19G24G14R 8R 2R17R 1
                                R24R23
  20213316.171   106221689.78949     -1329.827    20213319.140    82770157.52748
     -1036.234  
  21808855.116   114606286.66648     -2450.035    21808858.969    89303608.25147
     -1909.120  
  20410725.862   107259100.21949       805.348    20410727.228    83578532.27248
       627.542  
  21443625.403   112687028.88149      1003.309    21443631.962    87808110.02348
       781.801  
  24177558.015   127053891.03747     -3030.683    24177565.438    99003047.73946
     -2361.577  
  23722799.211   124664175.76847      3012.020    23722804.786    97140941.79646
      2347.031  
  24192074.649   127130220.55647      1386.964    24192085.537    99062551.02246
      1080.754  
  22011210.115   115669726.26748      3310.066    22011216.937    90132279.98646
      2579.276  
  21423046.289   114719412.002 8     -3155.238    21423054.095    89226235.817 7
     -2454.077  
  21923542.701   116988258.748 8      2764.499    21923556.183    90990944.315 7
      2150.172  
  21956175.908   117080005.293 6      3782.816    21956188.586    91062291.468 4
      2942.195  
  19538190.776   104442832.190 9      -288.281    19538200.440    81233357.331 7
      -224.219  
  19435040.362   103927912.850 8      1172.979    19435046.238    80832848.337 7
       912.315  
  20191740.530   108012170.403 9     -2792.262    20191751.373    84009502.489 6
     -2171.762  
 15  5 13  3 50 30.0000000  0 14G18G21G22G27G15G19G24G14R 8R 2R17R 1
                                R24R23
  20220935.074   106261727.33549     -1339.413    20220937.977    82801355.61048
     -1043.703  
  21822867.456   114679922.31948     -2459.148    21822871.346    89360986.62047
     -1916.223  
  20406157.322   107235092.69349       794.999    20406158.711    83559825.14948
       619.480  
  21437952.714   112657218.41749       984.016    21437959.241    87784881.11448
       766.766  
  24194881.269   127144924.82147     -3038.097    24194888.850    99073982.99745
     -2367.355  
  23705632.735   124573965.39147      3001.655    23705637.973    97070648.13045
      2338.957  
  24184190.767   127088791.44847      1374.741    24184201.632    99030268.71846
      1071.226  
  21992342.869   115570578.40548      3299.714    21992349.461    90055022.07947
      2571.210  
  21440733.623   114814125.812 8     -3159.258    21440741.552    89299902.011 7
     -2457.202  
  21908033.571   116905498.840 8      2752.710    21908046.874    90926575.676 7
      2141.000  
  21934920.142   116966660.496 6      3773.405    21934932.749    90974134.581 4
      2934.875  
  19539851.685   104451710.670 9      -303.910    19539861.460    81240262.830 6
      -236.374  
  19428525.165   103893073.760 8      1149.394    19428531.084    80805751.295 7
       893.973  
  20207455.294   108096233.417 9     -2812.003    20207466.036    84074884.737 6
     -2187.116  
 15  5 13  3 51  0.0000000  0 14G18G21G22G27G15G19G24G14R 8R 2R17R 1
                                R24R23
  20228609.827   106302058.40449     -1349.262    20228612.683    82832782.40348
     -1051.374  
  21836933.580   114753840.17548     -2468.558    21836937.537    89418584.88447
     -1923.555  
  20401648.630   107211399.70149       784.586    20401649.973    83541363.11848
       611.366  
  21432390.763   112627990.41549       964.448    21432397.356    87762106.06448
       751.520  
  24212244.922   127236171.09048     -3045.055    24212252.191    99145083.88145
     -2372.772  
  23688526.144   124484070.36447      2991.461    23688531.490    97000600.18945
      2331.008  
  24176376.973   127047729.40147      1362.772    24176387.749    98998272.39146
      1061.901  
  21973535.930   115471748.24748      3289.043    21973542.582    89978011.74047
      2562.894  
  21458443.760   114908962.260 8     -3163.238    21458451.768    89373663.593 7
     -2460.301  
  21892591.027   116823095.345 8      2741.055    21892604.120    90862484.231 7
      2131.933  
  21913718.859   116853605.071 6      3763.772    21913731.098    90886202.738 4
      2927.383  
  19541601.142   104461062.084 9      -319.624    19541610.945    81247536.170 6
      -248.598  
  19422144.793   103858955.260 8      1125.156    19422150.834    80779214.709 7
       875.121  
  20223281.094   108180889.965 9     -2831.819    20223291.987    84140728.637 6
     -2202.550  
 15  5 13  3 51 30.0000000  0 14G18G21G22G27G15G19G24G14R 8R 2R17R 1
                                R24R23
  20236340.733   106342684.58949     -1358.870    20236343.542    82864439.16948
     -1058.863  
  21851053.947   114828042.98848     -2478.129    21851057.870    89476405.19247
     -1931.012  
  20397200.404   107188023.70949       774.116    20397201.548    83523148.09448
       603.206  
  21426940.503   112599348.85649       945.163    21426946.962    87739787.98748
       736.492  
  24229649.217   127327630.49648     -3052.070    24229656.710    99216350.81945
     -2378.241  
  23671480.564   124394496.26847      2980.555    23671485.916    96930802.35046
      2322.515  
  24168633.796   127007039.70147      1350.445    24168644.776    98966566.24246
      1052.297  
  21954790.520   115373241.32448      3278.250    21954797.123    89901253.28247
      2554.484  
  21476176.766   115003921.357 8     -3166.996    21476184.855    89447520.587 7
     -2463.223  
  21877216.094   116741052.003 8      2728.913    21877229.183    90798672.911 7
      2122.492  
  21892572.711   116740844.685 6      3753.812    21892584.837    90798500.341 4
      2919.637  
  19543439.109   104470887.285 9      -335.199    19543448.924    81255178.004 6
      -260.714  
  19415900.158   103825562.705 8      1101.199    19415906.217    80753242.741 7
       856.488  
  20239217.813   108266140.260 9     -2851.285    20239228.615    84207034.323 6
     -2217.675  
 15  5 13  3 52  0.0000000  0 14G18G21G22G27G15G19G24G14R 8R 2R17R 1
                                R24R23
  20244126.609   106383599.61149     -1368.944    20244129.424    82896320.99148
     -1066.714  
  21865227.625   114902525.82448     -2487.663    21865231.418    89534443.69047
     -1938.445  
  20392811.573   107164960.15449       763.289    20392812.744    83505176.51948
       594.770  
  21421601.089   112571290.51449       925.082    21421607.413    87717924.36248
       720.840  
  24247092.857   127419296.28847     -3059.125    24247100.542    99287778.58545
     -2383.738  
  23654495.819   124305241.36247      2969.461    23654501.260    96861253.21246
      2313.867  
  24160961.305   126966720.20547      1337.734    24160971.843    98935148.52146
      1042.391  
  21936106.407   115275056.12048      3267.133    21936112.953    89824745.50847
      2545.820  
  21493931.393   115098996.206 8     -3171.270    21493939.536    89521467.580 7
     -2466.551  
  21861907.917   116659365.168 8      2716.741    21861920.983    90735138.883 7
      2113.027  
  21871481.634   116628378.774 7      3743.609    21871493.685    90711027.039 4
      2911.699  
  19545364.462   104481179.871 9      -351.195    19545374.309    81263183.364 6
      -273.155  
  19409790.940   103792894.157 8      1076.300    19409797.085    80727833.895 7
       837.120  
  20255264.271   108351977.523 9     -2871.245    20255274.962    84273796.540 6
     -2233.195  
 15  5 13  3 52 30.0000000  0 14G18G21G22G27G15G19G24G14R 8R 2R17R 1
                                R24R23
  20251968.176   106424807.35249     -1378.461    20251971.010    82928430.91148
     -1074.124  
  21879455.414   114977292.88948     -2496.855    21879459.192    89592703.67347
     -1945.604  
  20388482.939   107142213.27749       752.968    20388484.134    83487451.70748
       586.729  
  21416373.892   112543821.38249       905.828    21416380.308    87696519.86648
       705.840  
  24264576.215   127511170.98648     -3065.823    24264583.765    99359369.11545
     -2388.957  
  23637573.250   124216313.19647      2958.797    23637578.923    96791958.66645
      2305.558  
  24153360.526   126926778.25047      1325.199    24153370.823    98904025.02146
      1032.621  
  21917484.807   115177199.97948      3256.191    21917491.394    89748494.15146
      2537.296  
  21511708.094   115194189.257 8     -3174.984    21511716.126    89595506.513 7
     -2469.437  
  21846667.372   116578040.170 8      2704.925    21846680.556    90671886.297 7
      2103.836  
  21850447.699   116516217.626 7      3733.547    21850460.051    90623790.757 4
      2903.874  
  19547377.937   104491942.926 9      -366.534    19547387.680    81271554.636 6
      -285.085  
  19403818.632   103760956.947 8      1052.327    19403824.626    80702993.864 7
       818.476  
  20271420.852   108438404.118 9     -2890.737    20271431.759    84341017.138 6
     -2248.355  
 15  5 13  3 53  0.0000000  0 14G18G21G22G27G15G19G24G14R 8R 2R17R 1
                                R24R23
  20259864.244   106466301.69249     -1388.043    20259867.088    82960764.15748
     -1081.598  
  21893736.016   115052337.70948     -2506.265    21893739.958    89651180.08647
     -1952.937  
  20384213.608   107119777.75749       742.457    20384214.728    83469969.51748
       578.538  
  21411258.118   112516937.64949       886.145    21411264.539    87675571.52248
       690.504  
  24282098.184   127603247.55348     -3072.702    24282105.670    99431116.98246
     -2394.319  
  23620712.370   124127709.58147      2947.780    23620718.331    96722917.01546
      2296.976  
  24145831.090   126887211.04747      1312.433    24145841.520    98873193.53346
      1022.675  
  21898925.502   115079670.92348      3245.305    21898931.925    89672497.66647
      2528.812  
  21529505.601   115289493.036 8     -3178.827    21529513.580    89669631.562 7
     -2472.430  
  21831494.030   116497072.809 8      2692.698    21831507.099    90608911.881 8
      2094.324  
  21829470.722   116404358.988 7      3723.288    21829483.066    90536789.707 4
      2895.891  
  19549478.088   104503169.155 9      -382.129    19549487.854    81280286.152 7
      -297.214  
  19397982.553   103729748.782 8      1027.855    19397988.507    80678720.862 7
       799.441  
  20287686.213   108525412.828 9     -2910.180    20287697.048    84408690.471 6
     -2263.476  
 15  5 13  3 53 30.0000000  0 14G18G21G22G27G15G19G24G14R 8R 2R17R 1
                                R24R23
  20267815.229   106508084.40049     -1397.578    20267818.048    82993322.10048
     -1089.026  
  21908069.968   115127663.32548     -2515.679    21908074.014    89709875.30447
     -1960.272  
  20380004.063   107097656.60549       732.022    20380005.196    83452732.27948
       570.405  
  21406254.391   112490643.45249       866.535    21406260.880    87655082.56248
       675.223  
  24299658.232   127695526.78948     -3079.491    24299665.961    99503022.75046
     -2399.612  
  23603914.401   124039436.59647      2936.621    23603920.313    96654133.00246
      2288.281  
  24138374.008   126848024.12747      1299.792    24138384.698    98842658.37646
      1012.827  
  21880429.575   114982474.86048      3234.211    21880435.869    89596760.65747
      2520.167  
  21547323.690   115384907.778 8     -3182.477    21547331.682    89743842.919 7
     -2475.261  
  21816388.326   116416467.034 8      2680.742    21816401.422    90546218.713 8
      2085.026  
  21808551.802   116292810.687 7      3712.941    21808564.094    90450030.046 4
      2887.847  
  19551665.054   104514859.679 9      -397.585    19551674.813    81289378.799 6
      -309.234  
  19392283.848   103699274.679 8      1003.214    19392289.715    80655018.798 7
       780.276  
  20304060.457   108613003.589 9     -2929.503    20304071.449    84476816.524 6
     -2278.507  
 15  5 13  3 54  0.0000000  0 14G18G21G22G27G15G19G24G14R 8R 2R17R 1
                                R24R23
  20275820.577   106550152.69449     -1407.276    20275823.408    83026102.58748
     -1096.577  
  21922457.042   115203267.78548     -2524.938    21922461.003    89768787.80547
     -1967.488  
  20375853.974   107075847.99549       721.512    20375855.055    83435738.58748
       562.218  
  21401362.796   112464938.59949       846.840    21401369.300    87635052.83048
       659.874  
  24317256.436   127788004.75948     -3086.211    24317263.972    99575083.38146
     -2404.844  
  23587179.921   123951495.65248      2925.515    23587185.781    96585607.70446
      2279.620  
  24130989.282   126809218.56847      1286.934    24131000.100    98812420.36746
      1002.804  
  21861997.310   114885613.21748      3222.929    21862003.649    89521284.23747
      2511.379  
  21565161.950   115480430.164 8     -3185.809    21565169.822    89818138.017 7
     -2477.858  
  21801350.408   116336222.167 8      2668.578    21801363.477    90483806.251 7
      2075.565  
  21787691.595   116181575.122 7      3702.617    21787703.577    90363513.635 4
      2879.816  
  19553938.341   104527011.792 9      -413.020    19553948.014    81298830.452 7
      -321.241  
  19386722.662   103669536.333 8       978.844    19386728.424    80631888.991 7
       761.323  
  20320542.946   108701173.072 9     -2948.840    20320553.920    84545392.680 6
     -2293.449  
 15  5 13  3 54 30.0000000  0 14G18G21G22G27G15G19G24G14R 8R 2R17R 1
                                R24R23
  20283880.579   106592508.25749     -1416.546    20283883.454    83059106.91048
     -1103.809  
  21936897.595   115279153.15148     -2534.191    21936901.652    89827919.19447
     -1974.699  
  20371763.800   107054354.07549       711.249    20371764.859    83418990.10548
       554.222  
  21396584.187   112439826.93249       827.151    21396590.699    87615485.31848
       644.535  
  24334892.526   127880682.22148     -3092.551    24334900.218    99647299.45346
     -2409.784  
  23570509.331   123863892.23348      2914.598    23570515.053    96517345.42047
      2271.113  
  24123678.302   126770799.11047      1274.230    24123689.062    98782483.23446
       992.910  
  21843629.700   114789091.36848      3211.675    21843635.907    89446072.58947
      2502.609  
  21583020.113   115576060.409 8     -3189.288    21583028.419    89892517.007 7
     -2480.566  
  21786380.512   116256341.432 8      2656.585    21786393.602    90421676.995 7
      2066.238  
  21766891.718   116070660.613 7      3691.940    21766903.357    90277246.959 4
      2871.512  
  19556297.996   104539625.939 9      -428.086    19556307.723    81308641.464 6
      -332.957  
  19381299.803   103640538.495 8       954.234    19381305.693    80609335.132 7
       742.183  
  20337133.576   108789921.379 9     -2967.847    20337144.382    84614419.045 6
     -2308.331  
 15  5 13  3 55  0.0000000  0 14G18G21G22G27G15G19G24G14R 8R 2R17R 1
                                R24R23
  20291993.394   106635141.41849     -1426.004    20291996.304    83092327.54948
     -1111.172  
  21951390.000   115355311.00348     -2543.316    21951394.093    89887262.91047
     -1981.809  
  20367732.014   107033166.86749       700.944    20367733.031    83402480.62948
       546.190  
  21391917.232   112415301.76449       807.554    21391923.820    87596374.82648
       629.261  
  24352564.591   127973549.45748     -3098.827    24352572.375    99719663.39046
     -2414.680  
  23553902.354   123776621.47948      2903.233    23553907.798    96449342.33246
      2262.261  
  24116439.930   126732761.39647      1261.292    24116450.435    98752843.54746
       982.824  
  21825325.817   114692904.62449      3200.328    21825331.926    89371122.06647
      2493.766  
  21600896.601   115671788.067 8     -3192.706    21600904.997    89966971.759 7
     -2483.223  
  21771477.743   116176818.122 8      2644.516    21771490.742    90359825.750 8
      2056.847  
  21746150.788   115960062.364 7      3681.055    21746162.473    90191226.249 5
      2863.047  
  19558742.305   104552692.486 9      -443.448    19558752.005    81318804.351 7
      -344.905  
  19376014.597   103612276.153 8       929.507    19376020.586    80587353.322 7
       722.945  
  20353830.430   108879238.039 9     -2987.055    20353841.456    84683887.451 6
     -2323.270  
 15  5 13  3 55 30.0000000  0 14G18G21G22G27G15G19G24G14R 8R 2R17R 1
                                R24R23
  20300160.403   106678059.56049     -1434.890    20300163.300    83125770.25148
     -1118.101  
  21965935.668   115431748.72148     -2552.089    21965939.814    89946824.70847
     -1988.645  
  20363760.075   107012294.28249       690.905    20363761.095    83386216.30848
       538.366  
  21387363.703   112391372.27549       788.234    21387370.113    87577728.49848
       614.207  
  24370273.797   128066611.74448     -3105.058    24370281.498    99792179.38346
     -2419.534  
  23537360.467   123689694.21748      2892.300    23537365.999    96381606.96346
      2253.746  
  24109276.288   126695114.67347      1248.891    24109286.662    98723508.53446
       973.163  
  21807087.799   114597063.41349      3189.441    21807093.880    89296440.78647
      2485.281  
  21618792.463   115767619.252 8     -3195.723    21618800.765    90041507.035 7
     -2485.566  
  21756643.519   116097661.049 8      2632.707    21756656.701    90298259.380 7
      2047.668  
  21725471.427   115849791.998 7      3670.604    21725483.284    90105460.547 5
      2854.917  
  19561272.459   104566217.544 9      -457.926    19561282.242    81329323.860 6
      -356.163  
  19370868.850   103584759.375 8       905.085    19370874.782    80565951.396 7
       703.957  
  20370634.611   108969128.923 9     -3005.382    20370645.741    84753802.476 6
     -2337.526  
 15  5 13  3 56  0.0000000  0 13G18G21G22G27G19G24G14R 8R 2R17R 1R24
                                R23
  20308381.536   106721261.96849     -1444.695    20308384.393    83159434.47048
     -1125.742  
  21980534.598   115508466.52248     -2561.742    21980538.745    90006604.73347
     -1996.168  
  20359848.098   106991736.64249       680.112    20359849.068    83370197.40148
       529.956  
  21382923.668   112368040.04849       767.831    21382929.924    87559547.57248
       598.313  
  23520884.916   123603114.23548      2880.230    23520890.311    96314142.15047
      2244.336  
  24102187.019   126657862.47047      1235.078    24102197.753    98694480.95046
       962.397  
  21788916.191   114501571.49748      3177.359    21788922.062    89222031.66747
      2475.867  
  21636707.390   115863551.997 8     -3199.304    21636715.543    90116121.294 7
     -2488.352  
  21741878.321   116018871.119 8      2620.293    21741891.292    90236978.512 7
      2038.008  
  21704854.795   115739856.035 7      3658.991    21704866.788    90019954.949 5
      2845.887  
  19563888.240   104580200.269 9      -473.617    19563898.070    81340199.325 7
      -368.370  
  19365863.162   103557991.179 8       879.897    19365868.946    80545131.703 7
       684.362  
  20387545.788   109059591.910 9     -3024.820    20387556.690    84824162.478 6
     -2352.640  
 15  5 13  3 56 30.0000000  0 13G18G21G22G27G19G24G14R 8R 2R17R 1R24
                                R23
  20316654.866   106764738.76849     -1453.909    20316657.713    83193312.49048
     -1132.921  
  21995185.044   115585455.04648     -2570.999    21995189.176    90066595.73447
     -2003.379  
  20355994.242   106971484.74149       669.808    20355995.161    83354416.73448
       521.930  
  21378595.843   112345297.48549       748.151    21378602.200    87541826.11248
       582.972  
  23504474.138   123516875.42248      2868.914    23504479.578    96246943.19146
      2235.515  
  24095171.939   126620998.06947      1222.242    24095182.778    98665755.55046
       952.402  
  21770809.868   114406423.09649      3165.776    21770815.869    89147890.23947
      2466.844  
  21654639.045   115959575.134 8     -3202.433    21654647.320    90190805.858 7
     -2490.784  
  21727180.208   115940440.425 8      2608.331    21727193.004    90175977.064 8
      2028.710  
  21684300.123   115630249.402 7      3647.995    21684311.996    89934705.457 5
      2837.336  
  19566587.462   104594629.346 9      -488.527    19566597.428    81351421.953 7
      -379.969  
  19360996.192   103531965.460 8       855.144    19361001.948    80524889.490 7
       665.113  
  20404561.789   109150615.352 9     -3043.438    20404572.875    84894958.384 6
     -2367.121  
 15  5 13  3 57  0.0000000  0 13G18G21G22G27G19G24G14R 8R 2R17R 1R24
                                R23
  20324981.222   106808494.22149     -1463.050    20324984.099    83227407.64848
     -1140.042  
  22009887.913   115662719.20448     -2580.003    22009892.196    90126801.48947
     -2010.398  
  20352199.463   106951543.76049       659.684    20352200.438    83338878.35248
       514.039  
  21374381.519   112323151.06649       728.374    21374388.058    87524569.18548
       567.566  
  23488129.827   123430985.92348      2857.222    23488135.312    96180016.43547
      2226.409  
  24088232.323   126584529.79547      1208.879    24088242.973    98637338.83046
       941.984  
  21752770.659   114311626.35349      3153.984    21752776.522    89074022.81747
      2457.651  
  21672588.209   116055691.999 8     -3205.238    21672596.653    90265563.319 7
     -2492.969  
  21712550.885   115862375.335 8      2596.464    21712563.591    90115259.977 8
      2019.477  
  21663808.813   115520981.900 7      3636.797    21663820.822    89849719.783 5
      2828.624  
  19569370.896   104609508.581 9      -503.344    19569380.885    81362994.705 6
      -391.488  
  19356269.486   103506689.483 8       830.171    19356275.191    80505230.401 7
       645.683  
  20421683.143   109242202.486 9     -3062.281    20421694.470    84966192.702 6
     -2381.780  
 15  5 13  3 57 30.0000000  0 13G18G21G22G27G19G24G14R 8R 2R17R 1R24
                                R23
  20333360.220   106852525.96349     -1472.327    20333363.044    83261718.08948
     -1147.273  
  22024642.932   115740257.01148     -2589.184    22024647.331    90187220.48847
     -2017.551  
  20348463.715   106931912.55449       649.246    20348464.814    83323581.34548
       505.905  
  21370280.618   112301600.59149       708.464    21370287.115    87507776.63448
       552.050  
  23471852.457   123345447.52048      2845.566    23471857.819    96113363.22947
      2217.328  
  24081368.044   126548458.51547      1195.938    24081378.568    98609231.46046
       931.901  
  21734798.525   114217182.90349      3142.320    21734804.307    89000430.69347
      2448.565  
  21690554.244   116151899.234 8     -3208.207    21690563.000    90340391.049 7
     -2495.276  
  21697989.636   115784675.284 8      2584.026    21698002.470    90054826.795 7
      2009.805  
  21643381.596   115412055.946 6      3625.445    21643393.673    89764999.747 5
      2819.792  
  19572237.903   104624834.813 9      -518.144    19572247.660    81374915.115 6
      -402.999  
  19351683.121   103482164.659 8       805.063    19351688.870    80486155.558 7
       626.155  
  20438909.077   109334349.400 9     -3080.769    20438920.187    85037862.415 6
     -2396.160  
 15  5 13  3 58  0.0000000  0 13G18G21G22G27G19G24G14R 8R 2R17R 1R24
                                R23
  20341790.978   106896829.61749     -1481.313    20341793.755    83296240.41048
     -1154.273  
  22039449.354   115818064.50048     -2598.141    22039453.698    90247849.61646
     -2024.526  
  20344786.194   106912587.17449       639.026    20344787.386    83308522.64248
       497.945  
  21366292.653   112280643.66049       688.729    21366298.973    87491446.57848
       536.672  
  23455641.858   123260259.93448      2833.914    23455647.152    96046983.41247
      2208.245  
  24074579.248   126512783.18447      1182.581    24074589.503    98581432.65346
       921.495  
  21716893.515   114123092.37648      3130.539    21716899.316    88927113.56047
      2439.386  
  21708536.111   116248190.878 8     -3211.007    21708544.777    90415284.457 7
     -2497.452  
  21683496.350   115707337.333 7      2572.120    21683509.043    89994675.224 7
      2000.542  
  21623018.562   115303471.782 7      3613.777    21623030.533    89680545.556 5
      2810.719  
  19575187.699   104640602.947 9      -532.839    19575197.440    81387179.229 7
      -414.429  
  19347237.052   103458389.655 8       780.035    19347242.776    80467663.905 7
       606.694  
  20456238.553   109427050.005 9     -3099.219    20456249.766    85109962.788 6
     -2410.508  
 15  5 13  3 58 30.0000000  0 13G18G21G22G27G19G24G14R 8R 2R17R 1R24
                                R23
  20350274.420   106941410.15449     -1490.430    20350277.101    83330978.48448
     -1161.379  
  22054308.260   115896147.67048     -2607.112    22054312.413    90308693.56946
     -2031.520  
  20341167.958   106893573.40249       628.813    20341169.177    83293706.74248
       489.983  
  21362418.980   112260287.71649       668.777    21362425.353    87475584.81648
       521.124  
  23439499.659   123175432.35648      2821.699    23439504.753    95980884.11347
      2198.730  
  24067867.422   126477512.82947      1169.367    24067877.492    98553949.37246
       911.198  
  21699057.281   114029363.64448      3118.495    21699063.225    88854078.34547
      2430.000  
  21726534.537   116344571.543 8     -3213.831    21726543.351    90490247.100 7
     -2499.652  
  21669072.255   115630368.845 8      2559.608    21669085.268    89934811.043 8
      1990.813  
  21602721.920   115195241.488 7      3602.152    21602733.843    89596366.593 5
      2801.679  
  19578220.939   104656817.292 9      -547.644    19578230.709    81399790.399 6
      -425.944  
  19342932.778   103435373.115 8       754.952    19342938.511    80449762.168 7
       587.188  
  20473672.242   109520308.080 9     -3117.636    20473683.562    85182496.730 6
     -2424.835  
 15  5 13  3 59  0.0000000  0 13G18G21G22G27G19G24G14R 8R 2R17R 1R24
                                R23
  20358809.910   106986264.23849     -1499.684    20358812.609    83365929.71148
     -1168.585  
  22069218.989   115974503.39448     -2616.585    22069222.909    90369749.90246
     -2038.901  
  20337608.524   106874868.82649       618.335    20337609.823    83279131.78348
       481.820  
  21358659.451   112240531.19749       648.515    21358665.811    87460190.14948
       505.335  
  23423425.975   123090965.17148      2809.519    23423430.965    95915065.63746
      2189.234  
  24061232.393   126442646.92447      1155.644    24061242.646    98526781.31945
       900.508  
  21681290.155   113935997.14649      3106.128    21681295.872    88781325.37747
      2420.363  
  21744548.758   116441036.346 8     -3216.866    21744557.523    90565275.178 7
     -2502.012  
  21654717.164   115553768.017 8      2547.340    21654730.079    89875232.805 7
      1981.270  
  21582491.618   115087366.200 7      3590.203    21582503.759    89512463.749 5
      2792.379  
  19581336.859   104673473.637 9      -562.405    19581346.655    81412745.342 7
      -437.425  
  19338770.326   103413114.766 8       729.344    19338776.032    80432450.136 7
       567.266  
  20491209.306   109614118.829 9     -3136.195    20491220.407    85255460.545 6
     -2439.265  
 15  5 13  3 59 30.0000000  0 13G18G21G22G27G19G24G14R 8R 2R17R 1R24
                                R23
  20367397.302   107031391.03849     -1508.414    20367399.973    83401093.43648
     -1175.390  
  22084181.396   116053131.21748     -2625.230    22084185.291    90431018.26446
     -2045.636  
  20334108.032   106856473.74249       608.328    20334109.285    83264797.97948
       474.023  
  21355014.231   112221375.33949       628.780    21355020.522    87445263.52048
       489.961  
  23407421.383   123006861.34548      2797.616    23407426.371    95849530.31247
      2179.960  
  24054674.831   126408188.26447      1142.434    24054685.304    98499930.53646
       890.211  
  21663592.513   113842996.12749      3094.215    21663598.253    88708857.21147
      2411.081  
  21762578.356   116537583.307 8     -3219.214    21762586.696    90640367.172 7
     -2503.836  
  21640431.231   115477535.634 8      2535.121    21640443.935    89815941.128 7
      1971.766  
  21562329.105   114979851.825 7      3578.108    21562341.419    89428841.650 5
      2782.977  
  19584535.051   104690570.430 9      -576.992    19584545.070    81426042.852 6
      -448.772  
  19334750.121   103391617.174 8       704.137    19334755.962    80415729.810 7
       547.659  
  20508849.188   109708479.645 9     -3154.172    20508860.409    85328852.174 6
     -2453.249  
 15  5 13  4  0  0.0000000  0 13G18G21G22G27G19G24G14R 8R 2R17R 1R24
                                R23
  20376035.041   107076782.50549     -1517.402    20376037.685    83436463.39548
     -1182.394  
  22099194.283   116132024.25448     -2634.097    22099198.217    90492493.27646
     -2052.546  
  20330665.131   106838381.26749       598.051    20330666.199    83250699.96348
       466.012  
  21351482.278   112202814.58649       608.882    21351488.539    87430800.60748
       474.448  
  23391485.415   122923117.42648      2785.391    23391490.359    95784275.41547
      2170.434  
  24048194.318   126374132.93947      1128.457    24048204.903    98473394.06446
       879.316  
  21645963.669   113750356.73848      3081.964    21645969.385    88636670.82247
      2401.530  
  21780621.553   116634203.806 8     -3221.812    21780629.755    90715516.343 7
     -2505.859  
  21626213.289   115401665.846 8      2523.202    21626225.670    89756931.458 7
      1962.496  
  21542233.910   114872695.644 7      3565.569    21542245.985    89345498.100 5
      2773.222  
  19587814.168   104708098.941 9      -591.394    19587824.169    81439676.132 6
      -459.973  
  19330871.306   103370875.534 8       678.804    19330877.045    80399597.434 7
       527.960  
  20526590.105   109803381.090 9     -3172.242    20526601.385    85402664.293 6
     -2467.309  
 15  5 13  4  0 30.0000000  0 13G18G21G22G27G19G24G14R 8R 2R17R 1R24
                                R23
  20384723.885   107122442.71849     -1526.651    20384726.562    83472042.76648
     -1189.601  
  22114258.403   116211186.80248     -2643.441    22114262.570    90554178.28647
     -2059.828  
  20327280.684   106820595.50549       587.526    20327281.617    83236840.94348
       457.809  
  21348064.517   112184854.62849       588.539    21348070.785    87416805.85248
       458.602  
  23375619.108   122839741.13648      2773.027    23375624.371    95719307.00447
      2160.804  
  24041791.745   126340487.85047      1114.706    24041802.240    98447177.26246
       868.601  
  21628405.188   113658086.67149      3069.339    21628410.848    88564772.23447
      2391.699  
  21798679.001   116730900.527 8     -3224.582    21798687.362    90790724.795 7
     -2508.011  
  21612064.062   115326164.237 8      2510.479    21612076.750    89698208.187 8
      1952.602  
  21522207.426   114765905.765 7      3553.344    21522219.113    89262439.475 5
      2763.715  
  19591174.640   104726062.277 9      -606.194    19591184.516    81453647.618 6
      -471.487  
  19327135.352   103350897.111 8       653.012    19327141.036    80384058.676 7
       507.897  
  20544432.565   109898825.723 9     -3190.676    20544443.846    85476898.898 6
     -2481.644  
 15  5 13  4  1  0.0000000  0 13G18G21G22G27G19G24G14R 8R 2R17R 1R24
                                R23
  20393464.357   107168374.30449     -1535.780    20393467.116    83507833.59448
     -1196.715  
  22129374.461   116290621.71948     -2652.608    22129378.641    90616075.53946
     -2066.973  
  20323955.231   106803120.28649       577.034    20323956.222    83223223.91348
       449.636  
  21344762.090   112167500.19749       568.289    21344768.330    87403282.94348
       442.823  
  23359824.200   122756739.24348      2760.316    23359829.651    95654630.32447
      2150.894  
  24035468.218   126307258.99147      1100.633    24035478.938    98421284.77146
       857.637  
  21610918.145   113566192.45649      3056.687    21610923.815    88493166.50747
      2381.840  
  21816751.280   116827675.569 8     -3227.309    21816759.577    90865994.182 7
     -2510.132  
  21597984.842   115251035.227 8      2497.937    21597997.338    89639774.680 7
      1942.844  
  21502251.249   114659491.479 7      3540.831    21502262.845    89179672.986 5
      2753.987  
  19594616.666   104744462.065 9      -620.781    19594626.508    81467958.563 6
      -482.832  
  19323543.137   103331687.772 8       627.223    19323548.736    80369118.092 7
       487.840  
  20562376.695   109994814.401 9     -3208.796    20562388.144    85551556.642 6
     -2495.737  
 15  5 13  4  1 30.0000000  0 13G18G21G22G27G19G24G14R 8R 2R17R 1R24
                                R23
  20402255.392   107214571.63249     -1544.237    20402258.179    83543831.49748
     -1203.304  
  22144541.409   116370324.35148     -2661.129    22144545.748    90678181.39947
     -2073.608  
  20320687.989   106785951.09449       567.355    20320688.986    83209845.34848
       442.093  
  21341574.307   112150747.81449       548.479    21341580.536    87390229.14948
       427.386  
  23344100.323   122674110.08548      2748.191    23344105.448    95590244.06247
      2141.448  
  24029223.269   126274444.12547      1087.176    24029233.998    98395714.87946
       847.152  
  21593502.247   113474672.76049      3044.565    21593508.129    88421852.62147
      2372.395  
  21834836.845   116924522.075 8     -3229.292    21834845.423    90941319.122 7
     -2511.679  
  21583974.402   115176275.024 8      2486.077    21583987.078    89581628.055 7
      1933.620  
  21482365.542   114553452.222 7      3528.492    21482377.130    89097198.148 5
      2744.391  
  19598139.247   104763292.373 9      -634.742    19598149.025    81482604.359 6
      -493.691  
  19320094.071   103313245.157 8       602.124    19320099.817    80354773.851 7
       468.319  
  20580421.305   110091340.214 9     -3226.315    20580432.643    85626632.158 6
     -2509.362  
 15  5 13  4  2  0.0000000  0 13G18G21G22G27G19G24G14R 8R 2R17R 1R24
                                R23
  20411096.332   107261031.27149     -1552.812    20411099.195    83580033.79048
     -1209.983  
  22159758.822   116450291.80148     -2669.687    22159763.182    90740493.62147
     -2080.281  
  20317478.613   106769085.52749       557.352    20317479.480    83196703.36348
       434.300  
  21338500.664   112134595.99049       528.652    21338506.997    87377643.33348
       411.937  
  23328447.356   122591854.34348      2735.977    23328452.857    95526148.82147
      2131.929  
  24023057.596   126242043.54147      1073.179    24023067.740    98370467.80346
       836.245  
  21576157.992   113383528.30449      3032.112    21576163.740    88350831.12147
      2362.690  
  21852934.862   117021435.790 8     -3231.144    21852943.523    91016696.349 7
     -2513.116  
  21570033.257   115101882.117 8      2473.718    21570045.693    89523767.102 7
      1924.007  
  21462550.617   114447790.404 7      3515.999    21462562.265    89015016.870 5
      2734.671  
  19601741.557   104782548.971 9      -648.699    19601751.405    81497581.703 6
      -504.546  
  19316788.594   103295569.128 8       576.675    19316794.306    80341025.840 7
       448.527  
  20598565.310   110188398.090 8     -3243.827    20598576.554    85702121.501 6
     -2522.984  
 15  5 13  4  2 30.0000000  0 13G18G21G22G27G19G24G14R 8R 2R17R 1R24
                                R23
  20419987.433   107307754.22949     -1561.628    20419990.372    83616441.26648
     -1216.859  
  22175026.942   116530525.47448     -2678.637    22175031.143    90803013.27646
     -2087.254  
  20314327.264   106752524.95049       546.996    20314328.136    83183799.04348
       426.230  
  21335541.901   112119047.58949       508.304    21335548.195    87365527.72148
       396.082  
  23312866.376   122509976.93048      2723.003    23312871.632    95462348.36946
      2121.819  
  24016971.535   126210061.07547      1059.284    24016981.673    98345546.53446
       825.418  
  21558885.858   113292763.40749      3019.280    21558891.532    88280105.38047
      2352.690  
  21871045.544   117118416.548 8     -3233.512    21871054.235    91092125.702 7
     -2514.961  
  21556161.415   115027858.845 8      2461.305    21556173.484    89466193.628 7
      1914.351  
  21442807.674   114342512.678 7      3502.984    21442819.220    88933134.311 5
      2724.542  
  19605423.644   104802231.930 9      -663.016    19605433.538    81512890.667 6
      -515.683  
  19313627.034   103278663.409 8       551.022    19313632.914    80327876.957 7
       428.574  
  20616808.635   110285987.014 9     -3261.718    20616819.963    85778023.881 6
     -2536.897  
 15  5 13  4  3  0.0000000  0 13G18G21G22G27G19G24G14R 8R 2R17R 1R24
                                R23
  20428927.923   107354736.75949     -1570.495    20428930.896    83653051.00048
     -1223.766  
  22190344.906   116611021.69848     -2687.577    22190349.100    90865737.53247
     -2094.218  
  20311233.333   106736266.29449       536.979    20311234.306    83171129.98148
       418.426  
  21332697.499   112104100.37349       488.242    21332703.702    87353880.56148
       380.448  
  23297357.560   122428477.67448      2710.253    23297362.732    95398842.57847
      2111.887  
  24010964.832   126178496.42147      1045.448    24010975.181    98320950.82646
       814.640  
  21541686.015   113202378.00149      3006.542    21541691.548    88209675.35347
      2342.766  
  21889167.576   117215459.362 8     -3235.815    21889176.099    91167603.343 7
     -2516.753  
  21542358.145   114954202.698 8      2449.058    21542370.224    89408905.694 7
      1904.828  
  21423136.879   114237620.267 7      3490.062    21423148.255    88851551.448 5
      2714.492  
  19609184.560   104822336.027 9      -677.210    19609194.387    81528527.185 7
      -526.719  
  19310609.576   103262527.080 8       525.047    19310615.236    80315326.491 7
       408.371  
  20635150.166   110384101.464 8     -3279.155    20635161.624    85854335.011 6
     -2550.457  
 15  5 13  4  3 30.0000000  0 13G18G21G22G27G19G24G14R 8R 2R17R 1R24
                                R23
  20437918.589   107401982.80949     -1579.223    20437921.558    83689866.07148
     -1230.565  
  22205713.655   116691784.73648     -2696.550    22205717.796    90928669.68046
     -2101.210  
  20308197.765   106720314.46249       526.522    20308198.772    83158700.00848
       410.276  
  21329968.716   112089760.02249       467.820    21329974.733    87342706.29248
       364.535  
  23281921.982   122347364.32248      2697.120    23281927.129    95335637.49146
      2101.652  
  24005039.235   126147356.91947      1031.000    24005049.719    98296686.39446
       803.378  
  21524559.865   113112379.69049      2993.473    21524565.139    88139546.94447
      2332.578  
  21907302.040   117312567.375 8     -3238.019    21907310.422    91243131.692 7
     -2518.465  
  21528624.857   114880919.745 8      2436.484    21528636.940    89351908.028 7
      1895.046  
  21403539.910   114133121.442 7      3476.640    21403551.401    88770274.707 5
      2704.055  
  19613024.864   104842864.372 9      -691.406    19613034.699    81544493.677 6
      -537.761  
  19307737.204   103247166.814 8       499.227    19307742.800    80303379.630 7
       388.288  
  20653590.352   110482743.555 9     -3296.805    20653601.729    85931056.513 6
     -2564.188  
 15  5 13  4  4  0.0000000  0 13G18G21G22G27G19G24G14R 8R 2R17R 1R24
                                R23
  20446958.091   107449485.46249     -1587.460    20446961.104    83726881.09648
     -1236.988  
  22221131.962   116772808.61048     -2704.964    22221136.061    90991805.08446
     -2107.769  
  20305219.412   106704663.36249       517.043    20305220.449    83146504.36748
       402.891  
  21327354.318   112076021.86149       448.226    21327360.478    87332001.26448
       349.266  
  23266559.569   122266634.45347      2684.855    23266564.647    95272731.22646
      2092.094  
  23999193.883   126116638.72747      1017.015    23999204.348    98272750.26446
       792.488  
  21507506.913   113022766.13749      2980.957    21507512.205    88069718.34647
      2322.823  
  21925446.950   117409732.634 8     -3239.534    21925455.471    91318704.552 7
     -2519.644  
  21514960.421   114808004.540 8      2424.772    21514972.373    89295196.380 7
      1885.938  
  21384017.138   114029017.166 7      3463.844    21384028.591    88689304.839 5
      2694.104  
  19616943.147   104863809.745 9      -704.890    19616952.985    81560784.514 7
      -548.253  
  19305009.186   103232578.902 8       473.684    19305014.863    80292033.482 7
       368.418  
  20672127.599   110581905.173 8     -3313.749    20672139.123    86008182.101 6
     -2577.363  
 15  5 13  4  4 30.0000000  0 13G18G21G22G27G19G24G14R 8R 2R17R 1R24
                                R23
  20456046.926   107497247.39249     -1596.003    20456049.920    83764098.15248
     -1243.644  
  22236600.723   116854096.72048     -2713.573    22236604.792    91055146.38946
     -2114.476  
  20302298.961   106689316.82349       506.840    20302300.060    83134546.05248
       394.940  
  21324855.416   112062890.41549       427.886    21324861.672    87321769.00948
       333.417  
  23251271.375   122186294.63948      2671.901    23251276.640    95210128.92446
      2082.004  
  23993429.824   126086348.70547      1002.780    23993440.144    98249147.75246
       781.386  
  21490528.269   112933543.54449      2967.917    21490533.627    88000194.40747
      2312.668  
  21943602.899   117506957.294 8     -3241.222    21943611.754    91394323.613 7
     -2520.956  
  21501365.928   114735461.654 8      2412.391    21501377.764    89238774.297 7
      1876.309  
  21364569.566   113925313.832 7      3450.438    21364580.724    88608646.797 5
      2683.675  
  19620939.864   104885174.020 9      -718.625    19620949.523    81577401.169 7
      -558.934  
  19302426.728   103218769.246 8       447.820    19302432.345    80281292.650 7
       348.305  
  20690762.157   110681586.990 9     -3330.948    20690773.678    86085712.284 6
     -2590.742  
 15  5 13  4  5  0.0000000  0 13G18G21G22G27G19G24G14R 8R 2R17R 1R24
                                R23
  20465184.852   107545267.23849     -1604.843    20465187.823    83801516.17948
     -1250.531  
  22252119.444   116935647.67748     -2722.734    22252123.703    91118692.48446
     -2121.612  
  20299436.330   106674273.93949       496.413    20299437.504    83122824.36348
       386.815  
  21322472.085   112050365.89549       407.395    21322478.352    87312009.68048
       317.448  
  23236057.795   122106347.49048      2658.421    23236063.013    95147832.57046
      2071.500  
  23987747.175   126056487.43447       988.172    23987757.902    98225879.32745
       770.003  
  21473624.496   112844714.20849      2954.421    21473629.870    87930976.87747
      2302.151  
  21961769.703   117604239.078 8     -3243.632    21961778.388    91469987.157 7
     -2522.828  
  21487840.938   114663291.001 8      2399.558    21487852.882    89182641.737 7
      1866.328  
  21345197.530   113822014.790 7      3436.335    21345208.658    88528303.227 4
      2672.710  
  19625014.309   104906954.418 9      -732.827    19625024.034    81594341.475 6
      -569.977  
  19299989.938   103205738.978 8       421.374    19299995.680    80271158.000 7
       327.734  
  20709493.474   110781785.938 8     -3348.374    20709504.944    86163644.681 6
     -2604.300  
 15  5 13  4  5 30.0000000  0 13G18G21G22G27G19G24G14R 8R 2R17R 1R24
                                R23
  20474371.170   107593541.57149     -1613.276    20474374.130    83839132.51048
     -1257.101  
  22267687.564   117017458.39048     -2731.140    22267691.692    91182441.01446
     -2128.164  
  20296631.035   106659531.98349       486.468    20296632.202    83111337.15348
       379.066  
  21320203.851   112038446.52949       387.222    21320210.078    87302721.88148
       301.729  
  23220919.102   122026792.77448      2645.418    23220923.883    95085841.99146
      2061.363  
  23982146.236   126027055.67847       974.144    23982156.682    98202945.61146
       759.073  
  21456795.671   112756278.60649      2941.273    21456800.942    87862066.16747
      2291.905  
  21979946.176   117701573.234 7     -3245.316    21979954.941    91545691.421 7
     -2524.141  
  21474385.322   114591490.659 8      2387.262    21474397.231    89126797.192 7
      1856.761  
  21325902.118   113719123.838 7      3422.757    21325912.970    88448277.028 5
      2662.145  
  19629165.904   104929146.885 9      -746.624    19629175.734    81611602.269 7
      -580.710  
  19297698.948   103193487.465 8       395.460    19297704.587    80261629.051 7
       307.581  
  20728320.346   110882496.538 8     -3365.370    20728331.796    86241975.025 6
     -2617.515  
 15  5 13  4  6  0.0000000  0 13G18G21G22G27G19G24G14R 8R 2R17R 1R24
                                R23
  20483605.365   107642067.55849     -1621.891    20483608.241    83876944.92948
     -1263.815  
  22283304.739   117099527.19648     -2740.035    22283308.996    91246390.64046
     -2135.102  
  20293882.684   106645089.14549       476.257    20293883.820    83100083.01948
       371.109  
  21318050.615   112027131.47749       366.944    21318056.789    87293904.99448
       285.930  
  23205855.242   121947632.53248      2631.852    23205859.682    95024158.82146
      2050.796  
  23976627.334   125998053.71347       959.522    23976637.654    98180346.77246
       747.683  
  21440041.929   112668237.90949      2927.937    21440047.132    87793463.14847
      2281.507  
  21998131.906   117798956.339 7     -3247.152    21998140.778    91621433.759 7
     -2525.565  
  21460999.075   114520060.052 8      2374.703    21461010.926    89071240.184 7
      1846.992  
  21306683.578   113616642.985 7      3409.022    21306694.485    88368569.803 5
      2651.465  
  19633393.961   104951747.867 9      -760.352    19633403.703    81629180.795 7
      -591.386  
  19295553.404   103182014.810 8       369.194    19295559.055    80252705.886 7
       287.148  
  20747242.017   110983714.442 8     -3382.479    20747253.709    86320699.938 6
     -2630.823  
 15  5 13  4  6 30.0000000  0 13G18G21G22G27G19G24G14R 8R 2R17R 1R24
                                R23
  20492888.277   107690849.46849     -1629.804    20492891.104    83914956.76748
     -1269.980  
  22298971.855   117181858.13548     -2748.301    22298976.319    91310544.52246
     -2141.539  
  20291192.191   106630950.25649       466.656    20291193.163    83089065.72748
       363.629  
  21316013.535   112016426.36449       347.167    21316019.862    87285563.36748
       270.519  
  23190868.117   121868874.40648      2618.987    23190872.336    94962788.95946
      2040.770  
  23971191.363   125969488.49447       945.313    23971202.033    98158088.28146
       736.605  
  21423364.765   112580599.82149      2914.983    21423370.080    87725173.84847
      2271.418  
  22016327.307   117896391.913 8     -3248.191    22016336.444    91697216.909 7
     -2526.374  
  21447683.161   114449004.470 8      2362.722    21447695.010    89015974.877 7
      1837.676  
  21287544.012   113514582.703 7      3395.581    21287554.955    88289189.700 5
      2641.008  
  19637698.981   104974760.479 9      -773.530    19637708.678    81647079.480 7
      -601.640  
  19293554.863   103171327.930 8       343.776    19293560.572    80244393.875 7
       267.382  
  20766259.011   111085442.161 8     -3398.953    20766270.590    86399821.382 6
     -2643.636  
 15  5 13  4  7  0.0000000  0 13G18G21G22G27G19G24G14R 8R 2R17R 1R24
                                R23
  20502218.664   107739880.79249     -1638.890    20502221.476    83953162.95448
     -1277.062  
  22314687.714   117264445.15548     -2757.477    22314692.158    91374897.94446
     -2148.688  
  20288558.405   106617109.64849       456.074    20288559.297    83078280.86348
       355.382  
  21314091.499   112006326.30549       326.397    21314097.835    87277693.20548
       254.336  
  23175956.572   121790515.70948      2604.836    23175961.489    94901730.37746
      2029.745  
  23965838.328   125941357.13447       930.102    23965848.560    98136167.82646
       724.754  
  21406763.740   112493361.53149      2900.952    21406769.185    87657196.08047
      2260.484  
  22034530.897   117993872.221 8     -3250.313    22034540.185    91773034.846 7
     -2528.023  
  21434436.720   114378318.767 8      2349.824    21434448.316    88960997.239 7
      1827.644  
  21268482.962   113412941.158 7      3380.848    21268493.849    88210135.288 5
      2629.550  
  19642079.505   104998177.048 9      -787.526    19642089.191    81665292.355 6
      -612.522  
  19291702.484   103161422.770 8       316.874    19291708.282    80236689.872 7
       246.456  
  20785369.587   111187670.639 8     -3416.273    20785381.131    86479332.290 6
     -2657.108  
 15  5 13  4  7 30.0000000  0 13G18G21G22G27G19G24G14R 8R 2R17R 1R24
                                R23
  20511596.843   107789163.20849     -1646.797    20511599.699    83991564.80348
     -1283.222  
  22330452.792   117347290.73148     -2765.664    22330457.322    91439452.84047
     -2155.066  
  20285981.888   106603570.21049       446.461    20285982.748    83067730.67048
       347.886  
  21312285.281   111996834.84949       306.394    21312291.451    87270297.27548
       238.749  
  23161122.484   121712562.23948      2591.816    23161127.560    94840987.51146
      2019.602  
  23960568.325   125913664.30147       915.843    23960578.877    98114589.10545
       713.648  
  21390240.015   112406529.02449      2887.793    21390245.279    87589534.51147
      2250.227  
  22052743.252   118091398.616 8     -3251.578    22052752.824    91848888.627 7
     -2529.007  
  21421260.082   114308006.608 8      2337.746    21421271.744    88906310.139 7
      1818.250  
  21249501.850   113311726.223 7      3367.117    21249512.966    88131412.666 5
      2618.870  
  19646535.805   105021998.805 9      -800.699    19646545.463    81683820.370 6
      -622.769  
  19289997.100   103152303.880 8       290.953    19290003.086    80229597.403 7
       226.293  
  20804573.916   111290400.565 8     -3432.538    20804585.573    86559233.219 6
     -2669.761  
 15  5 13  4  8  0.0000000  0 13G18G21G22G27G19G24G14R 8R 2R17R 1R24
                                R23
  20521022.138   107838693.09349     -1654.808    20521025.051    84030159.48247
     -1289.464  
  22346266.406   117430391.30548     -2774.003    22346270.921    91504206.44846
     -2161.565  
  20283462.154   106590329.04449       436.742    20283463.011    83057412.89148
       340.315  
  21310594.543   111987949.90149       286.195    21310600.712    87263373.94848
       223.007  
  23146365.553   121635014.07348      2578.515    23146370.674    94780560.49946
      2009.238  
  23955382.098   125886409.46247       901.460    23955391.996    98093351.66546
       702.437  
  21373793.451   112320101.99649      2874.355    21373798.641    87522188.90147
      2239.758  
  22070963.476   118188966.339 7     -3252.637    22070972.877    91924774.598 7
     -2529.827  
  21408153.158   114238065.519 8      2325.347    21408164.950    88851911.641 8
      1808.604  
  21230601.027   113210938.954 7      3352.565    21230612.166    88053022.679 5
      2607.551  
  19651067.074   105046221.098 9      -813.823    19651076.787    81702659.923 6
      -632.977  
  19288438.747   103143970.477 8       264.991    19288444.603    80223115.877 7
       206.105  
  20823870.915   111393625.872 8     -3448.742    20823882.708    86639519.436 6
     -2682.362  
 15  5 13  4  8 30.0000000  0 13G18G21G22G27G19G24G14R 8R 2R17R 1R24
                                R23
  20530494.776   107888471.70549     -1663.526    20530497.710    84068947.96948
     -1296.257  
  22362128.819   117513748.16148     -2782.890    22362133.257    91569159.74946
     -2168.487  
  20280999.403   106577387.38949       426.280    20281000.254    83047328.49948
       332.168  
  21309019.673   111979673.86849       265.496    21309025.828    87256925.09048
       206.879  
  23131686.601   121557875.87848      2564.363    23131691.473    94720452.90846
      1998.211  
  23950279.628   125859596.80347       886.461    23950289.884    98072458.77646
       690.749  
  21357424.952   112234085.32749      2860.180    21357430.067    87455163.04547
      2228.711  
  22089191.382   118286575.292 8     -3254.292    22089200.728    92000692.579 7
     -2531.120  
  21395115.876   114168497.773 8      2312.628    21395127.738    88797803.524 8
      1798.711  
  21211781.451   113110585.308 7      3337.594    21211792.333    87974969.973 5
      2595.909  
  19655673.285   105070843.811 9      -827.476    19655682.942    81721810.911 6
      -643.597  
  19287027.814   103136425.427 8       238.456    19287033.730    80217247.503 7
       185.461  
  20843260.319   111497345.518 8     -3465.703    20843272.087    86720190.129 6
     -2695.555  
 15  5 13  4  9  0.0000000  0 13G18G21G22G27G19G24G14R 8R 2R17R 1R24
                                R23
  20540014.293   107938496.97749     -1671.383    20540017.308    84107928.66148
     -1302.378  
  22378039.739   117597360.04848     -2791.223    22378044.254    91634311.78046
     -2174.983  
  20278593.468   106564744.43049       416.604    20278594.376    83037476.86348
       324.629  
  21307560.584   111972006.46349       245.503    21307566.855    87250950.49748
       191.301  
  23117086.169   121481150.00048      2550.512    23117090.804    94660666.63746
      1987.409  
  23945261.557   125833227.81947       871.551    23945271.989    98051911.61546
       679.129  
  21341134.787   112148480.65349      2846.672    21341139.940    87388458.22947
      2218.191  
  22107426.563   118384223.106 8     -3255.245    22107435.726    92076640.794 7
     -2531.866  
  21382148.708   114099303.509 8      2300.440    21382160.608    88743985.903 7
      1789.233  
  21193043.891   113010669.287 7      3323.511    21193054.849    87897257.646 5
      2584.956  
  19660353.809   105095864.173 9      -840.421    19660363.684    81741271.192 6
      -653.659  
  19285764.476   103129669.853 8       212.245    19285770.314    80211993.171 7
       165.081  
  20862741.478   111601556.302 8     -3481.640    20862753.356    86801242.823 6
     -2707.948  
 15  5 13  4  9 30.0000000  0 13G18G21G22G27G19G24G14R 8R 2R17R 1R24
                                R23
  20549580.389   107988766.93349     -1679.233    20549583.291    84147100.01348
     -1308.500  
  22393998.717   117681225.22948     -2799.405    22394003.229    91699661.17546
     -2181.362  
  20276244.127   106552399.02449       407.023    20276245.097    83027857.08248
       317.156  
  21306217.261   111964947.19049       225.617    21306223.570    87245449.75248
       175.801  
  23102564.457   121404837.98248      2537.402    23102568.889    94601202.82446
      1977.194  
  23940328.238   125807302.92447       857.214    23940338.714    98031710.46046
       667.957  
  21324923.421   112063289.56649      2833.238    21324928.534    87322075.67047
      2207.718  
  22125668.528   118481907.003 8     -3256.229    22125677.556    92152617.060 7
     -2532.629  
  21369251.486   114030481.864 8      2288.438    21369263.174    88690458.074 7
      1779.895  
  21174389.286   112911195.183 7      3308.883    21174400.334    87819889.022 5
      2573.574  
  19665108.286   105121279.422 9      -853.188    19665118.243    81761038.601 7
      -663.594  
  19284648.756   103123703.819 8       186.090    19284654.575    80207352.919 7
       144.733  
  20882313.705   111706253.736 8     -3497.421    20882325.667    86882674.023 6
     -2720.226  
 15  5 13  4 10  0.0000000  0 13G18G21G22G27G19G24G14R 8R 2R17R 1R24
                                R23
  20559192.107   108039276.82049     -1687.848    20559194.985    84186458.32448
     -1315.211  
  22410005.204   117765339.54348     -2808.011    22410009.790    91765204.71246
     -2188.065  
  20273950.732   106540347.12149       396.613    20273951.722    83018466.00448
       309.051  
  21304989.024   111958492.82449       204.792    21304995.342    87240420.36348
       159.574  
  23088121.455   121328939.02648      2522.890    23088126.022    94542060.88646
      1965.891  
  23935479.347   125781820.92747       841.750    23935489.481    98011854.44446
       655.910  
  21308790.574   111978511.41649      2818.816    21308795.700    87256014.88147
      2196.484  
  22143916.060   118579621.365 8     -3257.785    22143925.006    92228617.046 7
     -2533.836  
  21356423.335   113962029.175 8      2275.265    21356435.185    88637217.254 7
      1769.655  
  21155817.426   112812163.214 7      3293.313    21155828.755    87742864.282 5
      2561.468  
  19669935.491   105147083.821 9      -866.847    19669945.499    81781108.697 6
      -674.214  
  19283680.442   103118525.465 8       159.401    19283686.269    80203325.302 7
       123.979  
  20901975.657   111811431.204 8     -3513.976    20901987.579    86964478.584 6
     -2733.102  
 15  5 13  4 10 30.0000000  0 13G18G21G22G27G19G24G14R 8R 2R17R 1R24
                                R23
  20568850.641   108090032.79149     -1695.887    20568853.520    84226008.40948
     -1321.473  
  22426060.109   117849708.94948     -2816.348    22426064.801    91830947.01646
     -2194.558  
  20271714.505   106528595.29649       386.851    20271715.489    83009308.75148
       301.437  
  21303877.304   111952650.53949       184.761    21303883.528    87235867.92348
       143.968  
  23073758.640   121253462.64248      2508.891    23073763.123    94483248.21646
      1954.980  
  23930716.342   125756790.88447       826.977    23930725.850    97992350.54546
       644.394  
  21292738.109   111894155.51649      2804.887    21292743.128    87190283.12547
      2185.625  
  22162170.281   118677371.170 8     -3258.602    22162179.304    92304644.585 7
     -2534.473  
  21343665.908   113893953.415 8      2263.007    21343677.545    88584269.559 7
      1760.116  
  21137330.693   112713584.183 7      3278.479    21137342.009    87666191.817 5
      2549.930  
  19674836.472   105173282.155 9      -879.734    19674846.250    81801485.176 6
      -684.241  
  19282860.847   103114142.754 8       133.203    19282866.648    80199916.517 7
       103.598  
  20921728.040   111917092.852 8     -3529.863    20921739.982    87046659.728 6
     -2745.456  
 15  5 13  4 11  0.0000000  0 13G18G21G22G27G19G24G14R 8R 2R17R 1R24
                                R23
  20578555.266   108141030.78649     -1704.113    20578558.167    84265747.06748
     -1327.882  
  22442163.057   117934330.16748     -2825.163    22442167.571    91896885.54346
     -2201.433  
  20269534.736   106517140.37349       376.667    20269535.658    83000382.86548
       293.507  
  21302881.669   111947418.03249       164.059    21302887.829    87231790.64048
       127.832  
  23059476.327   121178408.98648      2494.617    23059480.736    94424764.94847
      1943.863  
  23926038.928   125732211.25247       811.472    23926048.746    97973197.68046
       632.315  
  21276765.988   111810221.79749      2790.608    21276771.048    87124880.34747
      2174.504  
  22180430.302   118775152.036 8     -3260.129    22180439.168    92380696.271 7
     -2535.663  
  21330978.378   113826251.729 8      2250.284    21330990.203    88531612.850 8
      1750.226  
  21118929.179   112615460.326 7      3263.011    21118940.462    87589873.398 5
      2537.901  
  19679810.181   105199869.478 9      -892.940    19679819.854    81822164.205 7
      -694.512  
  19282189.815   103110554.223 8       106.222    19282195.528    80197125.431 7
        82.612  
  20941569.808   112023232.557 8     -3546.198    20941581.781    87129212.692 6
     -2758.163  
 15  5 13  4 11 30.0000000  0 13G18G21G22G27G19G24G14R 8R 2R17R 1R24
                                R23
  20588305.451   108192268.31849     -1711.871    20588308.385    84305672.39247
     -1333.926  
  22458313.434   118019200.75248     -2833.183    22458318.102    91963018.39446
     -2207.680  
  20267411.146   106505980.89849       366.999    20267412.032    82991687.19148
       285.972  
  21302001.788   111942794.13549       143.956    21302007.895    87228187.58148
       112.172  
  23045274.755   121103779.34648      2480.469    23045279.035    94366612.07447
      1932.832  
  23921447.559   125708083.06947       796.839    23921457.354    97954396.54245
       620.914  
  21260874.296   111726711.05149      2776.538    21260879.378    87059807.14847
      2163.539  
  22198695.447   118872960.742 8     -3260.878    22198704.195    92456769.622 7
     -2536.241  
  21318360.907   113758923.203 8      2238.059    21318372.705    88479246.360 8
      1740.710  
  21100613.592   112517793.040 7      3247.886    21100624.572    87513910.083 5
      2526.137  
  19684856.029   105226842.643 9      -905.551    19684866.015    81843143.345 7
      -704.316  
  19281667.282   103107759.722 8        80.116    19281673.121    80194951.924 7
        62.308  
  20961500.085   112129845.912 8     -3561.617    20961512.168    87212134.042 6
     -2770.155  
 15  5 13  4 12  0.0000000  0 13G18G21G22G27G19G24G14R 8R 2R17R 1R24
                                R23
  20598101.266   108243745.73749     -1720.034    20598104.265    84345784.63447
     -1340.293  
  22474511.595   118104321.63448     -2841.601    22474516.066    92029346.28346
     -2214.238  
  20265343.984   106495117.91949       357.086    20265344.911    82983222.55148
       278.250  
  21301238.019   111938780.53249       123.526    21301244.189    87225060.08148
        96.250  
  23031154.590   121029577.75448      2466.034    23031158.804    94308792.74547
      1921.585  
  23916942.407   125684409.65047       781.352    23916952.259    97935949.74146
       608.844  
  21245063.916   111643627.25749      2762.211    21245068.941    86995066.64347
      2152.374  
  22216965.720   118970796.786 8     -3261.598    22216974.553    92532864.233 7
     -2536.804  
  21305813.745   113691969.423 8      2225.417    21305825.459    88427171.350 8
      1730.882  
  21082384.967   112420590.290 7      3232.167    21082395.905    87438308.082 5
      2513.914  
  19689973.931   105254200.826 9      -918.347    19689983.989    81864421.932 7
      -714.272  
  19281293.650   103105761.807 8        53.191    19281299.428    80193397.968 7
        41.367  
  20981518.793   112236931.221 9     -3577.472    20981530.688    87295422.484 6
     -2782.483  
 15  5 13  4 12 30.0000000  0 13G18G21G22G27G19G24G14R 8R 2R17R 1R24
                                R23
  20607941.601   108295456.89249     -1727.847    20607944.550    84386079.01948
     -1346.378  
  22490756.039   118189686.51248     -2849.702    22490760.591    92095864.27446
     -2220.551  
  20263332.144   106484545.56349       347.319    20263333.133    82974984.37548
       270.641  
  21300589.402   111935372.15249       103.242    21300595.538    87222404.18348
        80.445  
  23017115.448   120955801.71948      2451.776    23017119.621    94251305.01347
      1910.477  
  23912523.434   125661187.41347       766.202    23912532.951    97917854.50745
       597.039  
  21229334.265   111560967.91249      2748.046    21229339.235    86930656.87547
      2141.335  
  22235239.756   119068653.079 8     -3262.577    22235248.413    92608974.589 7
     -2537.570  
  21293335.944   113625385.302 8      2213.328    21293347.502    88375383.855 8
      1721.480  
  21064243.187   112323850.515 7      3216.636    21064254.053    87363066.171 5
      2501.832  
  19695162.637   105281936.777 9      -931.105    19695172.571    81885994.332 7
      -724.195  
  19281068.143   103104556.169 8        26.594    19281073.956    80192460.234 7
        20.679  
  21001624.061   112344479.909 8     -3592.831    21001635.798    87379071.321 6
     -2794.433  
 15  5 13  4 13  0.0000000  0 13G18G21G22G27G19G24G14R 8R 2R17R 1R24
                                R23
  20617827.876   108347409.74449     -1735.261    20617830.823    84426561.74947
     -1352.155  
  22507048.608   118275304.10448     -2857.565    22507053.261    92162579.18946
     -2226.679  
  20261377.221   106474272.68949       337.956    20261378.269    82966979.56248
       263.344  
  21300057.779   111932578.39549        83.429    21300063.902    87220227.22348
        65.012  
  23003159.383   120882462.97748      2438.039    23003163.829    94194158.03247
      1899.769  
  23908192.179   125638427.29647       751.328    23908201.870    97900119.39246
       585.448  
  21213687.683   111478744.72349      2734.027    21213692.623    86866586.96247
      2130.410  
  22253518.908   119166537.041 8     -3262.897    22253527.567    92685106.465 7
     -2537.813  
  21280929.093   113559180.246 8      2201.101    21280940.470    88323891.190 8
      1711.973  
  21046190.587   112227586.406 7      3201.229    21046201.194    87288194.204 5
      2489.847  
  19700423.243   105310057.512 9      -943.241    19700433.129    81907866.016 7
      -733.637  
  19280992.825   103104153.129 8         0.679    19280998.700    80192146.732 7
         0.522  
  21021816.942   112452497.989 8     -3607.835    21021828.986    87463085.235 6
     -2806.097  
 15  5 13  4 13 30.0000000  0 13G18G21G22G27G19G24G14R 8R 2R17R 1R24
                                R23
  20627758.343   108399594.82449     -1743.602    20627761.327    84467225.44147
     -1358.655  
  22523387.428   118361164.96148     -2866.308    22523392.140    92229483.66746
     -2233.491  
  20259477.616   106464290.63649       327.730    20259478.638    82959201.36048
       255.375  
  21299641.550   111930390.84449        62.613    21299647.685    87218522.63248
        48.785  
  22989285.334   120809555.48448      2422.862    22989289.990    94137347.10647
      1887.949  
  23903947.803   125616122.94747       735.452    23903957.318    97882739.41346
       573.078  
  21198122.824   111396951.27549      2719.077    21198127.689    86802851.90747
      2118.762  
  22271801.230   119264438.394 8     -3263.746    22271810.122    92761251.850 7
     -2538.477  
  21268591.668   113493345.944 8      2188.022    21268603.093    88272686.902 8
      1701.801  
  21028226.262   112131794.112 7      3185.222    21028237.008    87213689.219 5
      2477.397  
  19705753.690   105338552.152 9      -956.227    19705763.566    81930028.515 6
      -743.729  
  19281066.135   103104545.056 8       -26.624    19281071.892    80192451.554 7
       -20.710  
  21042095.434   112560973.589 8     -3623.703    21042107.517    87547455.010 6
     -2818.444  
 15  5 13  4 14  0.0000000  0 13G18G21G22G27G19G24G14R 8R 2R17R 1R24
                                R23
  20637733.172   108452012.93749     -1750.827    20637736.229    84508070.71547
     -1364.284  
  22539772.519   118447270.13648     -2874.027    22539777.472    92296578.52146
     -2239.504  
  20257633.715   106454600.99549       318.370    20257634.758    82951651.01248
       248.082  
  21299341.053   111928811.84949        42.730    21299347.118    87217292.23548
        33.297  
  22975494.457   120737084.21848      2408.625    22975498.886    94080876.09047
      1876.851  
  23899791.116   125594278.19147       720.906    23899800.439    97865717.56445
       561.745  
  21182640.611   111315592.53949      2705.016    21182645.582    86739455.61047
      2107.809  
  22290086.882   119362357.351 8     -3263.866    22290095.877    92837410.938 6
     -2538.565  
  21256324.050   113427884.803 8      2176.226    21256335.634    88221772.858 8
      1692.624  
  21010351.655   112036479.832 7      3169.457    21010362.659    87139556.017 5
      2465.132  
  19711154.162   105367420.958 9      -968.070    19711164.058    81952482.029 6
      -752.945  
  19281288.637   103105735.093 8       -52.859    19281294.506    80193377.123 7
       -41.116  
  21062459.352   112669906.008 8     -3638.289    21062471.347    87632180.081 6
     -2829.789  
 15  5 13  4 14 30.0000000  0 13G18G21G22G27G19G24G14R 8R 2R17R 1R24
                                R23
  20647752.640   108504665.56449     -1758.984    20647755.705    84549098.73148
     -1370.640  
  22556204.800   118533621.50948     -2882.558    22556209.633    92363865.22146
     -2246.151  
  20255845.811   106445205.77749       308.245    20255846.814    82944330.08848
       240.191  
  21299156.867   111927843.85049        22.011    21299162.951    87216537.94848
        17.148  
  22961787.525   120665054.02148      2393.496    22961791.975    94024748.77147
      1865.065  
  23895722.267   125572896.84347       704.882    23895731.759    97849056.80946
       549.258  
  21167242.087   111234673.31249      2689.905    21167247.017    86676401.78047
      2096.031  
  22308376.189   119460294.758 8     -3264.797    22308384.918    92913584.395 7
     -2539.288  
  21244126.990   113362799.142 8      2163.163    21244138.504    88171150.834 8
      1682.465  
  20992568.171   111941650.642 8      3152.827    20992579.184    87065800.086 5
      2452.199  
  19716624.736   105396664.687 9      -981.078    19716634.818    81975227.167 7
      -763.065  
  19281661.066   103107726.828 8       -79.843    19281666.997    80194926.234 7
       -62.105  
  21082908.317   112779294.214 8     -3653.780    21082920.328    87717259.653 6
     -2841.835  
 15  5 13  4 15  0.0000000  0 13G18G21G22G27G19G24G14R 8R 2R17R 1R24
                                R23
  20657816.437   108557550.95349     -1766.917    20657819.458    84590308.11847
     -1376.823  
  22572683.492   118620217.30748     -2890.714    22572688.465    92431342.37846
     -2252.511  
  20254113.776   106436103.93249       298.315    20254114.697    82937237.76648
       232.448  
  21299088.761   111927486.14049         1.516    21299094.896    87216259.21148
         1.180  
  22948164.829   120593466.70648      2378.648    22948169.346    93968966.53847
      1853.495  
  23891741.800   125551980.06547       689.276    23891751.249    97832758.03745
       537.093  
  21151927.540   111154195.04649      2675.136    21151932.395    86613691.55647
      2084.526  
  22326668.165   119558248.120 8     -3265.823    22326677.151    92989770.243 6
     -2540.094  
  21232000.265   113298088.773 8      2150.585    21232011.695    88120820.702 8
      1672.683  
  20974876.148   111847309.351 8      3136.624    20974886.998    86992423.644 5
      2439.601  
  19722164.835   105426279.848 9      -993.604    19722174.972    81998261.194 7
      -772.805  
  19282183.376   103110519.914 8      -106.769    19282189.278    80197098.625 7
       -83.047  
  21103442.024   112889134.478 8     -3668.785    21103454.066    87802690.829 6
     -2853.504  
 15  5 13  4 15 30.0000000  0 13G18G21G22G27G19G24G14R 8R 2R17R 1R24
                                R23
  20667923.154   108610662.08149     -1774.140    20667926.175    84631693.40247
     -1382.448  
  22589207.449   118707051.10348     -2898.363    22589212.416    92499004.97746
     -2258.473  
  20252436.439   106427289.31249       288.973    20252437.153    82930369.25248
       225.172  
  21299135.744   111927733.00249       -18.308    21299141.871    87216451.56448
       -14.266  
  22934625.972   120522319.22548      2364.098    22934630.329    93913527.05747
      1842.151  
  23887848.957   125531523.85047       674.272    23887858.705    97816818.18946
       525.405  
  21136696.303   111074154.60549      2660.547    21136701.211    86551322.49747
      2073.155  
  22344961.793   119656209.697 7     -3265.355    22344971.016    93065962.514 6
     -2539.726  
  21219942.640   113233747.690 8      2138.472    21219954.046    88070777.795 8
      1663.261  
  20957275.638   111753455.799 7      3120.184    20957286.213    86919426.537 5
      2426.808  
  19727772.989   105456258.645 9     -1005.457    19727783.143    82021578.041 7
      -782.022  
  19282854.741   103114109.662 8      -132.945    19282860.592    80199890.640 7
      -103.406  
  21124058.301   112999417.317 8     -3683.477    21124070.481    87888466.211 6
     -2864.934  
 15  5 13  4 16  0.0000000  0 13G18G21G22G27G19G24G14R 8R 2R17R 1R24
                                R23
  20678074.308   108664006.53549     -1781.808    20678077.275    84673260.49348
     -1388.425  
  22605778.268   118794130.93748     -2906.483    22605783.244    92566859.31146
     -2264.797  
  20250815.297   106418770.05849       279.258    20250815.931    82923730.89848
       217.602  
  21299299.330   111928592.93449       -38.628    21299305.486    87217121.63748
       -30.105  
  22921172.622   120451622.30048      2349.242    22921177.024    93858438.64647
      1830.577  
  23884045.927   125511538.57447       658.315    23884055.824    97801245.30846
       512.977  
  21121550.367   110994562.70449      2645.792    21121555.265    86489302.94347
      2061.655  
  22363258.531   119754186.398 8     -3265.789    22363267.681    93142166.541 6
     -2540.063  
  21207955.918   113169784.872 8      2126.097    21207967.242    88021029.077 8
      1653.632  
  20939768.894   111660102.030 8      3103.473    20939779.504    86846818.165 5
      2413.813  
  19733450.369   105486607.555 9     -1017.500    19733460.503    82045182.748 7
      -791.390  
  19283676.806   103118505.392 8      -159.604    19283682.642    80203309.529 7
      -124.140  
  21144758.344   113110148.089 8     -3698.229    21144770.440    87974589.996 6
     -2876.409  
 15  5 13  4 16 30.0000000  0 13G18G21G22G27G19G24G14R 8R 2R17R 1R24
                                R23
  20688269.348   108717581.64249     -1789.499    20688272.259    84715007.30947
     -1394.417  
  22622395.280   118881453.51648     -2914.688    22622400.270    92634902.78546
     -2271.187  
  20249249.842   106410543.79049       269.487    20249250.598    82917320.84348
       209.992  
  21299579.269   111930064.05549       -59.155    21299585.491    87218267.95948
       -46.098  
  22907805.010   120381377.30348      2334.070    22907809.484    93803702.39847
      1818.758  
  23880332.294   125492024.01847       642.714    23880342.454    97786039.21046
       500.816  
  21106489.824   110915419.82749      2630.848    21106494.554    86427633.28947
      2050.011  
  22381556.967   119852174.690 7     -3266.210    22381566.252    93218379.568 6
     -2540.390  
  21196039.732   113106198.349 8      2113.496    21196051.118    87971573.052 8
      1643.835  
  20922356.102   111567249.910 8      3087.082    20922366.794    86774599.934 5
      2401.062  
  19739196.298   105517322.620 9     -1029.882    19739206.226    82069072.244 7
      -801.022  
  19284649.373   103123705.957 8      -186.655    19284655.209    80207354.402 7
      -145.175  
  21165541.190   113221321.956 8     -3712.973    21165553.520    88061058.394 6
     -2887.875  
 15  5 13  4 17  0.0000000  0 13G18G21G22G27G19G24G14R 8R 2R17R 1R24
                                R23
  20698506.350   108771377.35849     -1797.270    20698509.246    84756926.02947
     -1400.473  
  22639056.855   118969009.53048     -2922.784    22639061.704    92703128.16746
     -2277.503  
  20247738.462   106402601.64949       259.671    20247739.319    82911132.18748
       202.339  
  21299974.001   111932137.69649       -79.547    21299980.060    87219883.77648
       -61.987  
  22894522.496   120311577.78648      2318.797    22894527.100    93749313.28647
      1806.858  
  23876706.813   125472973.17347       626.754    23876716.888    97771194.46946
       488.379  
  21091513.659   110836719.86149      2615.460    21091518.354    86366308.75247
      2038.023  
  22399856.059   119950164.121 7     -3266.734    22399865.358    93294593.478 6
     -2540.797  
  21184192.498   113042979.458 8      2100.730    21184203.680    87922402.942 8
      1633.901  
  20905036.511   111474894.842 7      3069.816    20905047.057    86702768.332 5
      2387.641  
  19745008.629   105548393.048 9     -1041.968    19745018.675    82093238.133 7
      -810.425  
  19285770.933   103129703.225 8      -213.566    19285776.742    80212018.937 7
      -166.104  
  21186404.690   113332926.490 8     -3727.749    21186416.948    88147861.776 6
     -2899.363  
 15  5 13  4 17 30.0000000  0 13G18G21G22G27G19G24G14R 8R 2R17R 1R24
                                R23
  20708786.486   108825399.99749     -1804.570    20708789.421    84799021.56647
     -1406.164  
  22655763.949   119056805.43248     -2930.590    22655768.760    92771540.45346
     -2283.585  
  20246282.484   106394950.62149       250.180    20246283.360    82905170.37148
       194.944  
  21300484.588   111934821.03749       -99.621    21300490.689    87221974.68748
       -77.628  
  22881326.778   120242233.59848      2303.823    22881331.218    93695278.95047
      1795.188  
  23873171.506   125454394.91947       611.113    23873181.356    97756717.99446
       476.194  
  21076623.531   110758472.21349      2600.601    21076628.150    86305336.67147
      2026.444  
  22418156.354   120048160.499 8     -3266.687    22418165.577    93370812.808 6
     -2540.761  
  21172415.357   112980135.755 8      2088.312    21172426.873    87873524.662 8
      1624.245  
  20887812.562   111383048.996 7      3052.957    20887822.769    86631332.760 5
      2374.522  
  19750888.501   105579823.957 9     -1053.733    19750898.403    82117684.402 7
      -819.573  
  19287042.892   103136505.182 8      -240.366    19287048.693    80217309.333 7
      -186.956  
  21207349.260   113444965.718 8     -3742.019    21207361.636    88235003.248 6
     -2910.469  
 15  5 13  4 18  0.0000000  0 13G18G21G22G27G19G24G14R 8R 2R17R 1R24
                                R23
  20719109.233   108879646.39849     -1811.792    20719112.216    84841291.46747
     -1411.789  
  22672516.137   119144838.30448     -2938.245    22672520.995    92840137.39946
     -2289.547  
  20244881.446   106387588.05449       240.699    20244882.362    82899433.33448
       187.558  
  21301110.925   111938111.99249      -119.703    21301116.960    87224539.06848
       -93.276  
  22868217.558   120173344.99548      2288.687    22868222.066    93641599.63647
      1783.395  
  23869725.901   125436288.98747       595.687    23869735.858    97742609.56946
       464.172  
  21061819.609   110680677.45249      2585.593    21061824.280    86244717.48448
      2014.749  
  22436456.819   120146159.998 7     -3266.355    22436466.336    93447034.541 6
     -2540.503  
  21160708.329   112917664.964 8      2076.206    21160719.472    87824936.386 8
      1614.828  
  20870684.322   111291714.764 7      3036.128    20870694.859    86560295.128 5
      2361.433  
  19756834.915   105611611.356 9     -1065.386    19756844.816    82142407.925 7
      -828.636  
  19288465.222   103144110.864 8      -266.687    19288470.942    80223224.863 7
      -207.425  
  21228374.169   113557434.463 8     -3756.000    21228386.712    88322478.773 6
     -2921.339  
 15  5 13  4 18 30.0000000  0 13G18G21G22G27G19G24G14R 8R 2R17R 1R24
                                R23
  20729474.100   108934114.10749     -1819.492    20729477.077    84883733.80947
     -1417.788  
  22689312.989   119233105.51748     -2946.344    22689317.632    92908916.94746
     -2295.858  
  20243534.923   106380512.12249       230.879    20243535.962    82893919.64248
       179.906  
  21301852.401   111942008.85049      -140.195    21301858.489    87227575.56848
      -109.246  
  22855195.503   120104913.22948      2273.332    22855199.788    93588276.26947
      1771.430  
  23866370.224   125418655.31647       579.527    23866380.009    97728869.17645
       451.582  
  21047102.043   110603336.24849      2570.183    21047106.598    86184451.72447
      2002.746  
  22454757.377   120244159.561 7     -3267.070    22454767.132    93523256.333 6
     -2541.058  
  21149070.979   112855566.021 8      2063.637    21149082.163    87776637.355 8
      1605.054  
  20853652.836   111200895.746 8      3018.589    20853663.416    86489658.213 5
      2347.793  
  19762847.410   105643751.496 9     -1077.405    19762857.388    82167405.796 7
      -837.987  
  19290037.531   103152518.641 8      -293.734    19290043.206    80229764.234 6
      -228.465  
  21249478.637   113670328.102 8     -3770.363    21249491.099    88410284.777 5
     -2932.511  
 15  5 13  4 19  0.0000000  0 13G18G21G22G27G19G24G14R 8R 2R17R 1R24
                                R23
  20739881.804   108988806.99449     -1826.527    20739884.769    84926351.62847
     -1423.273  
  22706155.112   119321611.27848     -2953.906    22706159.983    92977882.37146
     -2301.754  
  20242243.804   106373727.34349       221.608    20242244.942    82888632.82148
       172.683  
  21302710.119   111946516.22249      -160.101    21302716.274    87231087.80348
      -124.758  
  22842261.659   120036945.44848      2258.249    22842265.750    93535314.45447
      1759.676  
  23863105.533   125401500.21647       564.308    23863115.477    97715501.65046
       439.723  
  21032472.016   110526455.46849      2555.230    21032476.431    86124544.73047
      1991.090  
  22473058.688   120342162.065 7     -3266.730    22473068.817    93599480.393 6
     -2540.792  
  21137504.202   112793843.482 8      2051.362    21137515.145    87728631.063 8
      1595.507  
  20836719.371   111110599.168 7      3001.433    20836729.815    86419427.624 5
      2334.449  
  19768926.348   105676246.872 9     -1088.824    19768936.415    82192679.965 7
      -846.867  
  19291760.995   103161734.157 8      -320.366    19291766.523    80236931.855 7
      -249.180  
  21270662.599   113783647.767 8     -3784.265    21270674.916    88498422.134 5
     -2943.324  
 15  5 13  4 19 30.0000000  0 13G18G21G22G27G19G24G14R 8R 2R17R 1R24
                                R23
  20750331.485   109043720.28449     -1834.535    20750334.401    84969141.18847
     -1429.507  
  22723041.770   119410351.33048     -2962.227    22723046.760    93047030.36746
     -2308.230  
  20241007.313   106367229.44149       211.495    20241008.300    82883569.53948
       164.800  
  21303683.294   111951630.38249      -180.984    21303689.395    87235072.85348
      -141.027  
  22829415.739   119969440.53048      2242.199    22829419.813    93482713.33247
      1747.168  
  23859931.663   125384821.51047       547.741    23859942.029    97702505.38245
       426.815  
  21017929.331   110450033.95249      2539.300    21017933.851    86064995.60848
      1978.675  
  22491359.680   120440162.392 7     -3266.937    22491369.625    93675702.801 7
     -2540.957  
  21126007.217   112732493.839 8      2038.257    21126018.127    87680914.794 8
      1585.316  
  20819884.111   111020826.330 8      2983.219    20819894.499    86349604.451 5
      2320.284  
  19775070.696   105709092.055 9     -1100.945    19775080.834    82218226.200 7
      -856.292  
  19293634.816   103171754.225 8      -347.651    19293640.414    80244725.232 7
      -270.397  
  21291924.839   113897386.385 8     -3798.586    21291937.330    88586885.344 6
     -2954.464  
 15  5 13  4 20  0.0000000  0 13G18G21G22G27G19G24G14R 8R 2R17R 1R24
                                R23
  20760822.797   109098852.43849     -1841.609    20760825.767    85012101.29547
     -1435.023  
  22739972.829   119499323.86648     -2969.671    22739977.785    93116359.52346
     -2314.035  
  20239825.207   106361017.49749       202.133    20239826.071    82878729.07348
       157.507  
  21304771.794   111957350.46049      -200.965    21304777.979    87239530.04948
      -156.598  
  22816658.248   119902400.36748      2226.737    22816662.414    93430474.35247
      1735.120  
  23856848.725   125368620.59447       531.866    23856858.732    97689881.42146
       414.440  
  21003474.488   110374073.64649      2524.109    21003479.036    86005805.86948
      1966.844  
  22509659.590   120538158.451 7     -3266.762    22509669.601    93751921.867 7
     -2540.820  
  21114580.104   112671516.482 8      2026.191    21114591.006    87633488.095 8
      1575.925  
  20803147.824   110931581.441 8      2965.913    20803157.996    86280191.849 5
      2306.824  
  19781280.043   105742284.229 9     -1112.448    19781290.133    82244042.309 7
      -865.242  
  19295659.000   103182578.757 8      -374.503    19295664.623    80253144.300 7
      -291.285  
  21313264.727   114011539.863 8     -3812.168    21313277.342    88675671.220 6
     -2965.027  
 15  5 13  4 20 30.0000000  0 13G18G21G22G27G19G24G14R 8R 2R17R 1R24
                                R23
  20771355.597   109154202.92449     -1848.277    20771358.743    85055231.53947
     -1440.218  
  22756948.020   119588528.40948     -2976.938    22756953.004    93185869.45646
     -2319.694  
  20238697.550   106355091.77549       193.140    20238698.318    82874111.64248
       150.499  
  21305975.601   111963676.72749      -220.522    21305981.741    87244459.59848
      -171.836  
  22803990.102   119835827.90748      2211.812    22803994.158    93378599.80747
      1723.492  
  23853856.859   125352899.16847       516.663    23853866.625    97677631.05346
       402.593  
  20989107.828   110298577.15249      2509.176    20989112.459    85946977.54548
      1955.202  
  22527958.968   120636149.322 7     -3265.827    22527968.896    93828136.910 7
     -2540.094  
  21103222.765   112610912.012 8      2014.276    21103233.575    87586351.413 8
      1566.664  
  20786511.225   110842868.575 7      2948.722    20786521.402    86211193.051 5
      2293.448  
  19787553.897   105775821.575 9     -1123.226    19787563.939    82270126.900 7
      -873.624  
  19297833.916   103194208.697 8      -400.527    19297839.560    80262189.795 7
      -311.522  
  21334681.761   114126105.741 8     -3825.230    21334694.507    88764777.847 5
     -2975.187  
 15  5 13  4 21  0.0000000  0 13G18G21G22G27G19G24G14R 8R 2R17R 1R24
                                R23
  20781929.691   109209770.03949     -1855.925    20781932.932    85098530.57847
     -1446.176  
  22773966.979   119677963.67048     -2985.125    22773971.902    93255559.15746
     -2326.078  
  20237624.211   106349451.15649       183.269    20237624.847    82869716.36448
       142.804  
  21307294.566   111970608.27949      -241.190    21307300.947    87249860.80748
      -187.945  
  22791411.089   119769724.96548      2195.503    22791415.085    93327091.13747
      1710.784  
  23850956.446   125337658.05247       500.519    23850966.380    97665755.00346
       390.015  
  20974829.786   110223545.65949      2493.160    20974834.290    85888511.54948
      1942.722  
  22546256.826   120734132.207 7     -3265.808    22546267.121    93904345.743 7
     -2540.077  
  21091935.193   112550679.584 8      2001.503    21091945.891    87539504.084 8
      1556.729  
  20769975.108   110754690.989 8      2930.367    20769985.253    86142610.596 5
      2279.176  
  19793891.847   105809701.490 9     -1135.043    19793901.800    82296477.934 6
      -882.816  
  19300159.247   103206643.416 8      -427.766    19300164.966    80271861.236 7
      -332.710  
  21356175.130   114241079.927 8     -3839.191    21356187.686    88854202.050 5
     -2986.047  
 15  5 13  4 21 30.0000000  0 13G18G21G22G27G19G24G14R 8R 2R17R 1R24
                                R23
  20792545.070   109265554.10549     -1863.007    20792548.373    85141998.65847
     -1451.698  
  22791029.978   119767630.05448     -2992.698    22791034.872    93325428.97946
     -2331.976  
  20236605.278   106344096.56049       173.813    20236605.868    82865543.97248
       135.438  
  21308728.993   111978146.14749      -261.203    21308735.240    87255734.46348
      -203.539  
  22778921.993   119704095.22948      2179.801    22778926.014    93275951.16647
      1698.546  
  23848147.984   125322900.36147       483.922    23848158.132    97654255.60545
       377.085  
  20960640.886   110148982.89449      2477.594    20960645.410    85830410.80147
      1930.598  
  22564553.229   120832107.365 7     -3265.651    22564563.570    93980548.560 7
     -2539.957  
  21080717.627   112490820.660 8      1989.038    21080728.049    87492947.249 8
      1547.031  
  20753540.436   110667054.822 8      2912.144    20753550.564    86074449.251 6
      2265.004  
  19800293.868   105843923.270 9     -1146.313    19800303.611    82323094.851 7
      -891.581  
  19302635.421   103219884.537 8      -454.953    19302641.036    80282159.871 7
      -353.855  
  21377744.421   114356460.058 8     -3852.843    21377756.944    88943942.003 5
     -2996.663  
 15  5 13  4 22  0.0000000  0 13G18G21G22G27G19G24G14R 8R 2R17R 1R24
                                R23
  20803201.026   109321551.31249     -1870.542    20803204.291    85185632.82847
     -1457.569  
  22808136.376   119857523.84748     -3000.495    22808141.290    93395475.99546
     -2338.054  
  20235640.183   106339025.14049       164.016    20235640.751    82861592.23048
       127.805  
  21310278.258   111986287.21749      -281.710    21310284.286    87262078.14348
      -219.520  
  22766522.930   119638938.55848      2163.656    22766527.044    93225179.83247
      1685.964  
  23845431.705   125308624.65647       467.214    23845441.340    97643131.79546
       364.066  
  20946541.162   110074888.62449      2461.625    20946545.596    85772675.10548
      1918.147  
  22582847.221   120930070.208 7     -3265.551    22582857.214    94056741.814 7
     -2539.874  
  21069569.431   112431332.281 8      1976.359    21069579.891    87446678.630 8
      1537.167  
  20737207.094   110579959.678 7      2893.719    20737217.595    86006708.695 5
      2250.675  
  19806758.824   105878482.040 9     -1157.891    19806768.693    82349973.890 7
      -900.585  
  19305261.904   103233929.647 8      -482.093    19305267.659    80293083.829 7
      -374.965  
  21399388.505   114472239.969 8     -3866.297    21399401.000    89033992.878 5
     -3007.129  
 15  5 13  4 22 30.0000000  0 13G18G21G22G27G19G24G14R 8R 2R17R 1R24
                                R23
  20813897.887   109377763.38349     -1877.159    20813901.064    85229434.42147
     -1462.727  
  22825286.175   119947646.83748     -3007.769    22825291.364    93465701.58646
     -2343.723  
  20234729.360   106334239.07549       154.839    20234729.992    82857862.85748
       120.655  
  21311942.692   111995033.87449      -301.559    21311949.039    87268893.71448
      -234.984  
  22754214.989   119574259.85848      2147.949    22754219.071    93174780.92947
      1673.726  
  23842807.548   125294835.08747       451.645    23842817.088    97632386.76546
       351.930  
  20932531.476   110001267.54049      2446.246    20932535.919    85715308.13348
      1906.163  
  22601139.362   121028022.194 8     -3264.898    22601148.942    94132926.621 7
     -2539.374  
  21058491.060   112372217.311 8      1964.413    21058501.607    87400700.453 8
      1527.882  
  20720977.109   110493414.211 8      2875.859    20720987.423    85939395.639 6
      2236.781  
  19813286.884   105913378.200 9     -1168.784    19813296.791    82377115.337 7
      -909.059  
  19308039.445   103248782.093 8      -508.507    19308045.084    80304635.712 7
      -395.511  
  21421107.095   114588419.374 8     -3879.405    21421119.719    89124354.460 5
     -3017.324  
 15  5 13  4 23  0.0000000  0 13G18G21G22G27G19G24G14R 8R 2R17R 1R24
                                R23
  20824635.172   109434188.07549     -1884.272    20824638.267    85273401.69047
     -1468.269  
  22842479.342   120037996.84948     -3015.390    22842484.408    93536104.10146
     -2349.660  
  20233872.430   106329736.50449       145.398    20233873.242    82854354.38748
       113.297  
  21313722.124   112004384.50949      -321.655    21313728.485    87276179.90748
      -250.640  
  22741998.162   119510060.37148      2132.055    22742002.300    93124755.44747
      1661.339  
  23840275.984   125281531.84347       435.429    23840285.708    97622020.71946
       339.301  
  20918612.057   109928120.72049      2430.331    20918616.465    85658310.70348
      1893.765  
  22619428.897   121125960.516 8     -3264.347    22619437.947    94209100.840 7
     -2538.937  
  21047482.563   112313474.205 8      1951.844    21047492.953    87355011.480 8
      1518.104  
  20704850.738   110407422.006 7      2857.179    20704860.928    85872512.920 5
      2222.250  
  19819877.402   105948608.393 9     -1179.863    19819887.218    82404516.581 7
      -917.676  
  19310967.738   103264440.489 8      -535.116    19310973.220    80316814.453 7
      -416.207  
  21442899.471   114704992.768 8     -3892.188    21442911.906    89215022.496 5
     -3027.262  
 15  5 13  4 23 30.0000000  0 13G18G21G22G27G19G24G14R 8R 2R17R 1R24
                                R23
  20835412.479   109490823.07849     -1891.348    20835415.491    85317532.84147
     -1473.781  
  22859715.222   120128571.57348     -3022.898    22859720.270    93606681.70146
     -2355.511  
  20233069.241   106325515.84249       136.180    20233070.144    82851065.58648
       106.108  
  21315616.033   112014337.37949      -341.625    21315622.334    87283935.37048
      -266.206  
  22729872.753   119446340.94848      2116.304    22729876.795    93075104.03247
      1649.070  
  23837837.025   125268714.74947       419.651    23837846.403    97612033.45446
       327.000  
  20904782.858   109855448.44349      2414.550    20904787.209    85601683.05548
      1881.473  
  22637715.207   121223882.248 8     -3263.508    22637724.134    94285262.130 7
     -2538.288  
  21036543.458   112255101.672 8      1939.804    21036554.064    87309610.749 8
      1508.741  
  20688828.522   110321984.890 8      2838.730    20688838.649    85806061.936 5
      2207.902  
  19826529.803   105984169.223 9     -1190.734    19826539.512    82432174.987 6
      -926.129  
  19314046.426   103280903.430 8      -562.167    19314051.927    80329618.936 7
      -437.245  
  21464764.674   114821956.206 8     -3905.047    21464777.207    89305993.880 6
     -3037.265  
 15  5 13  4 24  0.0000000  0 13G18G21G22G27G19G24G14R 8R 2R17R 1R24
                                R23
  20846230.394   109547671.41749     -1898.487    20846233.380    85361830.22547
     -1479.343  
  22876994.305   120219373.77148     -3030.644    22876999.506    93677436.56646
     -2361.547  
  20232320.393   106321580.52849       126.352    20232321.323    82847999.13548
        98.456  
  21317625.257   112024895.77049      -361.987    21317631.489    87292162.68148
      -282.074  
  22717839.918   119383108.04048      2099.555    22717843.888    93025831.72947
      1636.016  
  23835491.260   125256389.23047       402.484    23835501.093    97602429.24045
       313.625  
  20891045.256   109783257.29849      2398.237    20891049.662    85545430.31347
      1868.758  
  22655998.731   121321789.722 8     -3263.449    22656008.134    94361412.314 7
     -2538.242  
  21025674.465   112197103.363 8      1927.046    21025684.904    87264501.045 8
      1498.815  
  20672911.891   110237110.023 8      2819.762    20672921.754    85740048.245 5
      2193.147  
  19833244.519   106020062.730 9     -1202.124    19833254.232    82460092.157 6
      -934.984  
  19317276.345   103298174.918 8      -589.187    19317281.823    80343052.297 7
      -458.262  
  21486702.772   114939309.485 8     -3918.276    21486715.416    89397268.479 5
     -3047.559  
 15  5 13  4 24 30.0000000  0 13G18G21G22G27G19G24G14R 8R 2R17R 1R24
                                R23
  20857088.002   109604728.47349     -1905.269    20857091.017    85406290.24847
     -1484.629  
  22894316.008   120310399.71148     -3037.930    22894321.131    93748365.75546
     -2367.223  
  20231625.128   106317926.69849       117.229    20231625.945    82845152.02248
        91.348  
  21319749.022   112036055.91949      -381.894    21319755.298    87300858.88648
      -297.585  
  22705899.281   119320360.47548      2083.398    22705903.158    92976937.59047
      1623.425  
  23833238.819   125244553.13947       386.597    23833248.470    97593206.40646
       301.246  
  20877398.970   109711545.86149      2382.516    20877403.255    85489551.37048
      1856.504  
  22674278.756   121419677.863 8     -3262.339    22674288.322    94437547.463 7
     -2537.378  
  21014874.912   112139475.939 8      1914.886    21014885.508    87219679.823 7
      1489.354  
  20657100.826   110152798.734 8      2800.940    20657110.926    85674472.896 6
      2178.515  
  19840020.248   106056283.070 9     -1212.766    19840030.009    82488263.523 6
      -943.266  
  19320656.727   103316251.712 8      -615.839    19320662.276    80357112.000 7
      -478.991  
  21508712.520   115057046.015 8     -3930.604    21508725.169    89488841.153 5
     -3057.148  
 15  5 13  4 25  0.0000000  0 13G18G21G22G27G19G24G14R 8R 2R17R 1R24
                                R23
  20867985.225   109661994.01349     -1912.125    20867988.282    85450912.72547
     -1489.973  
  22911679.978   120401648.27348     -3045.194    22911685.344    93819468.42746
     -2372.883  
  20230983.457   106314554.56849       107.813    20230984.263    82842524.40948
        84.008  
  21321987.234   112047817.70449      -401.906    21321993.502    87310023.89348
      -313.176  
  22694051.554   119258100.93848      2067.352    22694055.498    92928423.74647
      1610.921  
  23831079.904   125233208.46447       370.281    23831089.538    97584366.43946
       288.527  
  20863844.324   109640316.46449      2366.426    20863848.692    85434048.04748
      1843.969  
  22692554.974   121517546.053 7     -3261.746    22692564.587    94513667.119 7
     -2536.918  
  21004144.887   112082219.629 8      1902.535    21004155.402    87175147.244 7
      1479.749  
  20641396.443   110069055.945 8      2782.011    20641406.432    85609339.691 6
      2163.784  
  19846856.699   106092828.260 9     -1223.452    19846866.572    82516687.558 6
      -951.573  
  19324187.907   103335134.146 8      -642.796    19324193.395    80371798.314 6
      -499.957  
  21530793.311   115175162.797 8     -3943.285    21530806.044    89580709.577 5
     -3067.007  
 15  5 13  4 25 30.0000000  0 13G18G21G22G27G19G24G14R 8R 2R17R 1R24
                                R23
  20878921.241   109719463.25849     -1918.813    20878924.379    85495693.93347
     -1495.183  
  22929085.621   120493114.95148     -3052.398    22929090.876    93890741.04746
     -2378.495  
  20230394.571   106311459.89049        98.543    20230395.286    82840112.99148
        76.784  
  21324339.183   112060176.97249      -421.875    21324345.372    87319654.47248
      -328.737  
  22682296.746   119196328.34648      2051.093    22682300.371    92880289.34047
      1598.258  
  23829014.101   125222352.22047       353.973    23829023.503    97575907.12145
       275.824  
  20850381.213   109569567.59149      2350.405    20850385.490    85378919.14148
      1831.483  
  22710826.372   121615388.968 7     -3261.128    22710836.259    94589767.078 7
     -2536.440  
  20993483.815   112025330.356 8      1890.292    20993494.187    87130900.147 7
      1470.230  
  20625798.693   109985882.671 8      2763.102    20625808.535    85544649.463 6
      2149.077  
  19853753.004   106129693.244 9     -1234.063    19853762.893    82545360.328 6
      -959.832  
  19327868.929   103354818.440 8      -669.195    19327874.423    80387108.304 6
      -520.488  
  21552943.742   115293652.225 8     -3955.875    21552956.439    89672867.840 5
     -3076.801  
 15  5 13  4 26  0.0000000  0 13G18G21G22G27G19G24G14R 8R 2R17R 1R24
                                R23
  20889896.749   109777140.19649     -1925.851    20889899.925    85540636.99047
     -1500.663  
  22946533.564   120584804.35148     -3059.722    22946538.860    93962187.24946
     -2384.203  
  20229859.397   106308647.59449        89.191    20229860.052    82837921.61048
        69.496  
  21326805.682   112073138.50849      -441.906    21326811.944    87329754.35748
      -344.348  
  22670635.825   119135049.98348      2034.714    22670639.396    92832540.03647
      1585.492  
  23827042.705   125211991.80947       337.480    23827051.773    97567834.12346
       262.973  
  20837010.968   109499306.78849      2333.980    20837015.250    85324170.55448
      1818.687  
  22729093.957   121713210.619 7     -3260.371    22729103.697    94665850.563 7
     -2535.847  
  20982892.620   111968813.518 8      1877.965    20982902.957    87086942.708 7
      1460.641  
  20610309.165   109903286.524 8      2743.746    20610319.125    85480408.091 6
      2134.022  
  19860709.654   106166880.428 9     -1244.785    19860719.487    82574283.691 6
      -968.167  
  19331700.832   103375309.912 8      -696.297    19331706.480    80403046.096 7
      -541.565  
  21575164.272   115412516.361 8     -3968.289    21575176.909    89765317.531 5
     -3086.453  
 15  5 13  4 26 30.0000000  0 13G18G21G22G27G19G24G14R 8R 2R17R 1R24
                                R23
  20900911.363   109835022.38149     -1932.824    20900914.573    85585739.97547
     -1506.102  
  22964023.361   120676713.76248     -3067.413    22964028.742    94033804.86146
     -2390.198  
  20229377.534   106306115.79149        79.601    20229378.281    82835948.80648
        62.026  
  21329386.335   112086699.93049      -462.179    21329392.547    87340321.68348
      -360.145  
  22659069.115   119074266.54148      2017.687    22659072.576    92785176.40247
      1572.222  
  23825165.347   125202126.31847       320.722    23825174.443    97560146.77246
       249.910  
  20823733.550   109429534.26849      2317.531    20823737.890    85269802.45348
      1805.866  
  22747356.764   121811007.682 7     -3259.366    22747366.387    94741914.899 7
     -2535.065  
  20972370.674   111912666.994 8      1865.145    20972381.157    87043273.331 8
      1450.672  
  20594928.671   109821271.070 8      2724.066    20594938.776    85416618.383 6
      2118.718  
  19867725.957   106204386.371 9     -1255.644    19867735.826    82603454.987 6
      -976.617  
  19335683.416   103396606.675 8      -723.194    19335689.039    80419610.223 7
      -562.487  
  21597454.027   115531750.173 8     -3980.629    21597466.818    89858054.756 5
     -3096.051  
 15  5 13  4 27  0.0000000  0 13G18G21G22G27G19G24G14R 8R 2R17R 1R24
                                R23
  20911964.944   109893109.40549     -1939.895    20911968.203    85631002.58847
     -1511.605  
  22981554.948   120768842.47148     -3074.500    22981560.267    94105593.40046
     -2395.718  
  20228949.002   106303864.27849        70.160    20228949.775    82834194.39848
        54.671  
  21332081.098   112100861.13049      -482.215    21332087.220    87351356.35848
      -375.753  
  22647596.980   119013980.68748      2001.000    22647600.678    92738200.49447
      1559.223  
  23823382.265   125192757.50347       303.801    23823391.517    97552846.45546
       236.729  
  20810549.666   109360252.51949      2300.969    20810553.852    85215816.77448
      1792.961  
  22765615.162   121908779.293 7     -3259.210    22765624.461    94817959.412 7
     -2534.945  
  20961918.283   111856891.283 8      1852.890    20961928.559    86999892.324 7
      1441.137  
  20579657.741   109739840.390 8      2704.387    20579668.088    85353283.492 6
      2103.410  
  19874801.559   106242209.676 9     -1266.324    19874811.521    82632873.127 6
      -984.922  
  19339816.570   103418708.819 8      -750.336    19339822.391    80436800.765 7
      -583.598  
  21619812.113   115651350.326 8     -3992.847    21619825.023    89951076.910 5
     -3105.554  
 15  5 13  4 27 30.0000000  0 13G18G21G22G27G19G24G14R 8R 2R17R 1R24
                                R23
  20923056.874   109951397.70349     -1945.991    20923060.028    85676422.03847
     -1516.359  
  22999127.716   120861187.17448     -3081.516    22999132.911    94177550.22145
     -2401.183  
  20228573.309   106301890.27849        61.249    20228574.095    82832656.23848
        47.722  
  21334889.428   112115619.00749      -501.780    21334895.708    87362855.98748
      -391.003  
  22636219.577   118954192.25448      1984.887    22636223.336    92691612.18147
      1546.663  
  23821693.884   125183884.15947       287.468    23821702.923    97545932.16645
       223.995  
  20797458.936   109291461.01949      2284.991    20797463.244    85162213.11048
      1780.512  
  22783867.761   122006521.509 7     -3257.316    22783876.859    94893981.068 7
     -2533.476  
  20951534.729   111801483.774 8      1841.015    20951545.242    86956797.734 8
      1431.905  
  20564496.838   109658996.053 8      2685.258    20564507.012    85290404.649 6
      2088.534  
  19881935.571   106280345.340 9     -1276.257    19881945.526    82662534.203 6
      -992.647  
  19344099.904   103441613.821 8      -776.722    19344105.789    80454615.745 7
      -604.121  
  21642237.482   115771310.871 8     -4004.604    21642250.429    90044379.347 5
     -3114.698  
 15  5 13  4 28  0.0000000  0 13G18G21G22G27G19G24G14R 8R 2R17R 1R24
                                R23
  20934187.066   110009886.97649     -1952.895    20934190.104    85721998.08747
     -1521.737  
  23016741.442   120953747.11548     -3088.937    23016746.501    94249674.74145
     -2406.968  
  20228250.399   106300193.68749        51.741    20228251.179    82831334.23248
        40.319  
  21337811.249   112130973.46649      -521.776    21337817.660    87374820.48748
      -406.577  
  22624937.325   118894903.90048      1967.957    22624940.926    92645413.53647
      1533.473  
  23820099.969   125175508.17347       270.848    23820109.086    97539405.48146
       211.050  
  20784462.136   109223162.44149      2268.406    20784466.326    85108993.52648
      1767.589  
  22802114.864   122104233.601 7     -3256.534    22802124.297    94969979.347 7
     -2532.858  
  20941220.307   111746444.572 8      1828.395    20941230.656    86913989.593 8
      1422.090  
  20549446.846   109578743.230 8      2665.190    20549456.873    85227985.880 6
      2072.929  
  19889127.746   106318791.978 8     -1286.608    19889137.687    82692437.163 6
     -1000.694  
  19348533.509   103465321.862 8      -803.527    19348539.264    80473055.320 7
      -624.968  
  21664729.893   115891628.943 8     -4016.445    21664742.942    90137959.899 5
     -3123.909  
 15  5 13  4 28 30.0000000  0 13G18G21G22G27G19G24G14R 8R 2R17R 1R24
                                R23
  20945355.816   110068578.90349     -1960.128    20945358.722    85767732.05647
     -1527.378  
  23034396.305   121046523.64248     -3096.554    23034401.395    94321968.01845
     -2412.905  
  20227980.778   106298776.72949        42.136    20227981.507    82830230.12448
        32.827  
  21340846.970   112146926.00749      -542.184    21340853.203    87387251.03048
      -422.484  
  22613751.198   118836120.24848      1950.616    22613754.537    92599608.17447
      1519.960  
  23818601.147   125167632.84047       253.656    23818610.624    97533268.90545
       197.652  
  20771559.840   109155360.88549      2251.370    20771564.045    85056161.25148
      1754.320  
  22820356.506   122201916.297 7     -3255.800    22820366.306    95045954.703 6
     -2532.292  
  20930975.321   111691775.773 8      1815.617    20930985.793    86871469.544 8
      1412.151  
  20534508.472   109499085.761 8      2644.815    20534518.391    85166030.141 6
      2057.078  
  19896378.183   106357549.937 9     -1297.472    19896388.243    82722582.253 6
     -1009.145  
  19353117.641   103489834.809 8      -830.843    19353123.327    80492120.927 7
      -646.214  
  21687288.657   116012303.369 8     -4028.988    21687301.910    90231817.594 5
     -3133.663  
 15  5 13  4 29  0.0000000  0 13G18G21G22G27G19G24G14R 8R 2R17R 1R24
                                R23
  20956562.171   110127468.35049     -1966.109    20956565.049    85813619.93547
     -1532.039  
  23052091.513   121139512.71148     -3103.031    23052096.732    94394426.93546
     -2417.949  
  20227763.739   106297635.77549        33.621    20227764.411    82829341.09048
        26.195  
  21343995.699   112163472.71949      -561.328    21344001.980    87400144.55848
      -437.402  
  22602660.745   118777840.18248      1934.358    22602664.024    92554195.21847
      1507.293  
  23817197.705   125160256.10947       237.895    23817206.707    97527520.81845
       185.367  
  20758751.883   109088054.99249      2235.421    20758756.007    85003715.19548
      1741.887  
  22838591.427   122299565.284 7     -3254.136    22838601.545    95121903.859 6
     -2531.000  
  20920798.979   111637474.049 8      1804.059    20920809.318    86829234.988 7
      1403.155  
  20519682.453   109420026.981 8      2625.550    20519692.316    85104540.074 6
      2042.097  
  19903685.826   106396613.291 9     -1306.953    19903695.876    82752964.871 7
     -1016.520  
  19357851.536   103515149.135 8      -856.949    19357857.252    80511809.829 7
      -666.519  
  21709912.866   116133326.726 8     -4039.520    21709926.334    90325946.660 5
     -3141.854  
 15  5 13  4 29 30.0000000  0 13G18G21G22G27G19G24G14R 8R 2R17R 1R24
                                R23
  20967806.688   110186558.34149     -1972.812    20967809.574    85859664.07447
     -1537.261  
  23069827.746   121232716.71348     -3110.366    23069833.130    94467053.30046
     -2423.672  
  20227599.696   106296773.59549        24.206    20227600.366    82828669.29348
        18.863  
  21347257.986   112180616.21749      -581.277    21347264.253    87413503.11548
      -452.948  
  22591667.099   118720069.37048      1917.331    22591670.809    92509179.09047
      1494.022  
  23815889.678   125153382.22347       220.964    23815898.641    97522164.57145
       172.180  
  20746039.354   109021250.29649      2218.504    20746043.481    84951659.68148
      1728.703  
  22856820.858   122397182.497 7     -3253.226    22856830.841    95197828.264 6
     -2530.297  
  20910692.149   111583542.348 8      1791.602    20910702.473    86787288.238 8
      1393.473  
  20504969.736   109341573.348 8      2605.108    20504979.680    85043520.646 6
      2026.195  
  19911050.985   106435983.973 9     -1317.293    19911060.960    82783586.509 7
     -1024.566  
  19362735.872   103541267.779 8      -883.828    19362741.506    80532124.314 7
      -687.425  
  21732602.426   116254699.540 8     -4051.253    21732615.735    90420347.535 5
     -3150.984  
 15  5 13  4 30  0.0000000  0 13G18G21G22G27G19G24G14R 8R 2R17R 1R24
                                R23
  20979088.528   110245844.90649     -1979.593    20979091.515    85905861.39247
     -1542.542  
  23087604.106   121326131.80348     -3117.507    23087609.465    94539844.17046
     -2429.233  
  20227488.103   106296187.35949        14.800    20227488.899    82828212.50948
        11.531  
  21350633.199   112198352.89149      -601.413    21350639.521    87427323.89848
      -468.632  
  22580770.233   118662806.92248      1900.066    22580774.075    92464559.07147
      1480.570  
  23814676.878   125147009.72747       204.003    23814685.722    97517199.05646
       158.965  
  20733421.898   108954945.73949      2201.594    20733426.007    84899993.89248
      1715.527  
  22875043.315   122494763.709 7     -3252.604    22875053.196    95273724.728 6
     -2529.808  
  20900654.178   111529977.621 8      1779.184    20900664.285    86745626.905 8
      1383.813  
  20490371.006   109263726.884 8      2584.305    20490381.017    84982973.477 6
      2010.016  
  19918472.523   106475656.628 9     -1327.628    19918482.567    82814443.025 7
     -1032.604  
  19367770.036   103568187.345 8      -910.815    19367775.618    80553061.733 7
      -708.417  
  21755355.997   116376414.836 8     -4063.035    21755369.235    90515014.788 5
     -3160.145  
 15  5 13  4 30 30.0000000  0 13G18G21G22G27G19G24G14R 8R 2R17R 1R24
                                R23
  20990407.244   110305325.47449     -1985.574    20990410.388    85952209.87747
     -1547.202  
  23105420.211   121419755.28948     -3123.847    23105425.446    94612797.41645
     -2434.172  
  20227428.446   106295874.29849         6.039    20227429.365    82827968.60548
         4.707  
  21354120.812   112216680.20349      -620.570    21354127.113    87441604.90948
      -483.566  
  22569970.413   118606053.38848      1883.590    22569974.014    92420335.62447
      1467.730  
  23813559.238   125141137.98947       187.750    23813568.074    97512623.72546
       146.301  
  20720899.715   108889141.35049      2185.395    20720903.725    84848717.83448
      1702.905  
  22893258.610   122592305.976 7     -3250.555    22893268.794    95349590.865 6
     -2528.215  
  20890684.389   111476777.733 8      1767.578    20890694.526    86704249.331 8
      1374.784  
  20475886.556   109186489.314 8      2564.613    20475896.392    84922899.898 6
      1994.699  
  19925949.776   106515627.209 9     -1337.055    19925959.756    82845531.257 6
     -1039.933  
  19372953.537   103595905.695 8      -936.960    19372959.249    80574620.426 7
      -728.749  
  21778172.596   116498467.632 8     -4073.938    21778185.857    90609944.539 5
     -3168.624  
 15  5 13  4 31  0.0000000  0 13G18G21G22G27G19G24G14R 8R 2R17R 1R24
                                R23
  21001763.335   110365002.35149     -1992.483    21001766.541    85998711.33447
     -1552.589  
  23123276.277   121513588.57948     -3131.249    23123281.509    94685914.13645
     -2439.940  
  20227421.357   106295837.16749        -3.477    20227422.225    82827939.70948
        -2.710  
  21357721.206   112235600.21449      -640.641    21357727.492    87456347.76448
      -499.198  
  22559268.461   118549813.81548      1865.952    22559271.891    92376512.65947
      1453.988  
  23812538.017   125135770.72247       170.605    23812546.645    97508441.54846
       132.937  
  20708473.597   108823842.06449      2168.151    20708477.591    84797835.36148
      1689.468  
  22911467.372   122689811.003 7     -3249.742    22911477.136    95425428.028 5
     -2527.581  
  20880783.524   111423945.414 8      1755.164    20880793.749    86663157.647 8
      1365.133  
  20461517.259   109109866.537 8      2543.749    20461527.366    84863304.485 6
      1978.473  
  19933483.121   106555897.098 9     -1347.280    19933493.056    82876852.279 6
     -1047.890  
  19378286.811   103624425.173 8      -964.128    19378292.483    80596802.215 7
      -749.882  
  21801052.267   116620857.253 8     -4085.304    21801065.574    90705136.272 5
     -3177.469  
 15  5 13  4 31 30.0000000  0 13G18G21G22G27G19G24G14R 8R 2R17R 1R24
                                R23
  21013156.121   110424872.12849     -1998.800    21013159.415    86045363.09047
     -1557.511  
  23141171.850   121607629.01148     -3137.933    23141176.895    94759192.28145
     -2445.151  
  20227466.347   106296073.62349       -12.328    20227467.184    82828123.99748
        -9.605  
  21361433.830   112255110.03149      -660.020    21361439.962    87471550.20948
      -514.301  
  22548664.131   118494088.08748      1848.944    22548667.575    92333090.06847
      1440.738  
  23811612.610   125130907.51647       154.176    23811621.142    97504652.11546
       120.136  
  20696143.609   108759047.66549      2151.425    20696147.557    84747346.30948
      1676.438  
  22929668.258   122787275.329 7     -3248.077    22929677.343    95501233.594 6
     -2526.288  
  20870951.114   111371478.287 8      1743.000    20870961.407    86622349.966 8
      1355.667  
  20447263.629   109033860.455 8      2523.315    20447273.656    84804188.711 6
      1962.578  
  19941071.626   106596461.913 9     -1356.905    19941081.505    82908402.687 6
     -1055.370  
  19383769.319   103653743.014 8      -990.348    19383775.123    80619604.959 7
      -770.272  
  21823993.801   116743577.678 8     -4096.007    21824006.878    90800585.303 5
     -3185.793  
 15  5 13  4 32  0.0000000  0 13G18G21G22G27G19G24G14R 8R 2R17R 1R24
                                R23
  21024585.898   110484936.10449     -2005.351    21024589.315    86092166.18347
     -1562.612  
  23159106.982   121701877.82948     -3145.117    23159111.909    94832632.82145
     -2450.749  
  20227563.709   106296585.51549       -21.750    20227564.495    82828522.90748
       -16.949  
  21365258.915   112275211.04849      -679.866    21365265.101    87487213.32848
      -529.770  
  22538158.505   118438880.65248      1831.496    22538161.801    92290071.33747
      1427.140  
  23810783.255   125126550.91247       136.636    23810791.825    97501257.48246
       106.473  
  20683910.396   108694762.32149      2134.313    20683914.424    84697253.92248
      1663.102  
  22947861.740   122884699.942 7     -3247.437    22947870.578    95577008.241 6
     -2525.788  
  20861187.423   111319378.144 8      1730.586    20861197.670    86581827.736 8
      1346.011  
  20433127.062   108958478.140 8      2502.237    20433136.967    84745558.118 6
      1946.184  
  19948715.316   106637321.786 9     -1366.945    19948725.156    82940182.576 6
     -1063.183  
  19389401.638   103683861.209 8     -1017.133    19389407.335    80643030.204 7
      -791.101  
  21846996.867   116866628.038 8     -4107.363    21847010.353    90896290.914 5
     -3194.629  
 15  5 13  4 32 30.0000000  0 13G18G21G22G27G19G24G14R 8R 2R17R 1R24
                                R23
  21036052.575   110545193.87149     -2011.609    21036055.994    86139120.28647
     -1567.488  
  23177081.462   121796334.39148     -3151.659    23177086.572    94906235.21846
     -2455.848  
  20227713.452   106297372.60749       -30.534    20227714.168    82829136.26048
       -23.792  
  21369196.257   112295902.61149      -699.284    21369202.643    87503336.62348
      -544.902  
  22527751.881   118384193.91448      1814.465    22527755.264    92247458.37147
      1413.867  
  23810050.952   125122702.57247       120.055    23810059.360    97498258.84646
        93.550  
  20671774.533   108630988.27649      2117.559    20671778.495    84647559.94648
      1650.047  
  22966047.630   122982083.808 7     -3245.145    22966056.435    95652751.161 6
     -2524.007  
  20851492.663   111267645.420 8      1718.546    20851502.889    86541591.265 8
      1336.647  
  20419108.186   108883723.869 8      2481.511    20419117.923    84687415.986 6
      1930.066  
  19956413.972   106678474.950 9     -1376.410    19956423.674    82972190.582 6
     -1070.542  
  19395183.441   103714779.015 8     -1043.589    19395189.167    80667077.361 7
      -811.684  
  21870060.891   116990004.766 8     -4117.663    21870074.429    90992250.374 5
     -3202.636  
 15  5 13  4 33  0.0000000  0 13G18G21G22G27G19G24G14R 8R 2R17R 1R24
                                R23
  21047555.470   110605641.92849     -2017.977    21047558.898    86186222.65947
     -1572.453  
  23195094.810   121890994.89048     -3158.632    23195099.900    94979996.56446
     -2461.277  
  20227915.050   106298432.22849       -39.781    20227915.685    82829961.97248
       -30.999  
  21373245.563   112317181.16949      -718.977    21373251.824    87519917.31148
      -560.246  
  22517444.097   118330027.23348      1796.913    22517447.690    92205250.64047
      1400.190  
  23809414.813   125119360.86147       103.020    23809423.422    97495655.03746
        80.277  
  20659735.723   108567724.15249      2100.332    20659739.592    84598263.30748
      1636.621  
  22984225.069   123079423.260 7     -3243.628    22984234.055    95728459.587 6
     -2522.831  
  20841866.193   111216276.736 8      1706.242    20841876.368    86501637.941 8
      1327.078  
  20405207.464   108809599.148 8      2460.382    20405217.153    84629763.514 6
      1913.633  
  19964166.497   106719916.575 9     -1386.094    19964176.029    83004422.956 6
     -1078.078  
  19401114.191   103746493.214 8     -1070.515    19401119.847    80691743.940 7
      -832.629  
  21893184.903   117113701.450 8     -4128.511    21893198.459    91088458.717 5
     -3211.073  
 15  5 13  4 33 30.0000000  0 13G18G21G22G27G19G24G14R 8R 2R17R 1R24
                                R23
  21059094.114   110666278.13249     -2024.515    21059097.575    86233471.64547
     -1577.546  
  23213146.445   121985857.03048     -3165.460    23213151.961    95053914.98845
     -2466.602  
  20228168.089   106299762.23949       -48.972    20228168.703    82830998.38248
       -38.159  
  21377406.045   112339044.46249      -738.690    21377412.270    87536953.63848
      -575.608  
  22507235.514   118276381.36548      1779.379    22507239.000    92163448.73147
      1386.526  
  23808875.158   125116525.51747        86.069    23808884.020    97493445.77646
        67.066  
  20647794.203   108504971.26249      2083.027    20647798.137    84549365.04448
      1623.137  
  23002393.913   123176715.596 7     -3242.477    23002403.326    95804131.367 5
     -2521.925  
  20832307.675   111165270.368 8      1694.031    20832317.870    86461966.409 8
      1317.581  
  20391424.913   108736104.848 8      2439.116    20391434.597    84572601.361 5
      1897.089  
  19971972.356   106761643.432 9     -1395.816    19971981.971    83036877.189 6
     -1085.636  
  19407193.421   103779001.586 8     -1097.144    19407199.124    80717028.206 7
      -853.339  
  21916367.797   117237713.644 8     -4139.066    21916381.346    91184912.438 5
     -3219.285  
 15  5 13  4 34  0.0000000  0 13G18G21G22G27G19G24G14R 8R 2R17R 1R24
                                R23
  21070669.137   110727105.37849     -2030.456    21070672.568    86280869.49447
     -1582.179  
  23231237.047   122080923.47548     -3172.078    23231242.759    95127992.65445
     -2471.754  
  20228473.349   106301366.57949       -57.688    20228474.006    82832248.54548
       -44.952  
  21381678.160   112361495.48449      -757.816    21381684.538    87554447.92448
      -590.512  
  22497127.358   118223262.51748      1762.160    22497130.739    92122057.49647
      1373.112  
  23808432.723   125114201.13247        69.422    23808441.776    97491634.67346
        54.097  
  20635950.941   108442734.80949      2066.229    20635954.802    84500869.19248
      1610.051  
  23020554.437   123273963.754 7     -3240.461    23020563.550    95879768.776 5
     -2520.358  
  20822817.588   111114630.197 8      1682.199    20822827.551    86422579.685 8
      1308.379  
  20377762.170   108663249.293 8      2418.309    20377771.806    84515935.991 6
      1880.905  
  19979831.964   106803657.664 9     -1404.996    19979841.700    83069554.927 6
     -1092.776  
  19413421.769   103812307.236 8     -1122.948    19413427.504    80742932.582 7
      -873.406  
  21939609.828   117362041.184 8     -4149.047    21939623.387    91281611.432 5
     -3227.043  
 15  5 13  4 34 30.0000000  0 13G18G21G22G27G19G24G14R 8R 2R17R 1R24
                                R23
  21082279.702   110788119.18849     -2036.676    21082283.124    86328412.71747
     -1587.019  
  23249365.461   122176189.24348     -3178.573    23249371.218    95202225.63245
     -2476.816  
  20228829.960   106303240.58549       -66.801    20228830.610    82833708.84148
       -52.050  
  21386061.436   112384529.22449      -777.441    21386067.628    87572396.29248
      -605.800  
  22487119.059   118170668.24248      1744.417    22487122.412    92081075.00847
      1359.285  
  23808087.227   125112384.78747        52.269    23808096.064    97490219.41646
        40.729  
  20624205.516   108381012.49749      2048.952    20624209.345    84452773.97948
      1596.585  
  23038705.620   123371162.360 7     -3239.102    23038714.508    95955367.656 6
     -2519.304  
  20813395.269   111064351.708 8      1669.987    20813405.461    86383474.296 8
      1298.878  
  20364219.285   108591032.341 8      2396.594    20364228.777    84459767.326 6
      1864.016  
  19987744.101   106845952.790 9     -1414.457    19987753.992    83102451.141 6
     -1100.132  
  19419798.339   103846405.623 8     -1149.647    19419804.134    80769453.519 7
      -894.175  
  21962909.323   117486676.801 8     -4159.523    21962922.984    91378550.019 5
     -3235.195  
 15  5 13  4 35  0.0000000  0 13G18G21G22G27G19G24G14R 8R 2R17R 1R24
                                R23
  21093926.066   110849321.43049     -2043.199    21093929.599    86376102.77447
     -1592.104  
  23267532.361   122271656.69748     -3185.519    23267538.074    95276615.74646
     -2482.226  
  20229238.452   106305387.19149       -76.011    20229239.134    82835381.55348
       -59.230  
  21390556.037   112408147.85649      -796.948    21390562.344    87590800.40048
      -621.004  
  22477211.530   118118604.07348      1726.663    22477214.903    92040505.60447
      1345.452  
  23807838.961   125111080.54647        34.965    23807847.334    97489203.22146
        27.245  
  20612558.775   108319809.02149      2031.507    20612562.673    84405083.05648
      1582.991  
  23056847.972   123468313.737 7     -3237.577    23056857.154    96030929.765 6
     -2518.120  
  20804041.354   111014437.892 8      1657.703    20804051.534    86344652.525 8
      1289.323  
  20350797.351   108519460.847 8      2375.042    20350806.765    84404100.699 6
      1847.254  
  19995709.094   106888530.523 9     -1423.883    19995719.182    83135567.163 6
     -1107.464  
  19426323.436   103881298.563 8     -1176.347    19426329.346    80796592.457 7
      -914.941  
  21986266.157   117611620.176 7     -4169.675    21986279.985    91475727.973 5
     -3243.094  
 15  5 13  4 35 30.0000000  0 13G18G21G22G27G19G24G14R 8R 2R17R 1R24
                                R23
  21105607.955   110910710.20049     -2049.195    21105611.543    86423938.16347
     -1596.780  
  23285737.298   122367323.47348     -3192.077    23285742.937    95351161.18145
     -2487.336  
  20229698.598   106307805.08749       -84.969    20229699.295    82837265.64948
       -66.215  
  21395161.386   112432349.22249      -816.288    21395167.638    87609658.59348
      -636.073  
  22467405.015   118067070.89848      1708.937    22467408.305    92000349.94247
      1331.641  
  23807688.189   125110288.38747        18.003    23807696.722    97488586.02045
        14.026  
  20601011.092   108259125.85149      2014.121    20601014.869    84357797.57348
      1569.444  
  23074980.955   123565415.412 7     -3235.684    23074990.601    96106453.241 6
     -2516.647  
  20794755.604   110964887.196 8      1645.809    20794765.734    86306113.195 8
      1280.074  
  20337497.067   108448538.334 8      2353.464    20337506.494    84348938.828 6
      1830.472  
  20003726.217   106931386.985 9     -1432.878    20003736.540    83168899.986 6
     -1114.461  
  19432996.914   103916984.458 8     -1202.477    19433002.813    80824348.130 7
      -935.262  
  22009679.561   117736866.196 7     -4179.714    22009693.656    91573141.330 5
     -3250.902  
 15  5 13  4 36  0.0000000  0 13G18G21G22G27G19G24G14R 8R 2R17R 1R24
                                R23
  21117324.565   110972281.05949     -2055.203    21117328.072    86471915.45447
     -1601.456  
  23303979.314   122463185.00848     -3198.327    23303984.990    95425858.39945
     -2492.210  
  20230209.474   106310489.85349       -93.789    20230210.233    82839357.70148
       -73.081  
  21399876.796   112457128.52349      -835.487    21399883.080    87628967.13348
      -651.035  
  22457699.031   118016066.72948      1691.551    22457702.548    91960606.52247
      1318.089  
  23807634.167   125110005.03547         1.109    23807642.676    97488365.30445
         0.863  
  20589561.906   108198960.38049      1997.050    20589565.686    84310915.48648
      1556.145  
  23093103.913   123662462.656 7     -3233.733    23093113.023    96181934.458 6
     -2515.124  
  20785537.100   110915695.400 8      1634.112    20785547.172    86267852.992 8
      1270.977  
  20324318.315   108378263.944 8      2331.680    20324328.005    84294281.045 6
      1813.526  
  20011794.557   106974517.009 9     -1442.038    20011804.852    83202445.567 6
     -1121.589  
  19439817.708   103953458.436 8     -1228.617    19439823.498    80852716.757 7
      -955.594  
  22033148.260   117862407.594 8     -4189.405    22033162.509    91670784.431 5
     -3258.437  
 15  5 13  4 36 30.0000000  0 13G18G21G22G27G19G24G14R 8R 2R17R 1R24
                                R23
  21129077.020   111034040.31549     -2061.695    21129080.386    86520039.52647
     -1606.520  
  23322259.554   122559247.60048     -3205.242    23322265.340    95500712.25146
     -2497.594  
  20230772.479   106313448.27849      -102.961    20230773.195    82841662.99748
       -80.229  
  21404703.258   112482491.68849      -855.030    21404709.402    87648730.61348
      -666.261  
  22448095.480   117965600.54448      1673.387    22448099.085    91921282.28747
      1303.937  
  23807678.523   125110238.93647       -16.484    23807686.844    97488547.66446
       -12.840  
  20578212.880   108139321.40649      1979.343    20578216.670    84264443.66648
      1542.347  
  23111217.694   123759461.412 7     -3232.566    23111227.152    96257377.883 6
     -2514.223  
  20776386.955   110866869.256 8      1621.547    20776397.024    86229877.200 8
      1261.203  
  20311263.249   108308649.192 8      2309.551    20311272.875    84240136.326 6
      1796.316  
  20019915.118   107017925.282 9     -1451.469    20019925.090    83236207.572 6
     -1128.922  
  19446787.071   103990726.691 8     -1255.305    19446792.995    80881703.157 7
      -976.352  
  22056672.963   117988248.084 8     -4199.578    22056687.543    91768660.124 5
     -3266.351  
 15  5 13  4 37  0.0000000  0 12G18G21G22G27G19G24G14R 2R17R 1R24R23
  21140863.596   111095979.18749     -2067.640    21140866.885    86568303.58147
     -1611.147  
  23340576.386   122655502.42447     -3211.933    23340581.906    95575715.93645
     -2502.809  
  20231386.072   106316672.98049      -112.065    20231386.828    82844175.78348
       -87.324  
  21409639.278   112508430.52549      -874.320    21409645.362    87668942.67148
      -681.293  
  22438593.592   117915667.37748      1655.461    22438597.042    91882373.38647
      1289.968  
  23807819.927   125110983.14747       -33.219    23807828.818    97489127.61946
       -25.887  
  20566963.046   108080203.53849      1961.780    20566966.793    84218377.89248
      1528.659  
  20767304.132   110818401.162 8      1609.590    20767314.081    86192179.894 8
      1251.901  
  20298331.108   108239689.967 8      2287.608    20298340.591    84186501.451 6
      1779.249  
  20028085.902   107061602.866 9     -1460.468    20028095.866    83270179.039 6
     -1135.922  
  19453903.434   104028780.863 8     -1281.613    19453909.312    80911300.827 7
      -996.813  
  22080251.749   118114376.842 8     -4209.312    22080265.898    91866760.037 5
     -3273.921  
 15  5 13  4 37 30.0000000  0 12G18G21G22G27G19G24G14R 2R17R 1R24R23
  21152684.923   111158100.74749     -2073.854    21152688.147    86616709.98547
     -1615.991  
  23358929.946   122751951.71648     -3218.210    23358935.937    95650871.09245
     -2507.699  
  20232050.837   106320166.59249      -121.008    20232051.503    82846898.11248
       -94.292  
  21414685.166   112534946.97249      -893.585    21414691.521    87689604.81448
      -696.305  
  22429194.087   117866272.42648      1637.448    22429197.408    91843883.89447
      1275.933  
  23808059.748   125112241.85347       -50.316    23808068.347    97490108.48046
       -39.207  
  20555813.279   108021611.58549      1944.238    20555816.986    84172721.92048
      1514.991  
  20758288.749   110770293.699 8      1597.366    20758298.713    86154763.084 8
      1242.398  
  20285523.396   108171394.215 8      2265.538    20285533.220    84133382.611 6
      1762.085  
  20036307.226   107105550.773 9     -1469.609    20036317.097    83304360.752 6
     -1143.034  
  19461167.190   104067623.116 8     -1308.004    19461173.050    80941511.450 7
     -1017.339  
  22103884.150   118240793.004 8     -4218.776    22103897.869    91965083.496 5
     -3281.276  
 15  5 13  4 38  0.0000000  0 12G18G21G22G27G19G24G14R 2R17R 1R24R23
  21164540.611   111220402.68349     -2080.085    21164543.799    86665256.92847
     -1620.851  
  23377320.335   122848593.01848     -3224.859    23377326.212    95726175.91245
     -2512.887  
  20232766.373   106323927.20049      -130.137    20232766.994    82849828.48948
      -101.406  
  21419840.437   112562038.41449      -912.957    21419846.852    87710715.00248
      -711.397  
  22419896.859   117817415.94548      1619.175    22419900.460    91805813.97747
      1261.695  
  23808396.969   125114014.21047       -68.223    23808405.398    97491489.61946
       -53.159  
  20544763.691   107963545.73349      1926.515    20544767.413    84127475.89248
      1501.180  
  20749340.602   110722545.013 8      1585.371    20749350.502    86117625.313 8
      1233.066  
  20272840.158   108103761.871 8      2243.054    20272849.847    84080779.765 6
      1744.598  
  20044578.521   107149765.711 9     -1478.480    20044588.373    83338750.158 6
     -1149.933  
  19468577.663   104107250.592 8     -1334.218    19468583.621    80972332.800 7
     -1037.729  
  22127569.329   118367491.738 8     -4228.073    22127583.110    92063626.711 5
     -3288.515  
 15  5 13  4 38 30.0000000  0 12G18G21G22G27G19G24G14R 2R17R 1R24R23
  21176430.891   111282886.36649     -2085.565    21176433.972    86713945.51347
     -1625.116  
  23395747.362   122945427.69948     -3230.688    23395753.236    95801631.40045
     -2517.425  
  20233533.161   106327957.01149      -138.491    20233533.833    82852968.62848
      -107.913  
  21425105.370   112589705.94949      -931.558    21425111.672    87732274.09248
      -725.895  
  22410702.868   117769101.69548      1601.792    22410706.519    91768166.57547
      1248.148  
  23808832.611   125116303.52247       -84.792    23808841.088    97493273.53946
       -66.074  
  20533814.866   107906009.67849      1909.523    20533818.528    84082642.69348
      1487.940  
  20740460.101   110675157.054 8      1573.858    20740469.984    86080768.114 8
      1224.113  
  20260282.719   108036800.095 8      2221.277    20260292.093    84028698.453 6
      1727.660  
  20052899.780   107194247.484 8     -1486.710    20052909.611    83373347.102 6
     -1156.331  
  19476135.382   104147664.955 8     -1359.762    19476141.335    81003766.170 7
     -1057.598  
  22151307.112   118494471.466 8     -4236.824    22151320.963    92162388.482 5
     -3295.319  
 15  5 13  4 39  0.0000000  0 12G18G21G22G27G19G24G14R 2R17R 1R24R23
  21188354.966   111345547.93249     -2091.594    21188358.074    86762772.68847
     -1629.816  
  23414210.446   123042451.26948     -3237.128    23414216.264    95877234.07345
     -2522.444  
  20234350.518   106332252.56049      -147.562    20234351.233    82856315.84148
      -114.983  
  21430479.263   112617945.32549      -950.788    21430485.461    87754278.76748
      -740.878  
  22401611.947   117721328.68048      1583.469    22401615.410    91730940.90947
      1233.870  
  23809366.189   125119107.55747      -101.969    23809374.640    97495458.56245
       -79.457  
  20522966.653   107849002.40249      1891.457    20522970.266    84038221.53148
      1473.862  
  20731646.524   110628126.429 8      1561.839    20731656.442    86044188.829 8
      1214.765  
  20247851.047   107970509.242 8      2198.546    20247860.657    83977138.974 6
      1709.979  
  20061270.111   107238991.828 8     -1495.699    20061279.921    83408148.259 6
     -1163.323  
  19483839.396   104188861.464 8     -1386.163    19483845.351    81035807.875 7
     -1078.132  
  22175096.179   118621725.748 8     -4246.160    22175110.019    92261363.815 5
     -3302.578  
 15  5 13  4 39 30.0000000  0 12G18G21G22G27G19G24G14R 2R17R 1R24R23
  21200312.680   111408385.98649     -2097.495    21200315.827    86811737.40447
     -1634.418  
  23432709.259   123139662.71848     -3243.281    23432714.980    95952983.15845
     -2527.238  
  20235218.372   106336813.13349      -156.344    20235218.991    82859869.56848
      -121.828  
  21435961.512   112646754.89049      -969.636    21435967.753    87776727.74448
      -755.565  
  22392624.326   117674098.62848      1565.343    22392627.665    91694138.31647
      1219.749  
  23809997.650   125122426.65547      -119.108    23810006.000    97498044.90746
       -92.815  
  20512219.171   107792524.50049      1873.750    20512222.823    83994212.86248
      1460.066  
  20722899.754   110581451.987 8      1550.000    20722909.490    86007886.575 8
      1205.554  
  20235545.873   107904892.777 8      2176.147    20235555.481    83926104.026 6
      1692.558  
  20069689.045   107283995.730 9     -1504.456    20069698.898    83443151.290 6
     -1170.133  
  19491689.396   104230838.570 8     -1412.211    19491695.269    81068456.713 7
     -1098.391  
  22198935.839   118749250.604 8     -4255.300    22198949.856    92360549.556 5
     -3309.688  
 15  5 13  4 40  0.0000000  0 12G18G21G22G27G19G24G14R 2R17R 1R24R23
  21212304.699   111471404.53049     -2103.386    21212307.840    86860842.75547
     -1639.008  
  23451244.386   123237064.96748     -3249.819    23451250.230    96028880.90745
     -2532.331  
  20236137.319   106341642.38849      -165.272    20236137.839    82863632.66148
      -128.785  
  21441552.911   112676137.76949      -988.898    21441559.311    87799623.45748
      -770.574  
  22383741.229   117627417.67348      1547.074    22383744.577    91657763.58647
      1205.512  
  23810728.163   125126265.68747      -136.737    23810736.862    97501036.38546
      -106.550  
  20501573.583   107736582.24449      1856.000    20501577.284    83950621.59748
      1446.234  
  20714220.437   110535138.116 8      1538.030    20714230.182    85971864.758 8
      1196.246  
  20223368.701   107839958.408 8      2153.219    20223377.929    83875599.581 6
      1674.727  
  20078156.993   107329261.890 8     -1512.953    20078167.042    83478358.302 6
     -1176.742  
  19499685.890   104273599.571 8     -1438.245    19499691.959    81101715.247 7
     -1118.640  
  22222826.086   118877046.595 8     -4264.160    22222840.467    92459946.170 5
     -3316.582  
 15  5 13  4 40 30.0000000  0 12G18G21G22G27G19G24G14R 2R17R 1R24R23
  21224329.818   111534597.08349     -2109.254    21224333.057    86910083.69647
     -1643.578  
  23469814.614   123334651.42348     -3255.930    23469820.462    96104922.21845
     -2537.094  
  20237106.388   106346734.78749      -174.145    20237106.901    82867600.80948
      -135.694  
  21447252.119   112706087.09149     -1007.612    21447258.628    87822960.54948
      -785.156  
  22374961.918   117581281.79848      1528.938    22374965.195    91621813.58047
      1191.379  
  23811556.660   125130619.49747      -153.641    23811565.214    97504429.00346
      -119.719  
  20491029.232   107681171.46449      1838.246    20491032.810    83907444.45848
      1432.398  
  20705607.495   110489178.369 8      1526.269    20705617.295    85936118.358 8
      1187.097  
  20211319.092   107775705.292 8      2130.483    20211328.352    83825625.003 6
      1657.043  
  20086672.539   107374782.641 8     -1521.559    20086682.578    83513763.321 6
     -1183.438  
  19507827.517   104317137.230 8     -1464.176    19507833.617    81135577.843 7
     -1138.809  
  22246765.331   119005104.384 8     -4272.840    22246779.306    92559546.440 5
     -3323.327  
 15  5 13  4 41  0.0000000  0 12G18G21G22G27G19G24G14R 2R17R 1R24R23
  21236388.693   111597966.77549     -2114.862    21236391.981    86959462.66047
     -1647.949  
  23488420.377   123432424.99247     -3261.878    23488426.358    96181109.31445
     -2541.726  
  20238126.167   106352093.73249      -182.734    20238126.677    82871776.65048
      -142.391  
  21453059.551   112736605.44449     -1026.281    21453065.894    87846741.05348
      -799.702  
  22366287.400   117535696.86748      1510.621    22366290.699    91586292.90447
      1177.105  
  23812484.143   125135492.92047      -170.659    23812492.713    97508226.51946
      -132.980  
  20480586.992   107626297.62249      1820.530    20480590.536    83864685.71748
      1418.597  
  20697061.686   110443576.260 8      1514.590    20697071.467    85900650.125 8
      1178.016  
  20199398.407   107712139.431 8      2107.805    20199407.900    83776184.962 6
      1639.402  
  20095236.122   107420560.025 8     -1529.668    20095246.122    83549367.945 6
     -1189.746  
  19516115.153   104361454.410 8     -1489.804    19516121.223    81170046.738 7
     -1158.741  
  22270753.599   119133424.569 7     -4281.327    22270767.779    92659350.780 5
     -3329.933  
 15  5 13  4 41 30.0000000  0 12G18G21G22G27G19G24G14R 2R17R 1R24R23
  21248480.648   111661510.36649     -2121.296    21248484.000    87008977.14447
     -1652.961  
  23507061.024   123530382.75447     -3268.559    23507067.014    96257439.93545
     -2546.938  
  20239196.155   106357716.83649      -192.125    20239196.730    82876158.33948
      -149.707  
  21458974.697   112767689.46749     -1045.944    21458981.082    87870962.32048
      -815.026  
  22357717.605   117490662.66648      1491.640    22357720.892    91551201.35247
      1162.316  
  23813510.075   125140884.38747      -188.608    23813518.546    97512427.69545
      -146.972  
  20470246.842   107571960.30149      1801.776    20470250.418    83822345.03748
      1403.979  
  20688582.366   110398329.269 8      1501.925    20688592.078    85865458.076 8
      1168.164  
  20187607.011   107649262.437 8      2083.905    20187616.355    83727280.683 6
      1620.816  
  20103847.021   107466590.157 8     -1538.844    20103857.052    83585169.146 6
     -1196.883  
  19524547.727   104406547.177 8     -1516.253    19524553.835    81205118.858 7
     -1179.313  
  22294789.839   119262001.432 8     -4290.683    22294804.141    92759354.741 5
     -3337.211  
 15  5 13  4 42  0.0000000  0 12G18G21G22G27G19G24G14R 2R17R 1R24R23
  21260605.280   111725225.51949     -2126.383    21260608.550    87058625.30647
     -1656.925  
  23525736.279   123628521.69347     -3274.108    23525742.325    96333911.74245
     -2551.257  
  20240316.048   106363602.10349      -200.323    20240316.630    82880744.29748
      -156.098  
  21464996.918   112799336.13849     -1063.914    21465003.235    87895622.03048
      -829.026  
  22349252.718   117446179.04048      1473.999    22349255.876    91516538.81047
      1148.570  
  23814634.481   125146792.96147      -205.269    23814642.859    97517031.85246
      -159.949  
  20460008.880   107518159.32049      1784.733    20460012.331    83780422.27948
      1390.702  
  20680169.049   110353435.198 8      1491.007    20680178.853    85830540.537 8
      1159.671  
  20175945.285   107587076.873 8      2061.597    20175954.358    83678914.195 6
      1603.464  
  20112504.535   107512869.152 8     -1546.417    20112514.514    83621163.904 6
     -1202.773  
  19533125.033   104452413.039 8     -1541.445    19533130.870    81240792.279 7
     -1198.906  
  22318873.024   119390829.482 8     -4298.202    22318887.323    92859554.093 5
     -3343.055  
 15  5 13  4 42 30.0000000  0 12G18G21G22G27G19G24G14R 2R17R 1R24R23
  21272763.060   111789115.02249     -2132.581    21272766.389    87108409.31347
     -1661.758  
  23544446.508   123726844.08247     -3280.379    23544452.731    96410526.50845
     -2556.147  
  20241486.408   106369752.75849      -209.476    20241487.067    82885537.04248
      -163.227  
  21471126.532   112831547.44549     -1083.136    21471132.968    87920721.69948
      -844.007  
  22340893.605   117402251.26148      1454.870    22340896.697    91482309.40147
      1133.664  
  23815858.095   125153222.81447      -223.000    23815866.192    97522042.16346
      -173.766  
  20449873.738   107464899.04149      1766.315    20449877.160    83738920.85448
      1376.352  
  20671822.525   110308896.888 8      1478.668    20671832.323    85795899.682 8
      1150.074  
  20164414.235   107525589.065 8      2037.914    20164423.571    83631090.397 6
      1585.043  
  20121208.977   107559398.759 8     -1555.180    20121218.837    83657353.588 6
     -1209.589  
  19541847.025   104499053.295 8     -1567.784    19541852.990    81277067.997 7
     -1219.391  
  22343003.170   119519908.489 8     -4306.852    22343017.675    92959948.605 5
     -3349.785  
 15  5 13  4 43  0.0000000  0 12G18G21G22G27G19G24G14R 2R17R 1R24R23
  21284953.734   111853177.56749     -2138.405    21284957.157    87158328.15847
     -1666.292  
  23563191.223   123825348.25647     -3286.293    23563197.657    96487282.90645
     -2560.753  
  20242707.050   106376167.68649      -218.461    20242707.794    82890535.71648
      -170.229  
  21477363.223   112864321.41349     -1102.022    21477369.688    87946259.80748
      -858.723  
  22332640.228   117358880.16148      1436.093    22332643.540    91448513.75847
      1119.035  
  23817180.581   125160173.59047      -240.258    23817188.821    97527458.39146
      -187.214  
  20439841.805   107412180.91049      1747.979    20439845.206    83697841.86848
      1362.063  
  20663542.530   110264713.343 8      1466.754    20663552.160    85761534.744 8
      1140.809  
  20153014.836   107464802.745 8      2014.527    20153024.267    83583812.200 6
      1566.855  
  20129959.745   107606176.408 9     -1563.488    20129969.492    83693736.187 6
     -1216.050  
  19550713.576   104546466.137 8     -1593.444    19550719.392    81313944.617 7
     -1239.351  
  22367179.446   119649234.110 8     -4315.102    22367193.966    93060534.940 5
     -3356.199  
 15  5 13  4 43 30.0000000  0 12G18G21G22G27G19G24G14R 2R17R 1R24R23
  21297176.750   111917409.89049     -2143.714    21297180.180    87208379.30147
     -1670.430  
  23581969.991   123924030.75348     -3292.183    23581975.949    96564178.25145
     -2565.339  
  20243977.529   106382844.09849      -226.718    20243978.189    82895738.14548
      -176.664  
  21483706.244   112897654.15449     -1120.167    21483712.716    87972233.32048
      -872.862  
  22324492.775   117316065.41148      1418.117    22324495.972    91415151.64047
      1105.022  
  23818601.638   125167643.57347      -257.483    23818610.043    97533279.14946
      -200.636  
  20429912.671   107360003.58249      1730.413    20429916.104    83657184.29548
      1348.375  
  20655328.456   110220881.407 8      1455.500    20655338.132    85727443.292 8
      1132.054  
  20141747.037   107404717.954 8      1991.184    20141756.297    83537079.640 6
      1548.699  
  20138756.067   107653197.573 9     -1571.262    20138765.759    83730308.177 6
     -1222.098  
  19559723.688   104594647.409 8     -1618.612    19559729.501    81351418.903 7
     -1258.925  
  22391400.666   119778800.150 7     -4322.581    22391415.379    93161308.260 5
     -3362.015  
 15  5 13  4 44  0.0000000  0 12G18G21G22G27G19G24G14R 2R17R 1R24R23
  21309432.046   111981812.15449     -2149.633    21309435.526    87258562.86147
     -1675.042  
  23600782.601   124022891.15648     -3298.229    23600788.408    96641212.25145
     -2570.055  
  20245297.937   106389782.63749      -235.758    20245298.447    82901144.81848
      -183.706  
  21490155.568   112931545.01749     -1139.065    21490161.874    87998641.73248
      -887.589  
  22316451.614   117273809.17248      1399.179    22316454.982    91382224.72747
      1090.265  
  23820122.153   125175633.93847      -275.101    23820130.317    97539505.45246
      -214.367  
  20420086.898   107308369.13749      1712.046    20420090.286    83616949.74148
      1334.062  
  20647180.247   110177401.345 8      1443.406    20647190.021    85693625.511 8
      1122.648  
  20130611.344   107345338.205 8      1967.479    20130620.605    83490895.448 6
      1530.261  
  20147597.658   107700461.197 8     -1579.574    20147607.413    83767068.746 6
     -1228.562  
  19568877.409   104643596.186 8     -1644.495    19568883.335    81389490.144 7
     -1279.054  
  22415666.350   119908604.133 7     -4330.753    22415681.043    93262266.628 5
     -3368.375  
 15  5 13  4 44 30.0000000  0 12G18G21G22G27G19G24G14R 2R17R 1R24R23
  21321719.031   112046380.53949     -2155.292    21321722.573    87308875.85947
     -1679.453  
  23619628.293   124121925.30747     -3304.413    23619634.160    96718381.60945
     -2574.875  
  20246667.579   106396979.80849      -244.516    20246667.935    82906753.01948
      -190.531  
  21496710.343   112965989.56149     -1157.832    21496716.432    88025481.58548
      -902.211  
  22308516.589   117232110.04948      1380.358    22308519.871    91349731.93048
      1075.601  
  23821741.391   125184142.33947      -292.699    23821749.623    97546135.39546
      -228.082  
  20410364.140   107257276.17149      1693.703    20410367.514    83577137.11748
      1319.770  
  20639097.418   110134269.914 8      1431.401    20639107.113    85660078.881 8
      1113.313  
  20119608.064   107286664.511 8      1943.691    20119617.312    83445260.406 6
      1511.762  
  20156483.674   107747962.260 8     -1587.651    20156493.450    83804014.000 6
     -1234.839  
  19578173.818   104693308.142 8     -1670.144    19578179.613    81428154.956 7
     -1299.062  
  22439975.250   120038639.136 8     -4338.406    22439989.667    93363404.702 5
     -3374.323  
 15  5 13  4 45  0.0000000  0 12G18G21G22G27G19G24G14R 2R17R 1R24R23
  21334038.622   112111120.11849     -2161.019    21334042.116    87359322.26447
     -1683.913  
  23638507.916   124221137.95848     -3310.152    23638513.959    96795690.07645
     -2579.347  
  20248087.323   106404440.95849      -253.284    20248087.716    82912566.90848
      -197.362  
  21503370.963   113000991.85649     -1176.054    21503377.323    88052756.03848
      -916.516  
  22300688.786   117190975.16848      1361.624    22300692.285    91317678.80348
      1061.008  
  23823460.192   125193174.60547      -309.941    23823468.448    97553173.53946
      -241.516  
  20400745.834   107206731.75549      1675.504    20400749.111    83537751.92848
      1305.586  
  20631080.719   110091491.586 8      1419.831    20631090.432    85626806.899 8
      1104.312  
  20108739.071   107228706.081 8      1919.866    20108748.386    83400181.676 6
      1493.230  
  20165414.962   107795704.897 9     -1595.679    20165424.839    83841147.125 6
     -1241.090  
  19587613.596   104743786.938 8     -1695.766    19587619.580    81467416.199 7
     -1318.933  
  22464327.691   120168907.119 7     -4346.164    22464342.269    93464723.969 5
     -3380.363  
 15  5 13  4 45 30.0000000  0 12G18G21G22G27G19G24G14R 2R17R 1R24R23
  21346389.827   112176025.85449     -2166.315    21346393.202    87409898.14947
     -1688.043  
  23657420.501   124320523.76748     -3315.628    23657426.657    96873133.47445
     -2583.613  
  20249556.504   106412161.80649      -261.780    20249556.923    82918583.16148
      -203.983  
  21510136.754   113036546.38749     -1194.339    21510143.173    88080460.81348
      -930.660  
  22292968.099   117150402.43648      1342.875    22292971.507    91286063.69748
      1046.390  
  23825277.905   125202727.28247      -327.046    23825286.602    97560617.20146
      -254.840  
  20391231.274   107156733.02849      1657.409    20391234.687    83498791.95348
      1291.487  
  20623129.557   110049062.442 8      1408.323    20623139.096    85593806.494 8
      1095.362  
  20098003.935   107171462.253 8      1896.148    20098013.360    83355658.760 6
      1474.781  
  20174390.232   107843682.889 8     -1603.293    20174400.208    83878463.321 6
     -1247.007  
  19597195.701   104795026.947 8     -1720.793    19597201.770    81507269.497 7
     -1338.398  
  22488722.181   120299400.628 7     -4353.738    22488737.076    93566218.647 5
     -3386.253  
 15  5 13  4 46  0.0000000  0 12G18G21G22G27G19G24G14R 2R17R 1R24R23
  21358773.137   112241100.33549     -2171.945    21358776.458    87460605.51347
     -1692.430  
  23676366.419   124420084.86048     -3321.625    23676372.609    96950713.44845
     -2588.285  
  20251075.584   106420144.91049      -270.461    20251076.082    82924803.77048
      -210.750  
  21517007.940   113072654.71249     -1212.827    21517014.464    88108597.10148
      -945.066  
  22285355.230   117110396.53948      1324.031    22285358.486    91254890.30447
      1031.710  
  23827195.248   125212803.80147      -344.504    23827204.070    97568469.03746
      -268.445  
  20381821.439   107107284.23449      1639.039    20381824.805    83460260.49348
      1277.171  
  20615244.156   110006984.556 8      1396.852    20615253.800    85561079.306 8
      1086.440  
  20087404.071   107114939.276 8      1871.992    20087413.506    83311696.494 6
      1455.991  
  20183409.829   107891897.586 9     -1611.077    20183419.730    83915963.623 6
     -1253.062  
  19606920.546   104847029.592 8     -1746.074    19606926.524    81547715.955 7
     -1358.062  
  22513158.713   120430119.007 7     -4360.938    22513173.878    93667888.203 5
     -3391.851  
 15  5 13  4 46 30.0000000  0 13G18G21G22G27G 4G19G24G14R 2R17R 1R24
                                R23
  21371187.152   112306336.23949     -2176.999    21371190.411    87511438.66947
     -1696.367  
  23695344.373   124519813.65048     -3326.891    23695350.425    97028424.08945
     -2592.387  
  20252643.315   106428383.54549      -278.687    20252643.894    82931223.47948
      -217.164  
  21523983.049   113109308.65849     -1230.624    21523989.464    88137158.55848
      -958.934  
  24529252.797   128902095.37257      3185.546    24529262.607   100443208.29156
      2482.249  
  22277849.253   117070952.58348      1305.488    22277852.633    91224154.77948
      1017.262  
  23829211.166   125223398.27347      -361.800    23829220.378    97576724.48246
      -281.925  
  20372515.266   107058380.24549      1621.266    20372518.627    83422153.56348
      1263.323  
  20607423.341   109965251.036 8      1385.629    20607432.870    85528619.948 8
      1077.711  
  20076938.729   107059133.451 8      1848.281    20076948.130    83268291.998 6
      1437.550  
  20192472.069   107940340.298 9     -1618.363    20192481.798    83953641.258 6
     -1258.729  
  19616786.232   104899786.103 8     -1770.742    19616792.332    81588748.762 7
     -1377.246  
  22537635.408   120561051.975 7     -4367.769    22537651.032    93769724.649 5
     -3397.168  
 15  5 13  4 47  0.0000000  0 13G18G21G22G27G 4G19G24G14R 2R17R 1R24
                                R23
  21383631.862   112371733.22649     -2182.645    21383634.911    87562397.34647
     -1700.765  
  23714354.086   124619709.42848     -3332.738    23714360.181    97106264.83245
     -2596.940  
  20254259.782   106436878.16949      -287.539    20254260.405    82937842.66448
      -224.058  
  21531061.849   113146507.47349     -1248.987    21531068.206    88166144.57548
      -973.242  
  24511065.232   128806523.35445      3185.660    24511075.096   100368736.84945
      2482.340  
  22270450.561   117032072.32048      1286.565    22270453.981    91193858.50347
      1002.520  
  23831325.814   125234511.57047      -379.121    23831335.209    97585384.20245
      -295.422  
  20363313.171   107010023.25149      1602.722    20363316.514    83384472.85748
      1248.875  
  20599667.017   109923861.960 8      1373.902    20599676.490    85496428.498 8
      1068.590  
  20066608.729   107004049.762 8      1824.184    20066618.308    83225449.178 6
      1418.809  
  20201576.769   107989010.354 9     -1626.093    20201586.496    83991495.725 6
     -1264.742  
  19626792.851   104953295.772 8     -1796.296    19626798.845    81630367.340 7
     -1397.124  
  22562151.675   120692196.625 7     -4374.992    22562167.357    93871725.757 5
     -3402.785  
 15  5 13  4 47 30.0000000  0 13G18G21G22G27G 4G19G24G14R 2R17R 1R24
                                R23
  21396109.295   112437302.76649     -2188.362    21396112.397    87613490.47347
     -1705.223  
  23733397.316   124719782.74948     -3338.737    23733403.345    97184243.90545
     -2601.621  
  20255927.201   106445640.32949      -296.395    20255927.826    82944670.31648
      -230.960  
  21538246.164   113184261.36849     -1267.633    21538252.631    88195563.12548
      -987.769  
  24492879.290   128710957.52046      3185.617    24492889.637   100294270.24645
      2482.309  
  22263161.726   116993769.29548      1267.211    22263165.114    91164012.03047
       987.281  
  23833541.673   125246155.92647      -396.977    23833550.799    97594457.70546
      -309.335  
  20354217.761   106962226.39349      1583.938    20354221.039    83347228.62448
      1234.238  
  20591977.308   109882828.606 9      1361.914    20591986.892    85464513.721 8
      1059.265  
  20056416.670   106949701.479 8      1799.476    20056426.125    83183178.331 6
      1399.593  
  20210725.881   108037917.475 9     -1634.145    20210735.691    84029534.572 6
     -1271.003  
  19636942.285   105007568.729 8     -1821.535    19636948.173    81672579.598 7
     -1416.753  
  22586709.264   120823561.513 7     -4382.440    22586724.919    93973898.120 5
     -3408.578  
 15  5 13  4 48  0.0000000  0 13G18G21G22G27G 4G19G24G14R 2R17R 1R24
                                R23
  21408616.967   112503031.12049     -2193.371    21408620.111    87664707.34347
     -1709.124  
  23752471.929   124820019.95448     -3343.854    23752477.894    97262350.71145
     -2605.605  
  20257643.033   106454656.89749      -304.613    20257643.656    82951696.19748
      -237.362  
  21545533.371   113222555.86649     -1285.378    21545539.860    88225402.92348
     -1001.597  
  24474692.683   128615387.25648      3185.913    24474702.733   100219800.00944
      2482.534  
  22255980.625   116956032.26249      1248.812    22255983.935    91134606.58447
       973.102  
  23835856.408   125258319.03847      -413.964    23835865.195    97603935.45646
      -322.573  
  20345226.579   106914977.69649      1565.976    20345229.765    83310411.51748
      1220.242  
  20584351.770   109842137.650 8      1350.800    20584361.377    85432865.253 8
      1050.621  
  20046360.836   106896079.325 8      1775.347    20046370.197    83141472.253 6
      1380.824  
  20219916.604   108087047.124 9     -1641.117    20219926.598    84067746.496 6
     -1276.430  
  19647231.494   105062589.787 8     -1846.258    19647237.520    81715373.708 7
     -1435.979  
  22611304.787   120955129.790 7     -4388.862    22611320.423    94076228.721 5
     -3413.570  
 15  5 13  4 48 30.0000000  0 13G18G21G22G27G 4G19G24G14R 2R17R 1R24
                                R23
  21421155.290   112568920.92249     -2198.999    21421158.492    87716050.01447
     -1713.511  
  23771578.063   124920422.83347     -3349.729    23771584.021    97340586.60945
     -2610.183  
  20259407.747   106463930.46849      -313.473    20259408.287    82958922.34748
      -244.269  
  21552923.825   113261392.37149     -1303.320    21552930.338    88255665.06848
     -1015.578  
  24456506.069   128519816.82847      3185.628    24456516.071   100145329.69945
      2482.312  
  22248908.021   116918865.81748      1229.402    22248911.351    91105645.75248
       957.972  
  23838270.374   125271004.10547      -431.703    23838279.209    97613819.94046
      -336.394  
  20336340.628   106868281.64449      1547.417    20336343.817    83274025.04448
      1205.781  
  20576790.621   109801791.219 8      1339.137    20576800.276    85401484.751 8
      1041.551  
  20036442.557   106843191.454 8      1750.715    20036451.938    83100337.275 6
      1361.668  
  20229149.230   108136400.399 8     -1648.820    20229159.212    84106132.360 6
     -1282.414  
  19657661.077   105118360.393 8     -1871.319    19657666.886    81758750.798 7
     -1455.476  
  22635938.171   121086900.721 7     -4395.835    22635953.725    94178716.929 5
     -3418.996  
 15  5 13  4 49  0.0000000  0 13G18G21G22G27G 4G19G24G14R 2R17R 1R24
                                R23
  21433724.731   112634973.90649     -2204.362    21433727.901    87767519.85847
     -1717.690  
  23790715.992   125020992.73547     -3354.890    23790722.096    97418952.64045
     -2614.207  
  20261221.815   106473463.27349      -321.933    20261222.265    82966350.50548
      -250.858  
  21560417.483   113300771.55849     -1321.538    21560424.053    88286350.08148
     -1029.730  
  24438320.332   128424250.38747      3185.469    24438330.394   100070862.54645
      2482.183  
  22241944.601   116882273.57949      1210.179    22241947.923    91077132.36547
       942.995  
  23840784.181   125284213.75347      -449.007    23840793.056    97624113.16446
      -349.874  
  20327560.374   106822141.44149      1528.906    20327563.591    83238071.70748
      1191.354  
  20569294.569   109761791.132 8      1327.883    20569304.351    85370373.630 8
      1032.796  
  20026662.826   106791041.263 8      1726.113    20026672.124    83059776.054 6
      1342.530  
  20238423.719   108185977.827 8     -1656.211    20238433.640    84144692.541 6
     -1288.167  
  19668230.690   105174880.551 8     -1896.370    19668236.482    81802710.874 7
     -1474.961  
  22660609.178   121218873.006 7     -4402.362    22660624.665    94281361.762 5
     -3424.070  
 15  5 13  4 49 30.0000000  0 13G18G21G22G27G 4G19G24G14R 2R17R 1R24
                                R23
  21446324.473   112701185.83649     -2209.742    21446327.622    87819113.55047
     -1721.883  
  23809884.656   125121725.02747     -3360.555    23809890.813    97497445.20545
     -2618.616  
  20263084.515   106483251.61049      -330.621    20263084.907    82973977.77548
      -257.629  
  21568013.437   113340688.37849     -1339.516    21568019.942    88317454.03648
     -1043.780  
  24420135.137   128328686.29248      3185.535    24420145.229    99996397.21144
      2482.234  
  22235090.337   116846253.64749      1190.941    22235093.449    91049064.94447
       927.996  
  23843397.111   125297945.22947      -466.390    23843406.030    97634812.97946
      -363.426  
  20318885.551   106776555.06449      1510.120    20318888.631    83202549.91648
      1176.718  
  20561862.763   109722133.499 8      1316.171    20561872.506    85339528.868 8
      1023.688  
  20017021.158   106739628.096 8      1701.230    20017030.493    83019788.066 6
      1323.179  
  20247739.159   108235774.283 8     -1663.512    20247749.133    84183423.081 6
     -1293.848  
  19678939.463   105232145.013 8     -1921.347    19678945.237    81847249.857 7
     -1494.386  
  22685316.727   121351040.106 7     -4408.730    22685332.377    94384158.087 5
     -3429.023  
 15  5 13  4 50  0.0000000  0 13G18G21G22G27G 4G19G24G14R 2R17R 1R24
                                R23
  21458954.358   112767556.27249     -2214.905    21458957.556    87870830.73747
     -1725.906  
  23829084.257   125222618.83147     -3365.777    23829090.526    97576063.63245
     -2622.687  
  20264995.770   106493295.29249      -339.007    20264996.177    82981804.01348
      -264.159  
  21575711.319   113381141.33649     -1357.222    21575717.902    88348975.74248
     -1057.578  
  24401950.634   128233126.67947      3185.171    24401960.433    99921935.29445
      2481.926  
  22228345.072   116810807.29148      1172.034    22228348.190    91021444.45247
       913.272  
  23846109.529   125312198.26947      -483.594    23846118.269    97645919.24046
      -376.831  
  20310316.371   106731524.06249      1491.766    20310319.504    83167460.89548
      1162.413  
  20554495.034   109682817.976 8      1304.909    20554504.716    85308950.180 8
      1014.929  
  20007518.842   106688957.387 8      1676.793    20007528.123    82980377.533 6
      1304.168  
  20257095.365   108285788.190 8     -1670.671    20257105.229    84222322.745 6
     -1299.414  
  19689787.093   105290152.073 8     -1945.694    19689792.919    81892366.403 7
     -1513.324  
  22710059.895   121483398.151 8     -4415.066    22710075.339    94487102.949 5
     -3433.952  
 15  5 13  4 50 30.0000000  0 13G18G21G22G27G 4G19G24G14R 2R17R 1R24
                                R23
  21471614.938   112834087.91049     -2220.266    21471618.216    87922673.55547
     -1730.077  
  23848315.028   125323676.36747     -3370.878    23848321.122    97654809.64545
     -2626.668  
  20266956.226   106503597.55949      -347.535    20266956.664    82989831.75348
      -270.808  
  21583511.743   113422132.08849     -1375.090    21583518.297    88380916.52348
     -1071.504  
  24383767.668   128137576.51547      3185.004    24383777.737    99847480.87945
      2481.827  
  22221709.926   116775939.83349      1152.796    22221713.148    90994275.06447
       898.284  
  23848921.888   125326976.93847      -501.300    23848930.569    97657435.07446
      -390.629  
  20301853.720   106687052.81349      1473.270    20301856.899    83132808.03948
      1148.003  
  20547191.911   109643847.300 8      1293.449    20547201.577    85278639.721 8
      1006.016  
  19998156.569   106639033.540 8      1651.894    19998165.788    82941547.912 6
      1284.809  
  20266492.640   108336021.327 8     -1677.961    20266502.382    84261392.924 6
     -1305.086  
  19700773.671   105348902.898 8     -1970.733    19700779.758    81938061.440 7
     -1532.796  
  22734838.919   121615947.158 8     -4421.308    22734854.106    94590196.345 4
     -3438.809  
 15  5 13  4 51  0.0000000  0 13G18G21G22G27G 4G19G24G14R 2R17R 1R24
                                R23
  21484305.038   112900774.49549     -2225.410    21484308.321    87974637.09947
     -1734.090  
  23867575.627   125424890.84347     -3376.315    23867582.103    97733677.92445
     -2630.902  
  20268964.708   106514152.32649      -355.969    20268965.192    82998056.24748
      -277.382  
  21591413.104   113463653.18049     -1392.719    21591419.716    88413270.54648
     -1085.238  
  24365586.317   128042031.99548      3184.780    24365596.374    99773030.83345
      2481.652  
  22215184.144   116741646.68149      1133.668    22215187.322    90967553.17948
       883.378  
  23851833.411   125342276.22147      -518.409    23851842.262    97669356.56546
      -403.961  
  20293496.709   106643136.61349      1454.675    20293499.801    83098587.68148
      1133.511  
  20539952.286   109605214.899 8      1282.128    20539961.888    85248592.359 8
       997.210  
  19988933.883   106589853.848 8      1626.862    19988942.938    82903297.047 6
      1265.335  
  20275929.382   108386465.963 9     -1684.882    20275939.024    84300627.599 6
     -1310.468  
  19711897.953   105408389.559 8     -1995.136    19711904.066    81984328.793 7
     -1551.777  
  22759651.672   121748677.626 7     -4427.112    22759666.971    94693430.858 5
     -3443.319  
 15  5 13  4 51 30.0000000  0 13G18G21G22G27G 4G19G24G14R 2R17R 1R24
                                R23
  21497024.955   112967617.60849     -2230.667    21497028.198    88026722.62247
     -1738.188  
  23886866.272   125526263.30547     -3381.671    23886872.789    97812669.30845
     -2635.078  
  20271021.600   106524961.61849      -364.483    20271022.148    83006479.07448
      -284.016  
  21599415.323   113505705.02949     -1410.483    21599421.975    88446038.14648
     -1099.081  
  24347406.923   127946497.29148      3184.562    24347416.471    99698588.38944
      2481.479  
  22208768.370   116707931.56249      1114.241    22208771.583    90941281.70847
       868.242  
  23854844.214   125358097.81647      -536.163    23854853.119    97681685.08147
      -417.793  
  20285245.977   106599778.97249      1435.960    20285249.054    83064802.56248
      1118.930  
  20532776.184   109566922.500 8      1270.914    20532785.774    85218809.445 8
       988.487  
  19979851.998   106541425.189 8      1601.867    19979861.079    82865630.341 6
      1245.897  
  20285405.693   108437122.371 8     -1691.871    20285415.359    84340026.990 6
     -1315.901  
  19723159.926   105468612.110 8     -2019.699    19723166.043    82031168.505 7
     -1570.882  
  22784498.168   121881588.123 7     -4433.453    22784513.873    94796805.391 4
     -3448.249  
 15  5 13  4 52  0.0000000  0 13G18G21G22G27G 4G19G24G14R 2R17R 1R24
                                R23
  21509774.797   113034618.41449     -2235.926    21509778.113    88078931.01547
     -1742.284  
  23906187.014   125627794.36647     -3387.078    23906193.340    97891784.30045
     -2639.288  
  20273127.269   106536027.01449      -373.097    20273127.869    83015101.46048
      -290.730  
  21607518.378   113548287.65049     -1428.257    21607525.147    88479219.34248
     -1112.925  
  24329229.663   127850975.58348      3183.809    24329237.858    99624155.84842
      2480.890  
  22202463.015   116674797.35349      1094.789    22202466.233    90915462.88648
       853.081  
  23857954.709   125374443.95347      -553.753    23857963.564    97694422.33446
      -431.496  
  20277102.032   106556982.65849      1417.156    20277105.088    83031454.85148
      1104.277  
  20525664.117   109528971.119 8      1259.335    20525673.618    85189291.765 8
       979.484  
  19970911.493   106493750.271 8      1576.503    19970920.570    82828549.877 6
      1226.168  
  20294921.741   108487991.036 9     -1699.226    20294931.582    84379591.474 6
     -1321.625  
  19734559.482   105529570.157 8     -2044.250    19734565.589    82078580.263 7
     -1589.977  
  22809377.867   122014676.643 7     -4439.308    22809393.895    94900318.408 4
     -3452.805  
 15  5 13  4 52 30.0000000  0 13G18G21G22G27G 4G19G24G14R 2R17R 1R24
                                R23
  21522554.114   113101774.05849     -2241.132    21522557.460    88131260.05547
     -1746.340  
  23925537.451   125729480.81647     -3392.288    23925543.835    97971020.33945
     -2643.347  
  20275281.322   106547346.39149      -381.535    20275281.907    83023921.76348
      -297.301  
  21615721.942   113591397.13949     -1445.590    21615728.547    88512811.08148
     -1126.438  
  24311054.682   127755466.59948      3183.309    24311063.657    99549733.53545
      2480.507  
  22196268.218   116642243.34949      1075.406    22196271.276    90890096.16648
       837.979  
  23861164.633   125391312.71647      -571.023    23861173.225    97707566.82946
      -444.952  
  20269064.703   106514746.49449      1398.594    20269067.797    82998543.61448
      1089.812  
  20518615.356   109491358.047 8      1248.145    20518624.875    85160037.205 8
       970.776  
  19962112.450   106446830.191 8      1551.410    19962121.592    82792056.504 6
      1206.652  
  20304476.766   108539067.999 8     -1706.027    20304486.666    84419317.965 6
     -1326.914  
  19746095.836   105591259.574 8     -2068.319    19746101.793    82126560.869 7
     -1608.699  
  22834289.817   122147937.870 7     -4444.866    22834306.028    95003965.685 4
     -3457.128  
 15  5 13  4 53  0.0000000  0 13G18G21G22G27G 4G19G24G14R 2R17R 1R24
                                R23
  21535363.582   113169088.01649     -2246.242    21535366.836    88183712.46647
     -1750.320  
  23944917.715   125831325.38547     -3397.016    23944924.447    98050379.61445
     -2647.031  
  20277484.334   106558922.79649      -390.038    20277484.811    83032942.34848
      -303.925  
  21624026.131   113635035.60249     -1463.315    21624032.759    88546815.00248
     -1140.249  
  24292883.362   127659976.23148      3182.808    24292892.579    99475325.66544
      2480.116  
  22190184.845   116610274.63349      1056.004    22190187.774    90865185.52447
       822.859  
  23864474.534   125408707.73947      -588.409    23864483.623    97721121.38546
      -458.503  
  20261134.970   106473075.65049      1379.769    20261137.983    82966072.88548
      1075.145  
  20511630.691   109454086.721 8      1236.875    20511640.182    85131048.449 8
       962.015  
  19953456.717   106400673.963 8      1526.003    19953465.779    82756157.243 6
      1186.902  
  20314071.244   108590355.608 8     -1712.922    20314081.149    84459208.295 6
     -1332.276  
  19757769.153   105653681.762 8     -2092.777    19757775.059    82175111.404 7
     -1627.719  
  22859234.107   122281371.879 7     -4450.441    22859249.994    95107747.437 4
     -3461.465  
 15  5 13  4 53 30.0000000  0 14G18G21G22G27G 4G19G24G14R11R 2R17R 1
                                R24R23
  21548201.390   113236551.30949     -2251.496    21548204.686    88236281.22046
     -1754.417  
  23964326.408   125933318.56847     -3402.210    23964333.538    98129854.69045
     -2651.082  
  20279734.497   106570747.63849      -398.738    20279734.914    83042156.52048
      -310.710  
  21632429.001   113679192.95249     -1480.815    21632435.772    88581223.24948
     -1153.887  
  24274714.384   127564498.26648      3181.917    24274723.547    99400927.42043
      2479.421  
  22184211.420   116578884.04349      1036.160    22184214.368    90840725.36147
       807.397  
  23867883.482   125426621.38047      -606.288    23867892.430    97735080.06846
      -472.437  
  20253311.397   106431962.58949      1360.797    20253314.340    82934036.78148
      1060.359  
  23188210.636   123910775.12216      2837.780    23188225.054    96375099.87115
      2207.159  
  20504708.352   109417148.044 8      1225.437    20504717.805    85102318.424 8
       953.117  
  19944942.715   106355273.345 8      1500.358    19944951.721    82720845.684 6
      1166.823  
  20323703.141   108641843.459 8     -1720.035    20323713.074    84499254.359 6
     -1337.808  
  19769577.585   105716826.225 8     -2117.430    19769583.476    82224223.707 7
     -1646.894  
  22884208.305   122414966.808 7     -4456.422    22884224.105    95211654.294 4
     -3466.116  
 15  5 13  4 54  0.0000000  0 14G18G21G22G27G 4G19G24G14R11R 2R17R 1
                                R24R23
  21561068.394   113304167.46449     -2256.684    21561071.575    88288969.10547
     -1758.456  
  23983764.208   126035463.55347     -3407.663    23983771.051    98209448.02745
     -2655.332  
  20282032.767   106582825.28249      -407.086    20282033.148    83051567.68348
      -317.214  
  21640931.116   113723871.46449     -1498.254    21640938.008    88616037.60948
     -1167.472  
  24256549.056   127469038.47948      3181.516    24256557.576    99326543.24644
      2479.097  
  22178349.026   116548077.36249      1016.812    22178352.081    90816720.18247
       792.319  
  23871391.673   125445057.36247      -623.668    23871400.888    97749445.77247
      -485.977  
  20245595.019   106391412.62749      1342.015    20245597.819    82902439.44948
      1045.726  
  23172312.868   123825814.832 7      2825.891    23172326.080    96309019.887 5
      2197.918  
  20497849.003   109380545.465 8      1214.082    20497858.619    85073849.816 8
       944.284  
  19936571.991   106310637.315 8      1474.887    19936581.001    82686128.802 6
      1147.132  
  20333373.061   108693534.475 8     -1726.597    20333383.065    84539458.442 6
     -1342.914  
  19781521.325   105780694.647 8     -2141.223    19781527.215    82273899.082 7
     -1665.398  
  22909212.792   122548723.268 7     -4461.535    22909228.827    95315686.795 5
     -3470.094  
 15  5 13  4 54 30.0000000  0 14G18G21G22G27G 4G19G24G14R11R 2R17R 1
                                R24R23
  21573964.311   113371935.71349     -2261.688    21573967.398    88341775.50147
     -1762.359  
  24003230.549   126137758.70747     -3412.405    24003237.237    98289158.39845
     -2659.026  
  20284379.021   106595154.96449      -415.340    20284379.387    83061175.23748
      -323.645  
  21649531.872   113769068.96049     -1515.414    21649538.954    88651256.36048
     -1180.848  
  24238387.030   127373598.32447      3180.723    24238395.618    99252174.43844
      2478.483  
  22172597.888   116517855.42649       997.496    22172601.045    90793170.65247
       777.266  
  23874999.548   125464016.24747      -640.698    23875008.373    97764218.94846
      -499.246  
  20237985.837   106351426.57549      1323.308    20237988.740    82871281.53948
      1031.148  
  23156480.175   123741210.128 7      2814.054    23156492.236    96243216.407 5
      2188.715  
  20491052.502   109344278.128 8      1203.265    20491061.987    85045641.927 8
       935.875  
  19928344.939   106266767.188 8      1449.304    19928353.984    82652007.639 6
      1127.238  
  20343080.546   108745426.139 8     -1733.238    20343090.526    84579818.590 6
     -1348.078  
  19793600.054   105845284.726 8     -2165.039    19793606.015    82324135.753 7
     -1683.921  
  22934246.768   122682637.378 7     -4466.644    22934262.979    95419841.929 4
     -3474.069  
 15  5 13  4 55  0.0000000  0 14G18G21G22G27G 4G19G24G14R11R 2R17R 1
                                R24R23
  21586889.529   113439857.97749     -2266.613    21586892.604    88394701.90447
     -1766.195  
  24022725.684   126240205.55347     -3417.495    24022732.216    98368987.01345
     -2662.987  
  20286773.671   106607739.08949      -423.777    20286774.161    83070981.05948
      -330.215  
  21658231.613   113814786.12549     -1532.593    21658238.644    88686880.04248
     -1194.233  
  24220229.656   127278182.43247      3180.246    24220238.535    99177824.56144
      2478.116  
  22166958.761   116488221.92749       977.977    22166961.979    90770079.65048
       762.059  
  23878707.120   125483500.14147      -658.296    23878716.078    97779401.19146
      -512.961  
  20230484.690   106312007.74849      1304.343    20230487.551    82840565.61348
      1016.371  
  23140715.327   123656968.279 7      2801.730    23140728.359    96177695.227 5
      2179.133  
  20484319.142   109308347.907 8      1191.945    20484328.722    85017696.253 8
       927.069  
  19920262.455   106223668.118 8      1423.788    19920271.603    82618486.191 6
      1107.390  
  20352825.750   108797519.651 8     -1739.960    20352835.672    84620335.736 6
     -1353.309  
  19805813.659   105910596.327 8     -2189.336    19805819.616    82374933.614 6
     -1702.820  
  22959310.230   122816708.063 7     -4471.691    22959326.762    95524118.843 4
     -3477.988  
 15  5 13  4 55 30.0000000  0 14G18G21G22G27G 4G19G24G14R11R 2R17R 1
                                R24R23
  21599843.298   113507930.23949     -2271.629    21599846.292    88447745.18547
     -1770.104  
  24042248.459   126342799.39647     -3422.198    24042255.593    98448930.10645
     -2666.655  
  20289216.098   106620574.16249      -432.059    20289216.657    83080982.42148
      -336.668  
  21667029.304   113861017.43149     -1549.703    21667036.189    88722904.36048
     -1207.566  
  24202076.732   127182788.86148      3179.276    24202085.778    99103492.11945
      2477.366  
  22161431.106   116459174.27749       958.444    22161434.379    90747445.14647
       746.839  
  23882514.174   125503505.53147      -675.667    23882522.980    97794989.81846
      -526.499  
  20223090.833   106273153.02049      1285.629    20223093.662    82810289.25048
      1001.789  
  23125018.576   123573090.414 7      2789.836    23125031.398    96112457.133 5
      2169.874  
  20477648.113   109272750.522 8      1180.988    20477657.732    84990009.446 8
       918.547  
  19912324.521   106181340.037 8      1398.086    19912333.562    82585564.386 6
      1087.398  
  20362607.824   108849810.035 8     -1746.214    20362617.679    84661006.008 6
     -1358.171  
  19818161.099   105976623.578 8     -2212.534    19818167.147    82426288.066 7
     -1720.863  
  22984401.388   122950928.026 6     -4476.063    22984418.042    95628511.820 5
     -3481.398  
 15  5 13  4 56  0.0000000  0 14G18G21G22G27G 4G19G24G14R11R 2R17R 1
                                R24R23
  21612825.069   113576149.62549     -2276.543    21612828.001    88500903.11247
     -1773.934  
  24061798.977   126445537.09247     -3427.198    24061806.065    98528985.33345
     -2670.551  
  20291705.777   106633657.67249      -440.214    20291706.401    83091177.38248
      -343.023  
  21675924.082   113907759.14549     -1566.718    21675930.943    88759326.39048
     -1220.824  
  24183928.280   127087418.03547      3178.414    24183937.392    99029177.35544
      2476.694  
  22156014.844   116430711.78449       938.922    22156018.039    90725266.60647
       731.628  
  23886419.861   125524030.77647      -692.832    23886428.738    97810983.52546
      -539.866  
  20215804.324   106234862.27849      1266.858    20215807.134    82780452.35348
       987.163  
  23109390.303   123489579.190 7      2777.468    23109402.878    96047504.179 5
      2160.258  
  20471039.064   109237483.369 8      1169.956    20471048.651    84962579.496 8
       909.965  
  19904531.116   106139781.963 8      1372.230    19904539.984    82553241.484 6
      1067.289  
  20372425.927   108902293.328 8     -1752.516    20372435.819    84701826.325 6
     -1363.069  
  19830641.386   106043361.870 7     -2236.625    19830647.489    82478195.554 7
     -1739.602  
  23009519.483   123085291.833 7     -4481.218    23009536.347    95733016.738 5
     -3485.402  
 15  5 13  4 56 30.0000000  0 15G18G21G22G27G 4G19G24G32G14R11R 2R17
                                R 1R24R23
  21625835.680   113644520.63049     -2281.426    21625838.645    88554179.17846
     -1777.738  
  24081377.512   126548422.27147     -3432.050    24081384.641    98609155.45145
     -2674.331  
  20294243.553   106646994.11849      -448.624    20294244.130    83101569.42848
      -349.578  
  21684916.493   113955014.02449     -1583.608    21684923.139    88796148.30648
     -1233.984  
  24165784.593   126992076.16247      3177.901    24165794.592    98954885.24645
      2476.289  
  22150711.247   116402840.35049       919.339    22150714.189    90703548.63547
       716.366  
  23890425.362   125545080.54347      -710.214    23890434.285    97827385.91446
      -553.417  
  24562681.083   129077754.42058      2479.437    24562692.073   100580107.11555
      1932.035  
  20208626.063   106197140.51149      1248.063    20208628.956    82751058.82148
       972.515  
  23093832.339   123406443.805 7      2765.145    23093844.916    95982843.575 5
      2150.676  
  20464492.608   109202550.599 8      1158.858    20464501.968    84935409.642 8
       901.335  
  19896883.785   106099003.818 8      1346.379    19896892.817    82521525.192 6
      1047.184  
  20382280.659   108954972.867 8     -1759.207    20382290.746    84742799.276 6
     -1368.277  
  19843255.378   106110814.087 8     -2260.276    19843261.609    82530658.317 7
     -1757.996  
  23034664.927   123219800.659 7     -4485.512    23034681.771    95837634.420 5
     -3488.742  
 15  5 13  4 57  0.0000000  0 15G18G21G22G27G 4G19G24G32G14R11R 2R17
                                R 1R24R23
  21638874.173   113713038.21749     -2286.430    21638877.243    88607569.46546
     -1781.636  
  24100983.095   126651449.02247     -3436.722    24100990.120    98689435.89245
     -2677.973  
  20296828.578   106660578.79449      -457.030    20296829.120    83112154.90548
      -356.128  
  21694005.209   114002775.45449     -1600.602    21694011.970    88833364.92648
     -1247.227  
  24147646.415   126896760.82947      3176.413    24147656.625    98880613.71145
      2475.132  
  22145519.321   116375556.62849       899.581    22145522.238    90682288.62047
       700.972  
  23894530.206   125566649.64247      -727.738    23894538.860    97844192.96446
      -567.074  
  24548532.316   129003405.14748      2477.347    24548542.726   100522172.90644
      1930.409  
  20201555.402   106159984.44249      1229.011    20201558.326    82722106.08748
       957.672  
  23078344.891   123323684.577 7      2752.147    23078357.669    95918475.535 5
      2140.563  
  20458007.832   109167946.746 8      1147.808    20458017.232    84908495.582 8
       892.738  
  19889381.955   106059000.825 8      1320.382    19889390.930    82490411.814 6
      1026.965  
  20392170.822   109007842.236 8     -1765.512    20392181.050    84783919.878 6
     -1373.180  
  19856001.417   106178972.760 8     -2283.944    19856007.607    82583670.545 7
     -1776.405  
  23059835.785   123354446.404 7     -4490.648    23059852.246    95942358.644 4
     -3492.809  
 15  5 13  4 57 30.0000000  0 15G18G21G22G27G 4G19G24G32G14R11R 2R17
                                R 1R24R23
  21651940.697   113781703.51249     -2291.194    21651944.007    88661074.83747
     -1785.352  
  24120615.743   126754618.28547     -3441.109    24120622.656    98769827.37745
     -2681.394  
  20299461.193   106674413.56449      -465.305    20299461.661    83122935.25248
      -362.573  
  21703190.506   114051043.38849     -1617.191    21703197.141    88870976.22648
     -1260.151  
  24129514.146   126801475.80147      3175.836    24129524.141    98806365.87845
      2474.679  
  22140439.714   116348863.42549       880.012    22140442.529    90661488.74747
       685.723  
  23898733.856   125588740.35047      -745.179    23898742.657    97861406.46546
      -580.663  
  24534394.274   128929109.60948      2475.636    24534404.689   100464280.53844
      1929.074  
  20194592.973   106123396.62649      1210.394    20194595.792    82693596.14248
       943.163  
  23062928.933   123241307.497 7      2739.390    23062941.794    95854404.690 5
      2130.641  
  20451584.930   109133673.165 8      1137.015    20451594.281    84881838.420 8
       884.344  
  19882026.423   106019778.528 8      1294.582    19882035.533    82459905.621 6
      1006.898  
  20402096.656   109060901.849 8     -1771.777    20402106.913    84825188.444 6
     -1378.054  
  19868879.374   106247836.921 8     -2306.914    19868885.570    82637231.479 7
     -1794.272  
  23085032.095   123489227.326 8     -4494.793    23085048.311    96047187.962 5
     -3495.960  
