     2.11           OBSERVATION DATA    M                   RINEX VERSION / TYPE
Leica SpiderQC v4.0.0.49 (Free Version) 4/03/16 00:01:07    PGM / RUN BY / DATE
G. Evans            Office of the Surveyor-General (ACT)    OBSERVER / AGENCY
00AA                                                        MARKER NAME
00AA                                                        MARKER NUMBER
470604              LEICA GX1230GG      5.62                REC # / TYPE / VERS
                    LEIAX1202GG     NONE                    ANT # / TYPE
 -4443543.4448  2670408.5438 -3704662.7979                  APPROX POSITION XYZ
        1.3450        0.0000        0.0000                  ANTENNA: DELTA H/E/N
L1PhaOff:   0.0634  L2PhaOff:   0.0621                      COMMENT
     1     1                                                WAVELENGTH FACT L1/2
     6    C1    L1    D1    P2    L2    D2                  # / TYPES OF OBSERV
  2016     3     2     4    36   50.0000000     GPS         TIME OF FIRST OBS
    17                                                      LEAP SECONDS
    45                                                      # OF SATELLITES
          C1    L1    D1    P2    L2    D2                  COMMENT
                                                            END OF HEADER
 16  3  2  4 37  0.0000000  0 15G29G20G21G18G 5G26G15G25G13R 7R 6R22
                                R 5R20R21
  20126564.636   105765810.74049      -363.746    20126565.528    82414921.30048
      -283.440  
  20358598.421   106985157.35549      -716.715    20358598.683    83365058.09548
      -558.484  
  21163591.627   111215426.26748      1860.315    21163591.860    86661371.89846
      1449.598  
  22103141.656   116152793.77848      3384.168    22103143.633    90508679.34746
      2637.015  
  23266619.045   122266906.75448     -2988.218    23266621.074    95272925.59946
     -2328.483  
  22906707.876   120375558.45048      1380.770    22906713.851    93799160.65547
      1075.921  
  23334490.924   122623582.69548      2426.847    23334494.258    95550848.31646
      1891.050  
  23213116.802   121985751.53748     -3524.586    23213123.879    95053857.52845
     -2746.434  
  23573493.876   123879538.96748      1196.824    23573497.065    96529522.13544
       932.593  
  21209979.816   113538681.158 8      3859.597    21209986.212    88307893.528 7
      3001.913  
  19434883.543   103708261.407 9       216.625    19434889.592    80662005.314 6
       168.479  
  21889507.816   116847674.977 8      2849.551    21889515.626    90881563.863 7
      2216.315  
  22285557.287   119129088.311 6     -3544.601    22285565.529    92655969.254 6
     -2756.918  
  21906114.280   117141850.720 6     -2118.210    21906123.084    91110350.601 7
     -1647.496  
  19838118.042   106157774.513 9       420.227    19838123.351    82567182.336 8
       326.844  
 16  3  2  4 37 30.0000000  0 15G29G20G21G18G 5G26G15G25G13R 7R 6R22
                                R 5R20R21
  20128681.666   105776935.59249      -378.226    20128682.496    82423590.02748
      -294.726  
  20362734.603   107006893.17149      -732.555    20362734.897    83381995.10848
      -570.824  
  21152996.892   111159750.99548      1851.144    21152997.038    86617988.59546
      1442.445  
  22083849.020   116051411.28748      3374.347    22083850.799    90429680.10445
      2629.363  
  23283698.721   122356660.74248     -2995.710    23283700.758    95342863.73646
     -2334.320  
  22898876.905   120334406.57547      1362.383    22898882.699    93767094.30347
      1061.594  
  23320656.426   122550882.67148      2419.316    23320659.655    95494199.05346
      1885.183  
  23233252.106   122091562.11747     -3529.624    23233259.035    95136307.18745
     -2750.363  
  23566703.628   123843855.44448      1181.897    23566706.783    96501716.88044
       920.960  
  21188386.841   113423093.338 8      3845.961    21188393.479    88217992.006 7
      2991.308  
  19433741.709   103702168.860 9       189.210    19433747.761    80657266.701 6
       147.163  
  21873495.749   116762202.353 8      2848.500    21873503.550    90815085.218 7
      2215.500  
  22305487.116   119235624.135 5     -3558.324    22305494.814    92738830.417 6
     -2767.590  
  21918024.516   117205540.105 6     -2127.948    21918033.504    91159886.711 7
     -1655.074  
  19835791.855   106145326.772 9       409.539    19835797.225    82557500.768 8
       318.531  
 16  3  2  4 38  0.0000000  0 15G29G20G21G18G 5G26G15G25G13R 7R 6R22
                                R 5R20R21
  20130880.004   105788488.09249      -392.293    20130880.938    82432591.96548
      -305.687  
  20366960.263   107029099.25849      -748.101    20366960.569    83399298.55948
      -582.940  
  21142453.170   111104343.39348      1842.508    21142453.319    86574813.88746
      1435.719  
  22064611.240   115950317.29148      3364.952    22064613.138    90350905.69046
      2622.047  
  23300817.966   122446622.92348     -3002.141    23300820.217    95412964.09146
     -2339.336  
  22891148.578   120293794.85247      1344.633    22891154.182    93735448.84647
      1047.765  
  23306861.794   122478392.32448      2412.688    23306865.311    95437713.17546
      1880.016  
  23253413.620   122197511.36847     -3533.925    23253420.435    95218864.93645
     -2753.707  
  23559996.008   123808608.10148      1167.504    23559999.360    96474251.48144
       909.742  
  21166870.689   113307916.158 8      3832.309    21166877.363    88128409.856 8
      2980.683  
  19432752.483   103696890.064 9       162.402    19432758.493    80653160.995 6
       126.313  
  21857486.957   116676747.583 8      2848.148    21857494.636    90748620.449 7
      2215.227  
  22325491.935   119342561.075 5     -3571.125    22325499.741    92822003.509 6
     -2777.546  
  21929987.844   117269512.397 6     -2137.081    21929996.768    91209642.885 7
     -1662.180  
  19833524.739   106133194.977 9       399.031    19833530.142    82548064.940 8
       310.327  
 16  3  2  4 38 30.0000000  0 15G29G20G21G18G 5G26G15G25G13R 7R 6R22
                                R 5R20R21
  20133159.240   105800465.68249      -406.347    20133160.105    82441925.14948
      -316.636  
  20371274.403   107051770.27749      -763.332    20371274.717    83416964.30448
      -594.808  
  21131959.668   111049200.04648      1833.660    21131959.991    86531845.08846
      1428.824  
  22045428.279   115849510.15148      3355.461    22045430.126    90272354.77846
      2614.644  
  23317975.685   122536786.62448     -3008.742    23317977.838    95483221.49446
     -2344.476  
  22883522.881   120253720.82447      1326.785    22883528.342    93704222.36846
      1033.854  
  23293107.092   122406110.75548      2405.902    23293110.552    95381389.98846
      1874.730  
  23273600.433   122303592.41148     -3538.210    23273607.046    95301525.29745
     -2757.054  
  23553371.445   123773795.10048      1153.078    23553374.709    96447124.54544
       898.503  
  21145431.049   113193149.022 8      3818.793    21145437.852    88039146.649 8
      2970.172  
  19431914.923   103692420.750 9       135.519    19431920.996    80649684.886 6
       105.402  
  21841480.952   116591308.068 7      2847.715    21841489.108    90682167.584 7
      2214.894  
  22345570.519   119449891.051 5     -3584.078    22345577.954    92905482.337 6
     -2787.621  
  21942003.385   117333764.485 6     -2146.484    21942012.224    91259616.663 7
     -1669.492  
  19831316.165   106121376.981 9       388.729    19831321.701    82538873.180 8
       302.348  
 16  3  2  4 39  0.0000000  0 15G29G20G21G18G 5G26G15G25G13R 7R 6R22
                                R 5R20R21
  20135520.640   105812875.04849      -420.414    20135521.522    82451594.78748
      -327.597  
  20375677.907   107074911.03749      -778.726    20375678.221    83434996.07248
      -606.804  
  21121517.839   110994328.14248      1824.875    21121518.165    86489087.80647
      1421.979  
  22026301.594   115748998.30348      3345.965    22026303.371    90194033.94646
      2607.246  
  23335172.410   122627156.08548     -3015.245    23335174.684    95553639.20346
     -2349.546  
  22876000.668   120214191.95148      1308.688    22876006.365    93673420.69546
      1019.758  
  23279393.730   122334046.98748      2398.929    23279397.264    95325236.52446
      1869.301  
  23293813.019   122409808.39648     -3542.425    23293819.462    95384290.85745
     -2760.336  
  23546830.733   123739424.73948      1138.612    23546834.547    96420342.49044
       887.230  
  21124070.028   113078802.681 8      3804.676    21124076.906    87950210.702 7
      2959.190  
  19431230.196   103688767.130 9       108.578    19431236.279    80646843.212 6
        84.449  
  21825479.543   116505891.864 8      2847.305    21825487.634    90615732.833 7
      2214.573  
  22365722.941   119557616.549 6     -3596.968    22365730.282    92989268.772 6
     -2797.640  
  21954072.391   117398302.947 6     -2155.797    21954081.175    91309813.188 7
     -1676.734  
  19829167.849   106109881.129 9       378.237    19829173.337    82529931.967 8
       294.180  
 16  3  2  4 39 30.0000000  0 15G29G20G21G18G 5G26G15G25G13R 7R 6R22
                                R 5R20R21
  20137964.118   105825715.64149      -435.456    20137965.011    82461600.43748
      -339.320  
  20380170.170   107098518.22349      -794.805    20380170.522    83453391.29348
      -619.332  
  21111127.304   110939726.20148      1815.305    21111127.733    86446540.88247
      1414.522  
  22007231.069   115648782.45848      3335.449    22007232.938    90115943.77046
      2599.054  
  23352407.455   122717727.07748     -3022.371    23352409.941    95624213.94946
     -2355.098  
  22868582.020   120175207.66548      1290.179    22868587.999    93643043.35047
      1005.336  
  23265721.948   122262202.28848      2391.108    23265725.358    95269253.73046
      1863.203  
  23314050.026   122516154.48947     -3547.094    23314056.221    95467157.81345
     -2763.973  
  23540374.614   123705497.57348      1123.265    23540378.118    96393905.83644
       875.276  
  21102787.910   112964879.022 8      3790.270    21102795.015    87861603.529 7
      2947.987  
  19430698.028   103685927.195 9        80.906    19430704.073    80644634.391 6
        62.926  
  21809482.233   116420498.355 8      2846.007    21809490.694    90549315.715 7
      2213.563  
  22385948.239   119665731.981 6     -3610.531    22385955.648    93073358.505 6
     -2808.195  
  21966194.543   117463126.105 6     -2165.429    21966203.462    91360231.137 7
     -1684.227  
  19827079.666   106098707.153 9       366.938    19827085.269    82521241.112 8
       285.395  
 16  3  2  4 40  0.0000000  0 15G29G20G21G18G 5G26G15G25G13R 7R 6R22
                                R 5R20R21
  20140489.049   105838984.24349      -449.472    20140490.034    82471939.60548
      -350.242  
  20384750.284   107122587.00849      -810.027    20384750.715    83472146.20048
      -631.195  
  21100787.408   110885390.02548      1806.777    21100787.844    86404201.04747
      1407.879  
  21988216.313   115548860.55548      3325.784    21988218.415    90038082.66846
      2591.520  
  23369679.999   122808493.94048     -3028.722    23369682.158    95694941.35246
     -2360.046  
  22861266.950   120136765.46248      1272.188    22861272.434    93613088.42646
       991.315  
  23252091.747   122190575.44448      2383.831    23252095.210    95213440.70546
      1857.531  
  23334310.498   122622623.95847     -3550.831    23334316.810    95550120.85345
     -2766.887  
  23534002.656   123672012.05248      1108.796    23534005.951    96367813.25144
       863.996  
  21081584.767   112851377.907 8      3776.266    21081591.919    87773324.985 8
      2937.094  
  19430317.594   103683897.189 9        54.112    19430323.612    80643055.523 6
        42.090  
  21793489.035   116335125.579 7      2845.246    21793497.656    90482914.737 7
      2212.969  
  22406245.024   119774229.307 5     -3622.687    22406252.321    93157745.270 6
     -2817.647  
  21978369.636   117528230.986 6     -2174.882    21978378.701    91410868.192 7
     -1691.578  
  19825051.310   106087853.197 9       356.313    19825056.770    82512799.155 8
       277.117  
 16  3  2  4 40 30.0000000  0 15G29G20G21G18G 5G26G15G25G13R 7R 6R22
                                R 5R20R21
  20143096.453   105852686.40349      -463.953    20143097.430    82482616.61248
      -361.522  
  20389418.877   107147120.59849      -825.437    20389419.266    83491263.29248
      -643.202  
  21090499.069   110831324.87748      1797.609    21090499.566    86362072.39447
      1400.730  
  21969258.797   115449239.04248      3315.699    21969260.781    89960455.60446
      2583.659  
  23386990.185   122899458.20548     -3035.386    23386992.448    95765822.53246
     -2365.241  
  22854055.884   120098871.08147      1253.847    22854060.982    93583560.36447
       977.023  
  23238504.436   122119174.13948      2376.284    23238507.845    95157803.43546
      1851.651  
  23354594.905   122729218.23648     -3555.266    23354600.876    95633181.17846
     -2770.344  
  23527715.693   123638974.77348      1093.789    23527718.900    96342069.98744
       852.305  
  21060462.194   112738308.434 8      3761.766    21060469.360    87685382.189 8
      2925.819  
  19430089.663   103682680.777 9        26.941    19430095.566    80642109.452 6
        20.953  
  21777500.670   116249779.476 7      2844.516    21777509.386    90416534.522 7
      2212.402  
  22426613.244   119883109.302 5     -3635.504    22426620.803    93242429.654 6
     -2827.617  
  21990598.259   117593622.274 6     -2184.590    21990607.553    91461728.014 7
     -1699.129  
  19823084.021   106077325.585 9       345.414    19823089.558    82504611.030 8
       268.675  
 16  3  2  4 41  0.0000000  0 15G29G20G21G18G 5G26G15G25G13R 7R 6R22
                                R 5R20R21
  20145786.461   105866822.36649      -478.430    20145787.428    82493631.64448
      -372.800  
  20394175.453   107172116.60749      -840.796    20394175.842    83510740.70948
      -655.172  
  21080262.353   110777530.69448      1788.555    21080262.891    86320154.88747
      1393.679  
  21950359.124   115349920.21248      3305.719    21950360.819    89883064.39046
      2575.882  
  23404337.351   122990617.77248     -3041.894    23404339.499    95836855.93246
     -2370.312  
  22846949.195   120061525.08848      1235.479    22846954.372    93554459.63846
       962.714  
  23224960.290   122048000.27048      2368.679    23224963.943    95102343.38946
      1845.722  
  23374902.342   122835933.75947     -3559.198    23374908.587    95716335.98545
     -2773.410  
  23521514.450   123606387.30248      1078.612    23521517.652    96316677.22545
       840.476  
  21039420.977   112625673.556 8      3747.093    21039428.257    87597777.381 8
      2914.405  
  19430014.041   103682277.528 9        -0.015    19430020.024    80641795.832 6
        -0.007  
  21761517.810   116164461.571 8      2843.190    21761526.524    90350176.200 7
      2211.370  
  22447052.217   119992367.265 6     -3648.344    22447060.182    93327408.023 6
     -2837.604  
  22002880.622   117659299.931 6     -2194.030    22002889.538    91512810.571 7
     -1706.472  
  19821177.905   106067125.635 9       334.527    19821183.359    82496677.747 8
       260.183  
 16  3  2  4 41 30.0000000  0 15G29G20G21G18G 5G26G15G25G13R 7R 6R22
                                R 5R20R21
  20148558.771   105881390.91849      -492.645    20148559.738    82504983.75748
      -383.882  
  20399019.393   107197571.74649      -856.000    20399019.790    83530575.89748
      -667.011  
  21070076.932   110724005.91848      1779.757    21070077.388    86278447.30146
      1386.823  
  21931516.863   115250903.65148      3295.737    21931518.654    89805908.74746
      2568.112  
  23421720.762   123081967.59148     -3048.027    23421722.942    95908037.53846
     -2375.089  
  22839946.576   120024726.48048      1217.602    22839951.945    93525785.43346
       948.781  
  23211459.685   121977054.29648      2361.194    23211463.166    95047060.90246
      1839.890  
  23395231.504   122942765.22647     -3562.793    23395238.280    95799581.11946
     -2776.210  
  23515398.791   123574249.42148      1064.098    23515401.845    96291634.76844
       829.163  
  21018461.345   112513475.193 8      3732.776    21018468.587    87510512.091 8
      2903.270  
  19430090.355   103682684.753 9       -27.042    19430096.321    80642112.588 6
       -21.034  
  21745539.858   116079170.708 8      2842.625    21745548.674    90283838.938 8
      2210.929  
  22467560.811   120101997.109 6     -3660.828    22467568.646    93412675.657 6
     -2847.313  
  22015215.847   117725261.548 6     -2202.987    22015224.404    91564113.974 7
     -1713.437  
  19819332.886   106057252.848 9       323.655    19819338.329    82488998.926 8
       251.733  
 16  3  2  4 42  0.0000000  0 15G29G20G21G18G 5G26G15G25G13R 7R 6R22
                                R 5R20R21
  20151414.043   105896395.47649      -507.397    20151415.041    82516675.62148
      -395.374  
  20403950.962   107223487.44449      -871.500    20403951.385    83550769.95348
      -679.090  
  21059943.301   110670753.51448      1770.491    21059943.727    86236951.96546
      1379.601  
  21912732.871   115152194.23348      3285.250    21912734.593    89728992.41046
      2559.933  
  23439140.510   123173508.63948     -3054.426    23439142.493    95979368.18746
     -2380.070  
  22833049.113   119988479.25448      1199.026    22833054.525    93497540.87047
       934.308  
  23198003.609   121906342.23448      2353.340    23198007.128    94991960.71046
      1833.772  
  23415583.011   123049712.52047     -3566.479    23415589.663    95882916.53546
     -2779.082  
  23509369.685   123542566.19548      1048.566    23509372.381    96266946.61945
       817.066  
  20997584.508   112401720.165 8      3717.809    20997591.463    87423591.635 8
      2891.632  
  19430318.898   103683904.583 9       -54.206    19430324.861    80643061.364 6
       -42.159  
  21729567.770   115993911.684 7      2841.632    21729576.793    90217526.454 7
      2210.160  
  22488138.625   120211997.316 5     -3672.722    22488146.381    93498231.329 6
     -2856.565  
  22027604.961   117791511.111 6     -2213.397    22027613.691    91615641.343 7
     -1721.534  
  19817549.945   106047711.971 9       312.608    19817555.466    82481578.257 8
       243.140  
 16  3  2  4 42 30.0000000  0 15G29G20G21G18G 5G26G15G25G13R 7R 6R22
                                R 5R20R21
  20154352.511   105911837.25949      -522.237    20154353.437    82528708.17548
      -406.941  
  20408970.005   107249862.41149      -886.917    20408970.286    83571321.88848
      -691.104  
  21049861.784   110617774.53149      1761.237    21049861.986    86195669.67246
      1372.395  
  21894008.084   115053794.56448      3274.625    21894009.553    89652317.43745
      2551.655  
  23456596.139   123265238.49648     -3060.854    23456598.152    96050845.94446
     -2385.090  
  22826256.558   119952784.70248      1180.495    22826261.995    93469726.97046
       919.866  
  23184592.558   121835867.15648      2345.026    23184595.939    94937045.16246
      1827.292  
  23435955.958   123156772.83347     -3570.538    23435962.969    95966339.97245
     -2782.246  
  23503427.410   123511339.48548      1033.129    23503430.375    96242614.16244
       805.035  
  20976791.244   112290412.318 8      3702.597    20976798.067    87337018.973 8
      2879.801  
  19430699.712   103685936.836 9       -81.512    19430705.741    80644642.032 6
       -63.398  
  21713602.432   115908686.623 7      2840.098    21713611.021    90151240.336 7
      2208.965  
  22508785.090   120322364.569 6     -3685.141    22508792.944    93584072.478 5
     -2866.218  
  22040047.590   117858048.475 6     -2223.246    22040056.456    91667392.547 7
     -1729.194  
  19815829.382   106038504.952 9       301.190    19815834.894    82474417.253 8
       234.261  
 16  3  2  4 43  0.0000000  0 15G29G20G21G18G 5G26G15G25G13R 7R 6R22
                                R 5R20R21
  20157373.284   105927711.46949      -536.574    20157374.199    82541077.69148
      -418.109  
  20414075.086   107276689.69949      -902.007    20414075.305    83592226.27448
      -702.866  
  21039831.287   110565063.85148      1752.344    21039831.404    86154596.45846
      1365.460  
  21875341.459   114955701.19448      3264.440    21875342.890    89575881.13446
      2543.718  
  23474086.160   123357149.23848     -3066.733    23474088.307    96122464.63946
     -2389.667  
  22819568.531   119917638.57048      1162.245    22819573.845    93442340.39446
       905.640  
  23171226.237   121765626.38348      2337.324    23171229.389    94882312.18946
      1821.293  
  23456349.044   123263937.68747     -3574.101    23456356.052    96049844.89645
     -2785.022  
  23497571.500   123480566.12848      1017.914    23497574.625    96218634.99844
       793.179  
  20956081.282   112179550.084 8      3687.706    20956088.157    87250792.902 8
      2868.219  
  19431231.698   103688775.708 9      -108.339    19431237.695    80646850.058 6
       -84.266  
  21697642.257   115823491.282 7      2839.034    21697651.096    90084977.368 8
      2208.137  
  22529498.471   120433089.239 5     -3696.733    22529506.387    93670191.594 5
     -2875.241  
  22052543.428   117924868.770 6     -2232.133    22052552.225    91719363.822 7
     -1736.102  
  19814170.618   106029628.199 9       290.105    19814176.049    82467513.127 8
       225.633  
 16  3  2  4 43 30.0000000  0 15G29G20G21G18G 5G26G15G25G13R 7R 6R22
                                R 5R20R21
  20160477.894   105944026.27449      -550.891    20160478.697    82553790.52848
      -429.265  
  20419267.369   107303975.45449      -916.813    20419267.607    83613487.91548
      -714.397  
  21029853.207   110512628.96948      1743.605    21029853.522    86113738.13847
      1358.648  
  21856734.916   114857923.96048      3254.398    21856736.555    89499691.18046
      2535.894  
  23491611.633   123449246.40548     -3072.437    23491613.722    96194228.62946
     -2394.108  
  22812986.508   119883049.37048      1143.891    22812991.622    93415387.79446
       891.343  
  23157906.150   121695629.97948      2329.409    23157909.450    94827769.63746
      1815.125  
  23476762.764   123371211.51047     -3577.144    23476769.806    96133434.71146
     -2787.394  
  23491803.642   123450255.70448      1002.839    23491806.847    96195016.53944
       781.433  
  20935456.577   112069144.922 8      3672.727    20935463.368    87164922.325 8
      2856.566  
  19431916.208   103692428.044 9      -135.070    19431922.139    80649690.783 6
      -105.058  
  21681689.598   115738335.434 8      2838.121    21681698.401    90018745.138 7
      2207.425  
  22550279.358   120544174.774 5     -3708.132    22550287.001    93756591.427 5
     -2884.105  
  22065093.906   117991979.852 6     -2241.706    22065102.704    91771561.265 7
     -1743.550  
  19812575.238   106021090.936 9       279.145    19812580.525    82460873.044 8
       217.112  
 16  3  2  4 44  0.0000000  0 15G29G20G21G18G 5G26G15G25G13R 7R 6R22
                                R 5R20R21
  20163665.974   105960779.39949      -565.402    20163666.741    82566844.90848
      -440.574  
  20424546.010   107331714.71349      -931.719    20424546.244    83635102.92848
      -726.015  
  21019927.187   110460467.26148      1734.402    21019927.567    86073092.69647
      1351.479  
  21838188.479   114760461.71648      3243.887    21838190.005    89423746.65646
      2527.702  
  23509171.716   123541524.70748     -3078.715    23509174.010    96266133.73246
     -2399.004  
  22806509.897   119849014.79748      1125.383    22806515.069    93388867.36146
       876.918  
  23144632.620   121625877.76248      2321.354    23144636.192    94773417.36547
      1808.848  
  23497196.247   123478588.12747     -3580.625    23497203.162    96217104.63845
     -2790.105  
  23486123.478   123420407.14648       987.651    23486126.697    96171757.99344
       769.594  
  20914917.357   111959197.523 8      3657.757    20914923.765    87079407.796 7
      2844.922  
  19432752.357   103696889.958 9      -161.796    19432758.254    80653161.189 6
      -125.844  
  21665744.105   115653217.031 8      2837.105    21665752.801    89952541.989 7
      2206.636  
  22571126.405   120655614.217 5     -3720.050    22571134.428    93843266.482 6
     -2893.375  
  22077697.607   118059378.441 6     -2251.315    22077706.573    91823982.302 7
     -1751.027  
  19811043.072   106012891.850 9       267.983    19811048.438    82454495.987 8
       208.433  
 16  3  2  4 44 30.0000000  0 15G29G20G21G18G 5G26G15G25G13R 7R 6R22
                                R 5R20R21
  20166937.004   105977968.90749      -580.499    20166937.810    82580239.32748
      -452.336  
  20429910.127   107359903.46249      -947.276    20429910.394    83657068.19348
      -738.137  
  21010052.629   110408576.29148      1724.988    21010052.932    86032658.21647
      1344.148  
  21819701.768   114663313.89448      3232.714    21819703.304    89348047.14446
      2518.999  
  23526765.258   123633979.14348     -3085.074    23526767.301    96338176.09646
     -2403.957  
  22800138.591   119815533.29748      1106.668    22800143.809    93362777.92746
       862.339  
  23131405.632   121556369.68948      2312.535    23131409.154    94719255.32746
      1801.976  
  23517647.967   123586061.67547     -3584.273    23517655.096    96300850.08045
     -2792.948  
  23480531.007   123391019.20248       971.727    23480534.554    96148858.35344
       757.191  
  20894463.838   111849708.922 8      3641.702    20894470.399    86994250.099 8
      2832.437  
  19433739.539   103702157.934 9      -189.327    19433745.519    80657258.519 6
      -147.253  
  21649805.532   115568135.187 8      2835.421    21649814.000    89886367.287 7
      2205.327  
  22592038.193   120767400.615 5     -3732.383    22592046.231    93930211.407 5
     -2902.969  
  22090354.955   118127062.404 6     -2261.136    22090363.791    91876625.311 7
     -1758.663  
  19809573.891   106005029.934 9       256.159    19809579.237    82448381.170 8
       199.233  
 16  3  2  4 45  0.0000000  0 15G29G20G21G18G 5G26G15G25G13R 7R 6R22
                                R 5R20R21
  20170292.052   105995599.71049      -595.273    20170292.902    82593977.61848
      -463.852  
  20435360.328   107388544.87049      -962.414    20435360.638    83679386.18748
      -749.937  
  21000230.466   110356960.98048      1715.698    21000230.713    85992438.52946
      1336.910  
  21801276.161   114566486.92648      3221.977    21801277.644    89272597.64745
      2510.633  
  23544392.678   123726612.48648     -3090.785    23544395.068    96410357.85746
     -2408.406  
  22793873.371   119782610.22048      1087.809    22793878.562    93337123.60146
       847.644  
  23118226.422   121487112.94448      2304.022    23118229.819    94665289.12146
      1795.344  
  23538118.406   123693633.65147     -3587.495    23538125.318    96384672.24545
     -2795.461  
  23475027.454   123362098.58548       956.074    23475030.809    96126322.87344
       744.992  
  20874097.643   111740687.370 8      3626.063    20874104.427    86909455.670 8
      2820.273  
  19434878.413   103708235.686 9      -216.352    19434884.388    80661985.685 6
      -168.273  
  21633874.981   115483096.265 8      2833.647    21633882.880    89820225.944 7
      2203.949  
  22613015.234   120879534.326 5     -3743.152    22613022.979    94017426.511 6
     -2911.344  
  22103066.516   118195036.243 6     -2270.694    22103075.484    91929493.770 7
     -1766.101  
  19808168.859   105997511.574 9       244.757    19808174.306    82442533.565 8
       190.362  
 16  3  2  4 45 30.0000000  0 15G29G20G21G18G 5G26G15G25G13R 7R 6R22
                                R 5R20R21
  20173730.820   106013670.80749      -610.272    20173731.678    82608058.98748
      -475.538  
  20440896.038   107417635.40949      -977.644    20440896.423    83702054.14748
      -761.801  
  20990460.595   110305620.08648      1706.366    20990460.776    85952432.67546
      1329.637  
  21782911.743   114469981.19548      3210.976    21782913.134    89197398.45446
      2502.058  
  23562053.198   123819419.14548     -3096.886    23562055.493    96482674.68746
     -2413.164  
  22787714.509   119750244.77148      1068.938    22787719.551    93311903.79146
       832.938  
  23105095.378   121418108.52648      2295.406    23105098.664    94611519.54947
      1788.629  
  23558606.485   123801299.26147     -3590.683    23558613.619    96468567.35046
     -2797.941  
  23469613.037   123333645.44448       940.062    23469616.071    96104151.67744
       732.516  
  20853819.102   111632134.999 8      3609.940    20853825.733    86825026.160 8
      2807.729  
  19436168.739   103715120.892 9      -243.484    19436174.769    80667340.870 6
      -189.375  
  21617952.377   115398100.038 8      2831.965    21617960.216    89754117.834 7
      2202.641  
  22634056.041   120992009.908 5     -3755.429    22634063.892    94104907.423 5
     -2920.894  
  22115832.044   118263298.599 6     -2280.879    22115840.998    91982586.634 7
     -1774.022  
  19806828.015   105990336.541 9       232.832    19806833.377    82436952.992 8
       181.089  
 16  3  2  4 46  0.0000000  0 15G29G20G21G18G 5G26G15G25G13R 7R 6R22
                                R 5R20R21
  20177253.282   106032181.55949      -624.468    20177254.225    82622482.94848
      -486.601  
  20446516.659   107447171.84649      -992.163    20446516.991    83725069.55648
      -773.117  
  20980742.706   110254552.45049      1697.565    20980742.877    85912639.75446
      1322.776  
  21764608.547   114373797.06349      3200.710    21764610.053    89122449.86746
      2494.059  
  23579746.239   123912396.01148     -3102.233    23579748.615    96555124.15846
     -2417.328  
  22781661.574   119718436.41648      1050.796    22781666.776    93287118.09546
       818.801  
  23092012.578   121349357.70048      2287.301    23092015.648    94557947.56547
      1782.312  
  23579111.797   123909053.96747     -3593.479    23579118.636    96552531.90445
     -2800.121  
  23464287.802   123305660.33048       924.800    23464290.817    96082345.15044
       720.624  
  20833628.499   111524053.686 8      3594.671    20833635.196    86740963.029 7
      2795.855  
  19437609.826   103722810.656 9      -269.867    19437615.809    80673321.815 6
      -209.898  
  21602037.749   115313146.676 8      2830.945    21602045.436    89688043.053 7
      2201.848  
  22655160.080   121104821.712 5     -3766.370    22655167.846    94192649.905 6
     -2929.397  
  22128651.206   118331848.202 6     -2290.116    22128660.272    92035902.910 7
     -1781.207  
  19805551.407   105983505.371 9       221.769    19805556.864    82431639.868 8
       172.487  
 16  3  2  4 46 30.0000000  0 15G29G20G21G18G 5G26G15G25G13R 7R 6R22
                                R 5R20R21
  20180860.011   106051134.95749      -639.147    20180860.935    82637251.82448
      -498.043  
  20452222.352   107477155.49849     -1006.848    20452222.662    83748433.44948
      -784.559  
  20971077.410   110203760.85549      1688.444    20971077.657    85873061.92146
      1315.671  
  21746367.281   114277939.12448      3189.855    21746368.740    89047755.45946
      2485.601  
  23597471.590   124005543.54948     -3107.675    23597474.028    96627706.60546
     -2421.566  
  22775715.277   119687188.47548      1032.055    22775720.463    93262769.06646
       804.198  
  23078978.929   121280865.69148      2278.679    23078982.091    94504577.26846
      1775.594  
  23599633.679   124016897.18347     -3596.085    23599640.790    96636565.38245
     -2802.151  
  23459052.183   123278146.99848       909.202    23459054.947    96060906.26245
       708.468  
  20813527.183   111416450.109 8      3578.926    20813533.920    86657271.449 7
      2783.608  
  19439202.102   103731307.249 9      -296.734    19439208.067    80679930.308 6
      -230.792  
  21586132.028   115228240.573 8      2829.438    21586139.750    89622005.023 7
      2200.672  
  22676326.584   121217968.121 5     -3777.175    22676334.295    94280652.600 6
     -2937.805  
  22141524.598   118400687.609 6     -2299.175    22141533.555    92089444.593 7
     -1788.253  
  19804339.823   105977022.063 9       210.229    19804345.175    82426597.296 8
       163.512  
 16  3  2  4 47  0.0000000  0 15G29G20G21G18G 5G26G15G25G13R 7R 6R22
                                R 5R20R21
  20184550.826   106070530.22749      -654.140    20184551.756    82652365.02448
      -509.722  
  20458012.576   107507583.33049     -1021.979    20458012.909    83772143.45248
      -796.352  
  20961464.414   110153244.28048      1679.043    20961464.616    85833698.40446
      1308.343  
  21728188.207   114182408.16549      3178.559    21728189.681    88973315.84446
      2476.800  
  23615228.676   124098858.04048     -3113.594    23615231.260    96700419.12646
     -2426.180  
  22769875.682   119656500.60648      1013.354    22769880.778    93238856.46846
       789.629  
  23065994.698   121212634.00548      2269.772    23065997.973    94451409.82046
      1768.659  
  23620171.536   124124824.63547     -3599.281    23620178.843    96720664.52645
     -2804.645  
  23453906.515   123251106.49048       893.137    23453909.309    96039835.79745
       695.948  
  20793515.546   111309326.816 8      3562.362    20793521.942    86573953.442 7
      2770.730  
  19440945.038   103740607.859 9      -323.597    19440950.993    80687164.132 6
      -251.688  
  21570234.993   115143382.217 8      2827.582    21570242.721    89556004.131 7
      2199.230  
  22697554.897   121331443.903 5     -3788.870    22697562.547    94368911.465 6
     -2946.897  
  22154451.857   118469815.818 6     -2309.199    22154460.879    92143210.888 7
     -1796.050  
  19803193.431   105970887.302 9       198.438    19803198.771    82421825.816 8
       154.300  
 16  3  2  4 47 30.0000000  0 15G29G20G21G18G 5G26G15G25G13R 7R 6R22
                                R 5R20R21
  20188325.989   106090368.96849      -668.648    20188326.889    82667823.78048
      -521.026  
  20463887.189   107538454.31349     -1036.461    20463887.411    83796198.77248
      -807.637  
  20951903.923   110103004.28148      1669.887    20951904.111    85794550.39046
      1301.211  
  21710072.004   114087207.03348      3167.808    21710073.420    88899133.22146
      2468.422  
  23633017.385   124192338.14848     -3118.839    23633019.632    96773260.72246
     -2430.265  
  22764142.731   119626374.33648       994.754    22764147.702    93215381.47946
       775.132  
  23053060.641   121144666.26748      2260.905    23053063.942    94398448.05946
      1761.745  
  23640725.014   124232834.01147     -3601.737    23640732.220    96804827.51446
     -2806.558  
  23448851.040   123224541.16448       877.285    23448853.882    96019135.60644
       683.597  
  20773594.476   111202687.956 8      3546.464    20773600.780    86491012.200 8
      2758.362  
  19442838.639   103750712.696 9      -350.409    19442844.701    80695023.471 6
      -272.542  
  21554347.407   115058574.235 8      2825.960    21554355.492    89490042.422 7
      2197.969  
  22718844.201   121445245.961 6     -3798.667    22718851.546    94457424.118 6
     -2954.523  
  22167433.449   118539233.848 6     -2318.593    22167442.576    92197202.606 7
     -1803.359  
  19802112.580   105965103.478 9       186.770    19802117.957    82417327.293 8
       145.265  
 16  3  2  4 48  0.0000000  0 15G29G20G21G18G 5G26G15G25G13R 7R 6R22
                                R 5R20R21
  20192185.224   106110649.51049      -683.398    20192186.246    82683626.79648
      -532.523  
  20469845.290   107569764.65849     -1050.984    20469845.535    83820596.45348
      -818.948  
  20942395.632   110053038.49948      1660.870    20942395.965    85755616.06146
      1294.184  
  21692018.503   113992335.42949      3156.854    21692019.912    88825207.37446
      2459.886  
  23650836.790   124285978.94548     -3124.016    23650839.001    96846227.52946
     -2434.301  
  22758516.533   119596808.18548       976.269    22758521.446    93192342.93346
       760.730  
  23040177.071   121076962.52348      2252.426    23040180.105    94345691.96446
      1755.137  
  23661293.027   124340919.93347     -3604.156    23661300.718    96889050.10746
     -2808.441  
  23443886.116   123198450.71948       861.632    23443888.999    95998805.46244
       671.401  
  20753763.991   111096534.720 8      3530.265    20753770.781    86408448.676 8
      2745.761  
  19444882.426   103761618.857 9      -376.979    19444888.432    80703506.060 6
      -293.211  
  21538469.266   114973815.642 8      2824.332    21538477.586    89424119.138 7
      2196.702  
  22740193.033   121559367.611 5     -3809.559    22740200.506    94546185.346 6
     -2962.991  
  22180468.817   118608939.286 6     -2328.430    22180477.909    92251417.901 7
     -1811.004  
  19801097.285   105959669.966 9       175.316    19801102.673    82413101.225 8
       136.351  
 16  3  2  4 48 30.0000000  0 15G29G20G21G18G 5G26G15G25G13R 7R 6R22
                                R 5R20R21
  20196129.256   106131375.63149      -697.995    20196130.218    82699777.01448
      -543.897  
  20475887.365   107601516.10149     -1065.472    20475887.704    83845337.84148
      -830.241  
  20932940.403   110003350.59249      1651.953    20932940.449    85716898.24246
      1287.233  
  21674028.714   113897798.60949      3145.843    21674030.144    88751542.40646
      2451.308  
  23668687.051   124379781.75848     -3129.394    23668689.234    96919320.59345
     -2438.487  
  22752997.661   119567806.22648       957.616    22753002.276    93169744.01246
       746.191  
  23027344.797   121009528.59048      2243.577    23027347.754    94293146.13447
      1748.242  
  23681875.825   124449082.67547     -3606.492    23681883.440    96973332.56745
     -2810.262  
  23439012.757   123172840.17048       845.897    23439015.894    95978849.25344
       659.140  
  20734025.690   110990874.677 8      3514.093    20734032.487    86326268.745 8
      2733.184  
  19447076.716   103773327.853 9      -403.395    19447082.639    80712613.081 6
      -313.750  
  21522601.290   114889111.747 8      2822.727    21522609.565    89358238.396 7
      2195.452  
  22761601.520   121673808.429 5     -3820.034    22761609.151    94635194.824 6
     -2971.136  
  22193558.528   118678935.667 6     -2337.875    22193567.659    92305859.434 7
     -1818.352  
  19800148.349   105954591.796 9       163.558    19800153.668    82409151.547 8
       127.211  
 16  3  2  4 49  0.0000000  0 15G29G20G21G18G 5G26G15G25G13R 7R 6R22
                                R 5R20R21
  20200157.956   106152546.52949      -713.391    20200158.959    82716273.81648
      -555.895  
  20482012.773   107633705.08749     -1080.487    20482013.006    83870420.18148
      -841.938  
  20923537.673   109953939.25648      1642.190    20923537.780    85678395.94646
      1279.628  
  21656102.545   113803596.76749      3134.175    21656104.143    88678138.46146
      2442.215  
  23686567.268   124473742.90648     -3134.777    23686569.335    96992537.02345
     -2442.691  
  22747585.772   119539367.55648       938.448    22747590.636    93147584.03046
       731.253  
  23014564.072   120942365.95948      2233.987    23014567.222    94240811.71146
      1740.770  
  23702472.571   124557317.52547     -3609.171    23702480.187    97057671.24245
     -2812.352  
  23434230.487   123147709.60748       829.641    23434233.190    95959267.03844
       646.473  
  20714379.887   110885709.278 8      3496.922    20714386.369    86244473.526 8
      2719.828  
  19449420.934   103785837.023 9      -430.616    19449426.795    80722342.449 6
      -334.930  
  21506743.748   114804462.860 8      2820.289    21506752.100    89292400.419 7
      2193.558  
  22783068.687   121788562.680 6     -3830.609    22783076.270    94724448.072 6
     -2979.367  
  22206702.368   118749221.279 6     -2348.109    22206711.500    92360525.934 7
     -1826.315  
  19799265.778   105949869.135 9       151.188    19799271.073    82405478.367 8
       117.585  
 16  3  2  4 49 30.0000000  0 15G29G20G21G18G 5G26G15G25G13R 7R 6R22
                                R 5R20R21
  20204270.825   106174159.86449      -727.629    20204271.754    82733115.36848
      -566.987  
  20488220.643   107666327.88649     -1094.613    20488220.896    83895840.54548
      -852.945  
  20914187.228   109904802.36948      1633.343    20914187.373    85640107.49747
      1272.733  
  21638240.031   113709729.56049      3123.395    21638241.786    88604995.28246
      2433.813  
  23704476.533   124567857.06748     -3139.570    23704478.596    97065872.67345
     -2446.422  
  22742280.976   119511490.57348       919.840    22742285.763    93125861.71546
       716.753  
  23001835.016   120875474.82048      2225.315    23001838.063    94188688.83747
      1734.015  
  23723082.007   124665619.12047     -3610.973    23723089.469    97142061.93245
     -2813.754  
  23429539.525   123123058.30948       814.102    23429542.363    95940058.29045
       634.358  
  20694826.808   110781040.052 8      3480.703    20694833.370    86163064.229 8
      2707.215  
  19451914.402   103799143.081 9      -456.741    19451920.395    80732691.626 6
      -355.242  
  21490896.145   114719868.123 8      2819.253    21490904.729    89226604.569 7
      2192.754  
  22804593.298   121903623.809 6     -3840.090    22804601.034    94813939.984 6
     -2986.746  
  22219899.917   118819793.941 6     -2357.194    22219909.000    92415415.703 7
     -1833.379  
  19798449.464   105945501.220 9       139.753    19798454.863    82402081.107 8
       108.695  
 16  3  2  4 50  0.0000000  0 15G29G20G21G18G 5G26G15G25G13R 7R 6R22
                                R 5R20R21
  20208468.370   106196217.95749      -742.617    20208469.345    82750303.49048
      -578.668  
  20494511.049   107699384.50549     -1109.015    20494511.440    83921598.95948
      -864.171  
  20904889.410   109855942.25248      1624.089    20904889.566    85602034.72047
      1265.520  
  21620442.143   113616200.99849      3111.999    21620443.723    88532115.97046
      2424.933  
  23722415.188   124662124.49448     -3144.617    23722417.090    97139327.77745
     -2450.355  
  22737083.536   119484177.62348       901.124    22737088.185    93104578.93646
       702.176  
  22989158.471   120808859.59648      2215.914    22989161.530    94136780.95846
      1726.687  
  23743703.640   124773986.12647     -3613.441    23743711.015    97226503.55945
     -2815.679  
  23424940.270   123098889.87348       797.542    23424942.982    95921225.81245
       621.460  
  20675367.434   110676872.249 8      3463.862    20675373.768    86082044.919 8
      2694.117  
  19454557.241   103813246.215 9      -483.405    19454563.079    80743660.748 6
      -375.983  
  21475059.517   114635331.404 8      2816.855    21475067.809    89160853.831 7
      2190.886  
  22826174.832   122018989.603 5     -3850.284    22826182.881    94903668.890 6
     -2994.671  
  22233150.979   118890655.637 6     -2366.965    22233160.602    92470530.275 7
     -1840.976  
  19797700.144   105941491.519 9       127.683    19797705.525    82398962.453 8
        99.250  
 16  3  2  4 50 30.0000000  0 15G29G20G21G18G 5G26G15G25G13R 7R 6R22
                                R 5R20R21
  20212751.462   106218725.53949      -757.534    20212752.493    82767841.86048
      -590.293  
  20500884.459   107732877.06149     -1123.453    20500884.824    83947697.05648
      -875.418  
  20895645.034   109807362.98248      1614.910    20895645.324    85564180.78247
      1258.370  
  21602709.742   113523017.00348      3100.640    21602711.212    88459505.14647
      2416.082  
  23740383.058   124756546.09948     -3149.684    23740385.222    97212902.99246
     -2454.305  
  22731994.127   119457433.43948       882.089    22731998.973    93083739.30846
       687.339  
  22976535.724   120742527.08248      2206.538    22976538.751    94085093.38347
      1719.386  
  23764338.239   124882419.36747     -3615.230    23764345.447    97310996.82545
     -2817.069  
  23420433.991   123075209.77948       781.461    23420437.104    95902773.83945
       608.929  
  20656003.105   110573213.667 8      3446.813    20656009.265    86001421.675 8
      2680.855  
  19457350.002   103828149.140 9      -509.805    19457356.006    80755251.930 6
      -396.515  
  21459234.798   114550858.448 8      2814.894    21459243.279    89095152.718 7
      2189.366  
  22847813.482   122134660.212 6     -3860.438    22847821.631    94993634.845 6
     -3002.565  
  22246457.338   118961810.409 6     -2376.648    22246466.844    92525872.783 7
     -1848.512  
  19797018.857   105937845.878 9       115.566    19797024.290    82396126.965 8
        89.886  
 16  3  2  4 51  0.0000000  0 15G29G20G21G18G 5G26G15G25G13R 7R 6R22
                                R 5R20R21
  20217119.272   106241678.50449      -772.434    20217120.303    82785727.28048
      -601.898  
  20507339.661   107766799.40949     -1137.858    20507339.963    83974130.05548
      -886.648  
  20886453.405   109759060.51949      1605.578    20886453.627    85526542.53947
      1251.101  
  21585042.183   113430174.66849      3089.132    21585043.861    88387160.57646
      2407.116  
  23758379.021   124851115.21248     -3154.519    23758381.007    97286593.15945
     -2458.070  
  22727012.532   119431254.10648       863.249    22727017.300    93063339.84546
       672.664  
  22963966.347   120676475.12348      2197.086    22963969.217    94033624.39946
      1712.016  
  23784983.716   124990911.45447     -3617.313    23784990.695    97395535.91545
     -2818.690  
  23416020.059   123052015.00348       765.113    23416023.075    95884700.06644
       596.190  
  20636733.660   110470063.322 8      3429.949    20636740.088    85921193.728 8
      2667.738  
  19460291.707   103843846.487 9      -536.444    19460297.570    80767460.984 6
      -417.203  
  21443421.473   114466446.475 8      2812.887    21443430.109    89029499.023 7
      2187.801  
  22869507.322   122250626.971 5     -3870.508    22869515.664    95083831.121 5
     -3010.401  
  22259817.608   119033253.619 6     -2386.093    22259827.424    92581439.639 7
     -1855.854  
  19796405.105   105934561.377 9       103.542    19796410.391    82393572.358 8
        80.487  
 16  3  2  4 51 30.0000000  0 15G29G20G21G18G 5G26G15G25G13R 7R 6R22
                                R 5R20R21
  20221572.700   106265081.45849      -787.374    20221573.697    82803963.33848
      -613.543  
  20513877.156   107801154.11449     -1152.141    20513877.501    84000899.96148
      -897.772  
  20877315.310   109711039.28849      1596.273    20877315.420    85489123.42246
      1243.843  
  21567441.023   113337679.76349      3077.629    21567442.417    88315086.70046
      2398.152  
  23776402.979   124945833.97048     -3159.188    23776405.348    97360399.91845
     -2461.707  
  22722139.115   119405644.25048       844.515    22722144.100    93043384.12546
       658.062  
  22951451.710   120610710.32148      2187.538    22951454.598    93982379.18946
      1704.578  
  23805640.560   125099463.21347     -3618.992    23805647.637    97480121.51445
     -2820.004  
  23411699.663   123029311.17048       748.800    23411702.579    95867008.82844
       583.479  
  20617560.654   110367428.657 8      3412.816    20617566.912    85841366.859 8
      2654.414  
  19463382.743   103860340.844 9      -562.866    19463388.611    80780289.949 6
      -437.819  
  21427620.786   114382101.363 8      2810.758    21427628.993    88963897.307 7
      2186.145  
  22891256.451   122366889.563 5     -3880.316    22891264.883    95174257.558 6
     -3018.027  
  22273232.838   119104989.572 6     -2395.976    22273242.381    92637234.183 7
     -1863.543  
  19795859.846   105931643.617 9        91.327    19795865.057    82391302.999 8
        71.026  
 16  3  2  4 52  0.0000000  0 15G29G20G21G18G 5G26G15G25G13R 7R 6R22
                                R 5R20R21
  20226111.157   106288931.17849      -802.421    20226112.100    82822547.52948
      -625.269  
  20520495.857   107835935.37549     -1166.465    20520496.156    84028002.24748
      -908.934  
  20868230.014   109663295.79448      1586.827    20868229.991    85451920.73147
      1236.488  
  21549905.699   113245530.95049      3065.952    21549906.915    88243282.53446
      2389.055  
  23794454.755   125040696.38147     -3164.593    23794457.164    97434318.61745
     -2465.926  
  22717373.536   119380600.87248       825.473    22717378.475    93023869.81647
       643.223  
  22938991.645   120545231.89748      2177.851    22938994.559    93931357.12947
      1697.026  
  23826307.433   125208068.17947     -3621.030    23826314.558    97564748.57045
     -2821.589  
  23407472.389   123007096.79248       732.277    23407475.082    95849698.96344
       570.601  
  20598483.710   110265309.533 8      3395.355    20598490.033    85761940.981 8
      2640.832  
  19466622.180   103877626.821 9      -589.344    19466628.066    80793734.610 6
      -458.379  
  21411832.142   114297821.387 8      2808.257    21411840.288    88898346.280 7
      2184.198  
  22913059.669   122483440.851 5     -3889.855    22913068.167    95264908.465 5
     -3025.444  
  22286701.910   119177014.378 6     -2405.508    22286711.492    92693253.398 7
     -1870.952  
  19795382.773   105929090.771 9        78.984    19795388.022    82389317.462 8
        61.472  
 16  3  2  4 52 30.0000000  0 15G29G20G21G18G 5G26G15G25G13R 7R 6R22
                                R 5R20R21
  20230734.546   106313227.09549      -817.261    20230735.442    82841479.40348
      -636.832  
  20527195.210   107871140.74449     -1180.620    20527195.539    84055435.00648
      -919.969  
  20859197.385   109615829.47849      1577.565    20859197.409    85414934.03846
      1229.273  
  21532436.386   113153729.30649      3054.288    21532437.703    88171748.87446
      2379.965  
  23812533.017   125135699.13047     -3169.116    23812535.820    97508346.69245
     -2469.448  
  22712715.727   119356123.60948       806.488    22712720.609    93004796.63046
       628.430  
  22926586.339   120480041.47848      2168.137    22926589.235    93880559.49646
      1689.461  
  23846983.673   125316722.24047     -3622.598    23846990.933    97649413.90144
     -2822.812  
  23403338.197   122985371.74548       715.961    23403341.015    95832770.43444
       557.890  
  20579503.681   110163708.512 9      3378.026    20579510.091    85682918.048 8
      2627.354  
  19470009.547   103895702.459 9      -615.663    19470015.392    80807793.456 6
      -478.851  
  21396056.058   114213607.516 8      2806.077    21396064.207    88832846.665 7
      2182.503  
  22934916.006   122600275.751 5     -3899.358    22934924.169    95355779.997 6
     -3032.840  
  22300225.190   119249327.585 6     -2415.026    22300234.614    92749496.908 7
     -1878.363  
  19794974.054   105926903.503 9        66.815    19794979.415    82387616.258 8
        51.965  
 16  3  2  4 53  0.0000000  0 15G29G20G21G18G 5G26G15G25G13R 7R 6R22
                                R 5R20R21
  20235443.425   106337972.45349      -832.578    20235444.418    82860761.49848
      -648.766  
  20533975.546   107906771.55449     -1195.038    20533975.881    84083199.28048
      -931.203  
  20850218.169   109568643.72549      1567.781    20850218.281    85378165.94747
      1221.647  
  21515034.029   113062279.39849      3042.140    21515035.259    88100489.30446
      2370.500  
  23830638.212   125230843.20147     -3174.020    23830641.456    97582484.84045
     -2473.265  
  22708166.272   119332215.96448       787.155    22708170.911    92986167.31546
       613.363  
  22914236.731   120415144.97548      2157.891    22914239.584    93829990.86447
      1681.472  
  23867669.339   125425425.36647     -3624.308    23867676.643    97734117.45645
     -2824.140  
  23399298.133   122964141.06748       699.179    23399300.986    95816227.12744
       544.815  
  20560621.782   110062632.759 9      3360.187    20560628.059    85604303.671 8
      2613.479  
  19473545.104   103914568.715 9      -642.391    19473550.922    80822467.218 6
      -499.577  
  21380293.313   114129464.628 8      2803.035    21380301.260    88767402.234 8
      2180.137  
  22956825.247   122717393.045 5     -3908.613    22956833.405    95446871.108 5
     -3040.031  
  22313802.666   119321931.674 6     -2425.206    22313812.167    92805966.682 7
     -1886.281  
  19794634.561   105925086.620 9        54.121    19794639.672    82386203.136 8
        42.089  
 16  3  2  4 53 30.0000000  0 15G29G20G21G18G 5G26G15G25G13R 7R 6R22
                                R 5R20R21
  20240237.680   106363166.33849      -847.305    20240238.530    82880393.08748
      -660.241  
  20540836.178   107942824.42149     -1208.828    20540836.408    84111292.42648
      -941.948  
  20841292.142   109521737.07449      1558.917    20841292.220    85341615.34547
      1214.741  
  21497698.627   112971181.74649      3030.660    21497699.923    88029504.22046
      2361.554  
  23848769.742   125326124.47247     -3177.973    23848772.455    97656729.96646
     -2476.343  
  22703724.889   119308876.90548       768.582    22703729.599    92967981.04046
       598.890  
  22901943.155   120350542.67148      2148.476    22901945.981    93779651.49047
      1674.136  
  23888363.446   125534173.03947     -3625.796    23888370.577    97818855.71944
     -2825.305  
  23395351.983   122943404.91048       682.906    23395354.644    95800069.14145
       532.133  
  20541838.307   109962083.565 8      3342.698    20541844.467    85526098.836 8
      2599.883  
  19477228.317   103934222.858 9      -668.265    19477234.125    80837753.786 6
      -519.792  
  21364543.757   114045392.961 8      2800.925    21364552.061    88702013.228 8
      2178.491  
  22978786.273   122834787.469 4     -3917.605    22978794.326    95538177.825 5
     -3047.035  
  22327434.023   119394825.383 6     -2434.698    22327443.833    92862661.702 7
     -1893.659  
  19794364.330   105923640.282 9        41.995    19794369.539    82385078.209 8
        32.660  
 16  3  2  4 54  0.0000000  0 15G29G20G21G18G 5G26G15G25G13R 7R 6R22
                                R 5R20R21
  20245117.985   106388812.57649      -862.167    20245118.877    82900377.16548
      -671.820  
  20547777.369   107979300.68649     -1222.691    20547777.564    84139715.49048
      -952.746  
  20832419.994   109475113.27749      1549.531    20832420.097    85305285.13947
      1207.426  
  21480431.149   112880441.32049      3018.949    21480432.614    87958797.47746
      2352.430  
  23866927.486   125421544.21447     -3182.539    23866930.480    97731082.91946
     -2479.905  
  22699392.412   119286110.23948       749.516    22699397.342    92950240.80046
       584.039  
  22889706.854   120286240.88448      2138.515    22889709.613    93729546.29646
      1666.375  
  23909066.006   125642965.50647     -3626.890    23909073.472    97903628.86545
     -2826.160  
  23391500.914   122923167.58948       666.667    23391503.752    95784299.88044
       519.479  
  20523154.268   109862067.539 9      3325.117    20523160.618    85448308.687 8
      2586.202  
  19481059.440   103954666.681 9      -694.391    19481065.246    80853654.548 6
      -540.093  
  21348808.565   113961398.031 8      2798.602    21348816.929    88636683.905 8
      2176.691  
  23000799.611   122952458.159 5     -3926.531    23000807.104    95629699.430 5
     -3053.972  
  22341120.420   119468012.042 6     -2444.348    22341129.668    92919584.584 7
     -1901.163  
  19794164.132   105922569.262 9        29.612    19794169.403    82384245.199 8
        23.027  
 16  3  2  4 54 30.0000000  0 16G29G20G21G18G 5G26G15G25G16G13R 7R 6
                                R22R 5R20R21
  20250083.127   106414904.38849      -877.258    20250084.036    82920708.44448
      -683.581  
  20554797.522   108016191.77949     -1236.641    20554797.853    84168461.80548
      -963.617  
  20823600.376   109428765.81049      1540.266    20823600.357    85269170.27947
      1200.206  
  21463230.773   112790053.20349      3006.891    21463232.127    87888365.26446
      2343.030  
  23885109.934   125517093.43447     -3187.272    23885112.982    97805536.78846
     -2483.594  
  22695167.756   119263909.43048       730.476    22695172.677    92932941.46946
       569.198  
  22877527.137   120222235.41448      2128.237    22877529.624    93679671.96646
      1658.366  
  23929775.506   125751792.69347     -3628.434    23929782.744    97988429.09044
     -2827.363  
  24273715.210   127559239.00757      2626.581    24273715.276    99396800.03254
      2046.687  
  23387743.776   122903423.88748       649.863    23387746.545    95768915.24644
       506.387  
  20504569.386   109762581.333 8      3307.168    20504575.713    85370930.617 8
      2572.242  
  19485037.001   103975891.802 9      -720.585    19485042.919    80870162.991 6
      -560.457  
  21333086.962   113877474.390 8      2796.206    21333095.119    88571410.020 8
      2174.828  
  23022862.186   123070394.015 4     -3935.179    23022869.567    95721427.260 4
     -3060.694  
  22354860.309   119541484.527 6     -2454.128    22354869.838    92976729.762 7
     -1908.772  
  19794033.148   105921868.182 9        17.070    19794038.540    82383699.918 8
        13.272  
 16  3  2  4 55  0.0000000  0 16G29G20G21G18G 5G26G15G25G16G13R 7R 6
                                R22R 5R20R21
  20255134.135   106441447.70849      -892.398    20255135.097    82941391.53848
      -695.379  
  20561897.297   108053501.44149     -1250.809    20561897.661    84197534.26948
      -974.656  
  20814834.345   109382700.53749      1530.652    20814834.310    85233275.28247
      1192.714  
  21446098.866   112700024.67049      2994.711    21446100.030    87818213.25446
      2333.570  
  23903317.845   125612775.24647     -3191.582    23903320.630    97880094.03145
     -2486.945  
  22691051.998   119242280.38348       711.397    22691056.910    92916087.68846
       554.332  
  22865405.175   120158534.13448      2118.102    22865407.759    93630034.70646
      1650.473  
  23950491.943   125860657.18047     -3629.801    23950499.446    98073258.36444
     -2828.426  
  24258760.098   127480651.39348      2612.508    24258762.780    99335562.96543
      2035.719  
  23384081.929   122884180.99748       633.105    23384084.637    95753920.84745
       493.328  
  20486085.209   109663634.147 9      3289.105    20486091.505    85293971.797 8
      2558.191  
  19489161.753   103997902.147 9      -746.886    19489167.498    80887282.153 6
      -580.910  
  21317380.201   113793629.792 8      2793.391    21317388.251    88506197.609 8
      2172.636  
  23044974.204   123188596.674 5     -3944.511    23044982.057    95813362.560 5
     -3067.965  
  22368654.595   119615248.337 6     -2463.612    22368663.926    93034101.537 7
     -1916.148  
  19793972.569   105921544.294 9         4.172    19793977.843    82383448.012 8
         3.246  
 16  3  2  4 55 30.0000000  0 16G29G20G21G18G 5G26G15G25G16G13R 7R 6
                                R22R 5R20R21
  20260270.641   106468440.32049      -907.457    20260271.620    82962424.73948
      -707.112  
  20569075.902   108091225.39049     -1264.578    20569076.154    84226929.56248
      -985.391  
  20806121.641   109336914.99749      1521.348    20806121.571    85197598.25947
      1185.461  
  21429035.287   112610354.99049      2982.839    21429036.363    87748340.86146
      2324.288  
  23921549.772   125708584.39347     -3195.977    23921552.873    97954750.42446
     -2490.371  
  22687044.426   119221221.10348       692.347    22687049.320    92899677.86946
       539.491  
  22853340.920   120095137.14248      2108.000    22853343.652    93580634.54547
      1642.598  
  23971214.459   125969553.45947     -3630.253    23971222.154    98158112.39045
     -2828.780  
  24243883.155   127402473.03248      2598.878    24243885.034    99274644.74243
      2025.094  
  23380515.131   122865437.53548       616.370    23380517.772    95739315.62944
       480.289  
  20467701.831   109565226.799 9      3270.952    20467708.265    85217432.832 8
      2544.074  
  19493432.796   104020693.185 9      -772.835    19493438.727    80905008.524 6
      -601.097  
  21301687.913   113709863.415 8      2790.612    21301696.091    88441046.045 8
      2170.477  
  23067135.335   123307059.836 5     -3953.438    23067143.378    95905500.565 5
     -3074.641  
  22382502.532   119689300.855 5     -2473.453    22382511.923    93091697.867 7
     -1923.800  
  19793982.362   105921596.700 9        -8.320    19793987.518    82383488.780 8
        -6.472  
 16  3  2  4 56  0.0000000  0 16G29G20G21G18G 5G26G15G25G16G13R 7R 6
                                R22R 5R20R21
  20265493.443   106495886.14549      -922.176    20265494.415    82983811.08748
      -718.582  
  20576333.650   108129365.23949     -1277.977    20576333.873    84256648.92548
      -995.828  
  20797462.984   109291413.41649      1512.097    20797462.987    85162142.52447
      1178.257  
  21412040.970   112521049.47049      2971.008    21412042.051    87678752.24246
      2315.070  
  23939806.356   125804523.38647     -3199.897    23939809.359    98029508.02546
     -2493.430  
  22683145.970   119200735.39448       673.612    22683150.915    92883714.99146
       524.894  
  22841335.964   120032050.79648      2098.027    22841338.588    93531476.44446
      1634.828  
  23991942.877   126078481.99946     -3631.194    23991950.744    98242991.59645
     -2829.512  
  24229085.356   127324709.66748      2585.354    24229087.247    99214049.93344
      2014.563  
  23377044.225   122847198.36448       599.519    23377046.870    95725103.36544
       467.159  
  20449420.645   109467366.180 9      3253.058    20449426.876    85141319.107 8
      2530.155  
  19497850.448   104044266.719 9      -798.651    19497856.356    80923343.514 6
      -621.179  
  21286011.374   113626181.330 8      2788.183    21286019.451    88375960.041 8
      2168.586  
  23089345.295   123425782.927 5     -3961.714    23089352.917    95997840.706 5
     -3081.336  
  22396405.468   119763645.664 6     -2482.831    22396414.708    93149521.510 6
     -1931.094  
  19794063.430   105922030.699 9       -20.578    19794068.524    82383826.337 8
       -16.007  
 16  3  2  4 56 30.0000000  0 16G29G20G21G18G 5G26G15G25G16G13R 7R 6
                                R22R 5R20R21
  20270802.343   106523784.13449      -937.137    20270803.278    83005549.77648
      -730.241  
  20583669.853   108167917.33849     -1291.676    20583670.087    84286689.52448
     -1006.504  
  20788858.086   109246194.31449      1502.844    20788858.072    85126906.89847
      1171.046  
  21395116.134   112432108.51549      2958.910    21395117.008    87609447.67547
      2305.645  
  23958086.796   125900587.09248     -3203.913    23958090.034    98104362.77146
     -2496.562  
  22679356.582   119180822.15148       654.445    22679361.615    92868198.18947
       509.956  
  22829390.237   119969275.82848      2087.491    22829392.916    93482560.97547
      1626.617  
  24012676.660   126187438.35447     -3632.098    24012684.503    98327892.43245
     -2830.214  
  24214366.580   127247362.25848      2571.660    24214368.622    99153779.28144
      2003.890  
  23373669.483   122829463.72848       583.253    23373671.933    95711284.25244
       454.483  
  20431241.924   109370053.940 9      3234.956    20431247.950    85065631.895 8
      2516.078  
  19502414.144   104068619.663 9      -824.426    19502419.939    80942284.703 6
      -641.218  
  21270350.729   113542583.555 8      2785.418    21270358.722    88310939.596 8
      2166.438  
  23111602.259   123544760.563 5     -3969.785    23111610.156    96090378.760 5
     -3087.609  
  22410362.694   119838281.161 6     -2492.589    22410372.211    93207571.262 6
     -1938.688  
  19794215.850   105922846.358 9       -33.276    19794220.988    82384460.745 8
       -25.886  
 16  3  2  4 57  0.0000000  0 16G29G20G21G18G 5G26G15G25G16G13R 7R 6
                                R22R 5R20R21
  20276197.304   106552134.90949      -952.229    20276198.264    83027641.27948
      -742.000  
  20591084.389   108206881.02049     -1305.270    20591084.654    84317050.84348
     -1017.094  
  20780307.055   109201258.49948      1493.507    20780307.046    85091892.00247
      1163.772  
  21378261.006   112343534.81449      2946.734    21378261.937    87540429.29047
      2296.156  
  23976390.805   125996774.36947     -3207.844    23976393.701    98179313.85646
     -2499.620  
  22675676.370   119161482.25448       635.460    22675681.357    92853128.14946
       495.163  
  22817504.326   119906815.53748      2077.109    22817507.093    93433890.70647
      1618.526  
  24033415.451   126296420.03047     -3632.520    24033423.273    98412813.01345
     -2830.547  
  24199727.378   127170433.88947      2557.734    24199730.060    99093835.16245
      1993.038  
  23370391.207   122812235.42848       565.977    23370393.618    95697859.63245
       441.020  
  20413166.387   109273294.548 9      3216.363    20413172.613    84990374.667 8
      2501.616  
  19507123.647   104093750.597 9      -850.327    19507129.422    80961830.991 6
      -661.371  
  21254706.275   113459072.618 8      2782.546    21254714.122    88245986.681 7
      2164.202  
  23133906.365   123663989.072 5     -3977.996    23133914.156    96183112.041 4
     -3093.991  
  22424374.635   119913207.715 6     -2502.194    22424383.788    93265847.381 7
     -1946.156  
  19794439.983   105924045.990 9       -46.137    19794445.257    82385393.788 8
       -35.887  
 16  3  2  4 57 30.0000000  0 16G29G20G21G18G 5G26G15G25G16G13R 7R 6
                                R22R 5R20R21
  20281677.937   106580936.01649      -967.218    20281678.863    83050083.69748
      -753.679  
  20598576.357   108246251.14049     -1318.769    20598576.622    84347728.85748
     -1027.616  
  20771809.385   109156603.28549      1484.105    20771809.364    85057095.75747
      1156.445  
  21361475.421   112255327.00149      2934.434    21361476.776    87471696.01846
      2286.569  
  23994717.300   126093080.15848     -3211.780    23994720.306    98254357.23646
     -2502.695  
  22672104.728   119142713.05648       616.479    22672109.739    92838502.81246
       480.371  
  22805678.206   119844669.16848      2066.590    22805680.824    93385465.04747
      1610.328  
  24054157.900   126405421.05747     -3633.530    24054165.718    98497748.67146
     -2831.331  
  24185167.958   127093923.93448      2543.644    24185170.004    99034217.13144
      1982.063  
  23367208.604   122795511.92448       549.269    23367210.857    95684828.41344
       428.004  
  20395194.155   109177088.067 9      3197.914    20395200.240    84915547.501 8
      2487.266  
  19511978.087   104119654.728 9      -876.082    19511983.954    80981978.666 6
      -681.397  
  21239078.005   113375647.851 8      2779.722    21239085.677    88181100.808 7
      2162.007  
  23156256.111   123783461.677 5     -3986.187    23156264.456    96276035.105 6
     -3100.285  
  22438440.151   119988422.348 6     -2511.503    22438449.253    93324347.598 6
     -1953.395  
  19794735.606   105925628.021 9       -58.820    19794740.900    82386624.264 8
       -45.754  
 16  3  2  4 58  0.0000000  0 15G29G20G21G18G 5G26G15G25G16G13R 7R 6
                                R22R20R21
  20287244.800   106610190.17349      -982.937    20287245.789    83072879.13948
      -765.929  
  20606145.714   108286028.53449     -1332.870    20606145.926    84378724.23648
     -1038.602  
  20763365.787   109112232.12449      1474.042    20763365.706    85022520.86147
      1148.605  
  21344760.432   112167489.23349      2921.543    21344761.806    87403251.07346
      2276.527  
  24013066.634   126189505.43348     -3216.344    24013069.663    98329493.78946
     -2506.249  
  22668642.372   119124517.56448       596.680    22668647.293    92824324.52046
       464.945  
  22793912.882   119782842.22348      2055.175    22793915.487    93337288.30246
      1601.438  
  24074903.918   126514441.14847     -3634.586    24074911.327    98582699.18745
     -2832.151  
  24170689.320   127017837.55247      2528.835    24170691.657    98974929.06744
      1970.520  
  23364123.048   122779296.96448       531.632    23364125.015    95672193.43644
       414.253  
  20377326.289   109081440.417 9      3178.621    20377332.466    84841154.958 8
      2472.262  
  19516977.599   104146333.239 9      -902.460    19516983.340    81002728.630 6
      -701.913  
  21223466.831   113292313.874 8      2775.976    21223474.479    88116285.539 8
      2159.094  
  22452560.234   120063927.684 6     -2521.933    22452569.322    93383073.885 6
     -1961.507  
  19795103.537   105927596.800 9       -72.401    19795108.762    82388155.542 8
       -56.313  
 16  3  2  4 58 30.0000000  0 15G29G20G21G18G 5G26G15G25G16G13R 7R 6
                                R22R20R21
  20292897.538   106639895.51149      -997.843    20292898.486    83096026.14848
      -777.543  
  20613791.832   108326209.40549     -1346.276    20613792.109    84410034.01348
     -1049.046  
  20754975.828   109068142.72049      1464.808    20754975.774    84988165.52047
      1141.410  
  21328115.732   112080021.39849      2909.273    21328117.097    87335094.39847
      2266.964  
  24031437.468   126286045.40947     -3219.992    24031440.541    98404719.64846
     -2509.094  
  22665288.742   119106893.90148       577.828    22665293.561    92810591.79946
       450.250  
  22782208.534   119721335.17748      2044.581    22782210.967    93289360.81347
      1593.179  
  24095652.703   126623475.28147     -3634.792    24095660.328    98667660.66046
     -2832.312  
  24156291.164   126942174.92047      2514.632    24156293.351    98915971.22144
      1959.456  
  23361134.147   122763589.96448       514.851    23361136.205    95659954.29044
       401.183  
  20359563.011   108986352.666 9      3160.055    20359569.324    84767197.898 8
      2457.820  
  19522121.485   104173781.749 9      -927.983    19522127.251    81024077.488 6
      -721.765  
  21207872.437   113209070.502 8      2773.104    21207880.285    88051540.744 8
      2156.858  
  22466733.991   120139721.287 6     -2531.733    22466743.198    93442024.372 6
     -1969.128  
  19795543.613   105929951.829 9       -85.191    19795548.849    82389987.236 8
       -66.261  
 16  3  2  4 59  0.0000000  0 15G29G20G21G18G 5G26G15G25G16G13R 7R 6
                                R22R20R21
  20298637.020   106670056.65949     -1013.090    20298637.976    83119528.33448
      -789.426  
  20621515.209   108366796.12049     -1359.805    20621515.556    84441660.02148
     -1059.593  
  20746640.433   109024339.98349      1455.281    20746640.368    84954033.55247
      1133.984  
  21311542.714   111992929.72549      2896.754    21311543.969    87267230.83546
      2257.210  
  24049830.830   126382702.05848     -3223.984    24049833.539    98480036.49545
     -2512.198  
  22662044.615   119089846.55448       558.601    22662049.568    92797308.15646
       435.269  
  22770566.200   119660154.92648      2033.765    22770568.853    93241687.98846
      1584.754  
  24116403.904   126732524.73647     -3635.413    24116412.286    98752634.02245
     -2832.801  
  24141974.989   126866942.66047      2500.363    24141976.887    98857348.69444
      1948.335  
  23358242.981   122748396.50548       497.684    23358244.981    95648115.30345
       387.804  
  20341905.800   108891832.669 9      3141.008    20341911.859    84693682.416 8
      2443.008  
  19527410.017   104202002.526 9      -953.570    19527415.777    81046026.991 6
      -741.668  
  21192296.258   113125924.365 8      2769.776    21192304.150    87986871.580 7
      2154.269  
  22480962.653   120215807.400 6     -2541.156    22480971.693    93501202.367 6
     -1976.460  
  19796057.004   105932699.183 9       -98.229    19796062.176    82392124.069 8
       -76.402  
 16  3  2  4 59 30.0000000  0 15G29G20G21G18G 5G26G15G25G16G13R 7R 6
                                R22R20R21
  20304462.529   106700669.85249     -1028.085    20304463.570    83143382.76548
      -801.105  
  20629314.757   108407782.71049     -1372.921    20629315.016    84473597.63148
     -1069.808  
  20738358.852   108980820.08049      1445.944    20738358.842    84920121.96347
      1126.711  
  21295040.763   111906211.67149      2884.261    21295041.839    87199658.40147
      2247.477  
  24068244.788   126479469.18348     -3227.441    24068248.047    98555439.35846
     -2514.897  
  22658909.559   119073371.72348       539.437    22658914.555    92784470.64646
       420.340  
  22758985.705   119599299.73248      2023.043    22758988.550    93194268.45947
      1576.401  
  24137156.999   126841582.51347     -3635.519    24137165.540    98837613.90845
     -2832.878  
  24127740.033   126792139.33547      2486.336    24127742.292    98799060.44244
      1937.406  
  23355449.037   122733713.72748       480.691    23355450.966    95636674.22044
       374.562  
  20324354.484   108797879.634 9      3122.011    20324360.652    84620607.903 8
      2428.230  
  19532842.201   104230989.915 9      -979.082    19532847.995    81068572.744 6
      -761.508  
  21176737.895   113042873.265 8      2766.684    21176745.748    87922276.324 7
      2151.863  
  22495245.341   120292181.913 6     -2550.836    22495254.356    93560604.720 7
     -1983.987  
  19796643.209   105935836.146 9      -111.148    19796648.568    82394563.941 8
       -86.453  
 16  3  2  5  0  0.0000000  0 14G29G20G21G18G 5G26G15G16G13R 7R 6R22
                                R20R21
  20310374.835   106731739.19949     -1042.957    20310375.839    83167592.64148
      -812.699  
  20637190.713   108449171.13849     -1385.922    20637190.935    84505848.36048
     -1079.941  
  20730131.808   108937587.20149      1436.535    20730131.893    84886434.04647
      1119.379  
  21278610.979   111819873.04449      2871.940    21278612.102    87132381.62546
      2237.874  
  24086680.600   126576348.99648     -3230.871    24086683.444    98630930.07245
     -2517.562  
  22655884.348   119057473.51048       520.460    22655889.319    92772082.43646
       405.550  
  22747468.248   119538776.02648      2012.147    22747471.081    93147107.22247
      1567.905  
  24113588.257   126717771.13048      2471.909    24113591.099    98741111.23443
      1926.164  
  23352753.045   122719546.69948       463.809    23352755.206    95625635.06544
       361.413  
  20306910.436   108704500.594 9      3103.187    20306916.666    84547979.838 8
      2413.590  
  19538418.375   104260745.823 9     -1004.332    19538424.168    81091716.245 6
      -781.038  
  21161198.444   112959923.342 8      2763.703    21161206.494    87857759.757 8
      2149.547  
  22509582.348   120368848.739 6     -2560.145    22509591.866    93620234.376 7
     -1991.229  
  19797303.300   105939368.519 9      -124.078    19797308.729    82397311.343 8
       -96.508  
 16  3  2  5  0 30.0000000  0 14G29G20G21G18G 5G26G15G16G13R 7R 6R22
                                R20R21
  20316372.983   106763259.86949     -1058.284    20316374.052    83192154.19548
      -824.641  
  20645141.805   108490954.62749     -1399.402    20645142.147    84538406.93248
     -1090.444  
  20721958.537   108894636.43349      1426.905    20721958.685    84852965.93847
      1111.874  
  21262252.812   111733910.38849      2859.039    21262253.825    87065397.80947
      2227.824  
  24105136.314   126673333.70948     -3234.675    24105139.268    98706502.52145
     -2520.526  
  22652967.771   119042147.07248       501.163    22652972.712    92760139.76247
       390.516  
  22736013.527   119478581.06048      2000.879    22736016.165    93100202.13347
      1559.124  
  24099518.773   126643835.39447      2457.344    24099521.484    98683498.95043
      1914.805  
  23350154.485   122705891.85848       446.448    23350156.711    95614994.97345
       347.882  
  20289573.251   108611693.661 9      3083.906    20289579.212    84475796.753 8
      2398.594  
  19544137.143   104291262.577 9     -1030.077    19544143.087    81115451.505 6
      -801.171  
  21145677.388   112877071.356 8      2760.171    21145685.661    87793319.389 7
      2146.800  
  22523973.160   120445802.410 6     -2569.828    22523982.710    93680087.134 6
     -1998.762  
  19798036.575   105943292.644 9      -137.379    19798041.985    82400363.442 8
      -106.855  
 16  3  2  5  1  0.0000000  0 14G29G20G21G18G 5G26G15G16G13R 7R 6R22
                                R20R21
  20322457.518   106795234.37949     -1073.488    20322458.598    83217069.39548
      -836.484  
  20653168.233   108533133.69849     -1412.656    20653168.506    84571273.74648
     -1100.773  
  20713839.509   108851970.53049      1417.140    20713839.582    84819719.81947
      1104.265  
  21245967.034   111648327.92349      2846.266    21245968.035    86998710.25247
      2217.870  
  24123611.954   126770423.75947     -3238.340    24123615.217    98782157.03845
     -2523.387  
  22650160.451   119027394.66148       482.105    22650165.395    92748644.39547
       375.668  
  22724622.195   119418719.74048      1989.664    22724624.884    93053557.05347
      1550.390  
  24085532.477   126570336.38248      2442.612    24085535.053    98626226.97743
      1903.331  
  23347653.984   122692752.79548       429.082    23347656.516    95604756.81345
       334.355  
  20272344.057   108519464.494 9      3064.500    20272350.105    84404063.027 8
      2383.500  
  19549998.725   104322541.072 9     -1055.371    19550004.607    81139779.240 6
      -820.844  
  21130175.528   112794321.970 8      2756.363    21130183.773    87728958.800 7
      2143.840  
  22538418.023   120523044.958 6     -2579.613    22538427.319    93740164.630 6
     -2006.371  
  19798843.854   105947612.272 9      -150.796    19798849.174    82403723.156 8
      -117.284  
 16  3  2  5  1 30.0000000  0 14G29G20G21G18G 5G26G15G16G13R 7R 6R22
                                R20R21
  20328628.463   106827662.66249     -1088.328    20328629.470    83242338.17648
      -848.050  
  20661269.505   108575706.04149     -1425.409    20661269.686    84604447.00448
     -1110.714  
  20705774.865   108809590.38349      1408.038    20705774.724    84786696.35147
      1097.172  
  21229753.689   111563127.06249      2833.772    21229754.693    86932320.04747
      2208.136  
  24142107.290   126867617.06547     -3241.233    24142109.949    98857892.02945
     -2525.640  
  22647462.423   119013216.40048       462.992    22647467.267    92737596.41647
       360.773  
  22713294.801   119359194.41448      1978.632    22713297.488    93007173.76147
      1541.792  
  24071629.760   126497276.58347      2428.233    24071631.974    98569297.25644
      1892.125  
  23345252.100   122680130.27648       412.199    23345254.603    95594921.13044
       321.199  
  20255223.297   108427815.757 9      3045.453    20255229.437    84332780.752 8
      2368.687  
  19556002.590   104354578.567 9     -1080.438    19556008.460    81164697.302 6
      -840.284  
  21114693.231   112711677.137 8      2753.094    21114701.511    87664679.537 8
      2141.297  
  22552916.803   120600576.327 6     -2588.941    22552925.758    93800466.734 6
     -2013.624  
  19799725.332   105952329.055 9      -163.679    19799730.591    82407391.775 8
      -127.309  
 16  3  2  5  2  0.0000000  0 14G29G20G21G18G 5G26G15G16G13R 7R 6R22
                                R20R21
  20334886.087   106860546.38649     -1103.824    20334887.079    83267961.85148
      -860.125  
  20669445.575   108618671.67549     -1438.819    20669445.791    84637926.72648
     -1121.163  
  20697764.698   108767497.04449      1398.308    20697764.622    84753896.38847
      1089.589  
  21213613.700   111478311.34749      2820.733    21213614.741    86866229.95547
      2197.976  
  24160622.045   126964913.13147     -3245.190    24160624.836    98933707.08445
     -2528.723  
  22644873.988   118999614.14348       443.676    22644878.876    92726997.26446
       345.722  
  22702032.205   119300009.25648      1967.054    22702034.650    92961055.54047
      1532.769  
  24057811.110   126424660.11446      2413.206    24057813.470    98512713.07143
      1880.418  
  23342948.776   122668027.35548       394.339    23342951.188    95585490.34445
       307.281  
  20238211.838   108336752.836 9      3025.496    20238217.768    84261954.110 8
      2353.163  
  19562148.573   104387374.522 9     -1105.983    19562154.463    81190205.278 6
      -860.210  
  21099231.417   112629140.861 8      2749.183    21099239.632    87600484.718 8
      2138.258  
  22567469.828   120678397.922 6     -2599.733    22567479.320    93860994.539 7
     -2022.022  
  19800681.603   105957446.379 9      -177.383    19800687.027    82411371.915 8
      -137.969  
 16  3  2  5  2 30.0000000  0 14G29G20G21G18G 5G26G15G16G13R 7R 6R22
                                R20R21
  20341230.334   106893885.47149     -1118.750    20341231.264    83293940.35448
      -871.758  
  20677696.027   108662028.21849     -1451.515    20677696.292    84671711.05348
     -1131.055  
  20689809.103   108725690.39149      1388.933    20689809.006    84721319.81247
      1082.284  
  21197547.295   111393881.91449      2808.004    21197548.273    86800440.85947
      2188.054  
  24179155.894   127062309.45047     -3247.859    24179158.623    99009600.25145
     -2530.809  
  22642394.875   118986587.28848       424.765    22642400.081    92716846.48047
       330.980  
  22690834.698   119241166.33648      1955.847    22690837.137    92915204.00147
      1524.039  
  24044076.973   126352488.49246      2398.370    24044079.663    98456475.55243
      1868.859  
  23340744.530   122656444.46448       377.503    23340747.186    95576464.76144
       294.159  
  20221310.301   108246278.022 9      3006.172    20221316.361    84191584.886 8
      2338.132  
  19568436.239   104420926.618 9     -1130.832    19568442.047    81216301.367 6
      -879.539  
  21083790.300   112546714.815 8      2745.882    21083798.583    87536375.600 8
      2135.688  
  22582076.929   120756508.847 6     -2608.136    22582086.552    93921747.409 6
     -2028.559  
  19801712.939   105962965.013 9      -190.519    19801718.175    82415664.195 8
      -148.188  
 16  3  2  5  3  0.0000000  0 14G29G20G21G18G 5G26G15G16G13R 7R 6R22
                                R20R21
  20347660.721   106927677.60549     -1133.809    20347661.791    83320271.88148
      -883.491  
  20686020.057   108705771.25949     -1464.339    20686020.340    84705796.54448
     -1141.047  
  20681907.788   108684168.76549      1379.460    20681907.771    84688965.32847
      1074.905  
  21181554.332   111309838.45249      2795.227    21181555.239    86734952.52747
      2178.098  
  24197707.601   127159800.73446     -3250.680    24197710.790    99085567.40044
     -2533.000  
  22640025.058   118974133.56348       405.604    22640030.020    92707142.28847
       316.055  
  22679702.307   119182665.63548      1944.444    22679704.864    92869619.14347
      1515.152  
  24030427.575   126280761.76346      2383.503    24030430.842    98400584.72643
      1857.280  
  23338639.055   122645380.43148       360.523    23338641.603    95567843.49845
       280.929  
  20204518.720   108156391.909 9      2986.515    20204524.898    84121673.539 8
      2322.844  
  19574864.661   104455229.971 9     -1155.675    19574870.460    81242981.760 6
      -898.863  
  21068369.655   112464398.522 8      2742.190    21068377.884    87472351.876 8
      2132.816  
  22596737.635   120834906.789 6     -2618.108    22596747.271    93982723.518 6
     -2036.315  
  19802819.088   105968884.272 9      -203.789    19802824.310    82420268.071 8
      -158.504  
 16  3  2  5  3 30.0000000  0 15G29G20G21G18G 5G26G15G10G16G13R 7R 6
                                R22R20R21
  20354178.444   106961928.62749     -1148.727    20354179.487    83346960.97748
      -895.116  
  20694418.410   108749904.87249     -1476.996    20694418.648    84740186.37148
     -1150.910  
  20674061.881   108642938.33849      1370.218    20674061.867    84656837.75447
      1067.703  
  21165636.091   111226187.93349      2782.398    21165636.961    86669770.36946
      2168.101  
  24216278.635   127257391.76847     -3254.062    24216281.992    99161612.30545
     -2535.637  
  22637765.370   118962258.85548       387.003    22637770.365    92697889.28546
       301.563  
  22668636.694   119124515.59948      1933.124    22668639.153    92824307.49947
      1506.331  
  24189914.428   127118860.23857      3472.276    24189922.164    99053661.49755
      2705.671  
  24016864.959   126209488.39047      2368.914    24016867.823    98345047.05744
      1845.902  
  23336633.429   122634842.35548       343.086    23336636.066    95559632.06745
       267.339  
  20187839.047   108067104.155 9      2966.977    20187844.943    84052227.580 8
      2307.648  
  19581434.633   104490288.447 9     -1180.491    19581440.337    81270249.473 6
      -918.159  
  21052971.140   112382200.547 8      2738.801    21052979.142    87408420.158 7
      2130.180  
  22611453.225   120913597.288 6     -2627.105    22611462.734    94043927.190 6
     -2043.309  
  19804001.485   105975211.644 9      -217.059    19804006.671    82425189.363 8
      -168.827  
 16  3  2  5  4  0.0000000  0 15G29G20G21G18G 5G26G15G10G16G13R 7R 6
                                R22R20R21
  20360779.475   106996617.37149     -1164.418    20360780.594    83373991.15748
      -907.344  
  20702886.562   108794405.56049     -1490.194    20702886.796    84774862.23948
     -1161.190  
  20666267.340   108601977.78349      1359.940    20666267.308    84624920.46347
      1059.695  
  21149788.885   111142910.71049      2768.832    21149789.713    86604879.10147
      2157.531  
  24234864.194   127355058.16847     -3257.211    24234867.493    99237715.91945
     -2538.089  
  22635611.720   118950941.66248       367.195    22635616.817    92689070.71046
       286.121  
  22657634.172   119066697.02148      1920.863    22657636.596    92779254.15147
      1496.777  
  24170108.741   127014776.90147      3466.250    24170115.458    98972557.81645
      2700.977  
  24003384.463   126138648.65846      2353.003    24003387.097    98289847.29744
      1833.507  
  23334724.222   122624809.78148       325.141    23334727.002    95551814.51745
       253.355  
  20171267.508   107978395.534 9      2946.488    20171273.526    83983232.055 8
      2291.715  
  19588141.500   104526077.981 9     -1205.987    19588147.260    81298085.787 6
      -937.992  
  21037591.127   112300100.838 8      2734.245    21037598.984    87344564.875 8
      2126.636  
  22626219.553   120992558.355 6     -2636.973    22626229.185    94105341.273 6
     -2050.984  
  19805256.405   105981926.847 9      -231.171    19805261.634    82430412.294 8
      -179.805  
 16  3  2  5  4 30.0000000  0 15G29G20G21G18G 5G26G15G10G16G13R 7R 6
                                R22R20R21
  20367471.248   107031782.69049     -1179.516    20367472.323    83401392.69848
      -919.104  
  20711431.651   108839310.33849     -1503.027    20711431.914    84809852.97448
     -1171.194  
  20658531.585   108561326.70749      1350.465    20658531.621    84593244.33747
      1052.308  
  21134020.500   111060047.44449      2755.750    21134021.369    86540310.40246
      2147.335  
  24253470.552   127452836.89147     -3260.808    24253473.405    99313907.04845
     -2540.894  
  22633571.617   118940221.06748       348.058    22633576.777    92680716.99347
       271.211  
  22646702.604   119009251.52449      1909.058    22646704.995    92734491.50947
      1487.577  
  24150336.481   126910878.16047      3461.132    24150344.127    98891597.95545
      2696.995  
  23989993.654   126068283.97845      2337.831    23989996.625    98235017.74043
      1821.688  
  23332918.764   122615322.56448       307.586    23332921.376    95544421.94045
       239.675  
  20154812.131   107890308.894 9      2926.465    20154817.987    83914720.298 8
      2276.141  
  19594992.402   104562635.925 9     -1230.745    19594998.122    81326519.751 6
      -957.249  
  21022237.380   112218141.650 8      2730.151    21022245.261    87280818.883 8
      2123.453  
  22641043.715   121071829.219 5     -2646.597    22641052.780    94166996.301 6
     -2058.464  
  19806591.471   105989071.086 9      -244.741    19806596.729    82435968.929 8
      -190.358  
 16  3  2  5  5  0.0000000  0 15G29G20G21G18G 5G26G15G10G16G13R 7R 6
                                R22R20R21
  20374248.111   107067394.99949     -1194.683    20374249.096    83429142.54648
      -930.922  
  20720047.609   108884587.43949     -1515.593    20720047.926    84845133.82448
     -1180.984  
  20650849.087   108520955.18849      1341.069    20650849.183    84561786.03947
      1044.987  
  21118325.395   110977569.64349      2742.840    21118326.272    86476042.07047
      2137.276  
  24272093.057   127550696.72247     -3263.965    24272095.995    99390161.41145
     -2543.351  
  22631639.311   118930066.94748       328.793    22631644.524    92672804.70846
       256.203  
  22635836.665   118952151.43948      1897.398    22635839.160    92689998.04347
      1478.492  
  24130594.535   126807135.81747      3455.144    24130602.131    98810759.94045
      2692.320  
  23976688.880   125998366.67346      2323.090    23976691.346    98180536.75444
      1810.198  
  23331211.637   122606352.05048       290.309    23331214.257    95537431.97944
       226.215  
  20138467.775   107802816.870 9      2906.312    20138473.775    83846671.023 8
      2260.457  
  19601981.117   104599929.016 9     -1255.441    19601986.862    81355525.492 6
      -976.457  
  21006904.604   112136294.531 8      2726.089    21006912.541    87217160.057 8
      2120.292  
  22655920.147   121151379.341 6     -2656.438    22655929.650    94228868.534 6
     -2066.121  
  19808001.248   105996615.309 9      -258.367    19808006.541    82441836.662 8
      -200.952  
 16  3  2  5  5 30.0000000  0 15G29G20G21G18G 5G26G15G10G16G13R 7R 6
                                R22R20R21
  20381111.317   107103461.42549     -1209.960    20381112.351    83457246.23948
      -942.831  
  20728735.297   108930241.48749     -1528.288    20728735.611    84880708.40948
     -1190.879  
  20643221.245   108480870.79949      1331.019    20643221.384    84530551.47747
      1037.156  
  21102705.461   110895486.58749      2729.300    21102706.433    86412081.31647
      2126.726  
  24290731.509   127648641.89047     -3266.438    24290734.376    99466482.27845
     -2545.276  
  22629816.191   118920486.29548       309.589    22629821.459    92665339.28447
       241.238  
  22625038.412   118895406.24048      1885.359    22625040.825    92645781.07547
      1469.109  
  24110884.363   126703558.63047      3449.516    24110892.112    98730050.61244
      2687.938  
  23963471.244   125928906.15046      2307.207    23963473.612    98126411.78045
      1797.828  
  23329604.340   122597906.18148       272.617    23329607.311    95530850.83445
       212.429  
  20122236.419   107715929.556 9      2885.887    20122242.520    83779092.073 8
      2244.578  
  19609108.551   104637962.398 9     -1280.140    19609114.425    81385107.025 6
      -995.667  
  20991594.655   112054569.046 8      2721.886    20991602.479    87153595.836 8
      2117.023  
  22670850.231   121231215.678 5     -2666.288    22670859.238    94290963.376 6
     -2073.785  
  19809487.486   106004568.498 9      -272.034    19809492.731    82448022.473 8
      -211.586  
 16  3  2  5  6  0.0000000  0 15G29G20G21G18G 5G26G15G10G16G13R 7R 6
                                R22R20R21
  20388061.282   107139983.64049     -1225.374    20388062.387    83485705.10248
      -954.839  
  20737494.836   108976273.10949     -1541.046    20737495.131    84916577.21148
     -1200.820  
  20635648.482   108441075.72049      1321.371    20635648.685    84499542.35147
      1029.641  
  21087161.199   110813801.47149      2715.968    21087162.223    86348430.65547
      2116.339  
  24309386.188   127746672.60747     -3269.261    24309389.318    99542869.77044
     -2547.479  
  22628102.471   118911480.88448       290.210    22628107.620    92658322.08747
       226.136  
  22614308.462   118839020.34548      1873.163    22614310.821    92601844.09347
      1459.608  
  24091206.133   126600150.11647      3443.488    24091213.905    98649472.74045
      2683.246  
  23950341.155   125859906.65846      2291.813    23950343.860    98072646.01645
      1785.827  
  23328097.738   122589987.90448       254.699    23328100.353    95524680.78045
       198.469  
  20106119.059   107629651.942 9      2865.425    20106124.950    83711987.330 8
      2228.664  
  19616374.613   104676735.438 9     -1305.129    19616380.326    81415263.836 6
     -1015.105  
  20976308.221   111972969.180 8      2717.534    20976315.936    87090129.322 8
      2113.636  
  22685833.907   121311339.723 6     -2675.632    22685843.098    94353282.000 6
     -2081.050  
  19811050.807   106012933.865 9      -285.976    19811055.934    82454528.874 8
      -222.429  
 16  3  2  5  6 30.0000000  0 14G29G20G21G18G26G15G10G16G13R 7R 6R22
                                R20R21
  20395098.277   107176963.23649     -1240.121    20395099.179    83514520.36848
      -966.332  
  20746326.065   109022681.59349     -1553.090    20746326.379    84952739.66348
     -1210.203  
  20628131.082   108401571.52048      1311.952    20628131.209    84468759.88847
      1022.301  
  21071693.251   110732517.10449      2702.762    21071694.271    86285092.25747
      2106.047  
  22626498.590   118903051.96148       271.421    22626503.664    92651754.09047
       211.491  
  22603647.503   118782997.34848      1861.378    22603649.890    92558189.89647
      1450.426  
  24071560.693   126496913.38047      3438.176    24071568.395    98569028.69045
      2679.097  
  23937299.350   125791371.32746      2277.007    23937301.802    98019241.93945
      1774.293  
  23326691.860   122582599.61848       237.418    23326694.442    95518923.74944
       185.000  
  20090116.336   107543988.271 9      2845.285    20090122.250    83645360.096 8
      2212.999  
  19623779.100   104716247.259 9     -1329.323    19623784.863    81445995.257 6
     -1033.906  
  20961046.039   111891499.052 8      2713.555    20961053.997    87026763.712 8
      2110.542  
  22700871.608   121391752.659 5     -2685.144    22700880.860    94415825.309 7
     -2088.452  
  19812691.635   106021714.268 9      -299.569    19812696.784    82461358.075 8
      -233.004  
 16  3  2  5  7  0.0000000  0 14G29G20G21G18G26G15G10G16G13R 7R 6R22
                                R20R21
  20402221.315   107214395.33849     -1255.421    20402222.337    83543688.22748
      -978.254  
  20755227.808   109069460.35249     -1565.531    20755228.011    84989190.64148
     -1219.897  
  20620668.134   108362353.86649      1302.284    20620668.268    84438200.70547
      1014.769  
  21056301.061   110651630.59949      2689.461    21056301.862    86222063.88547
      2095.683  
  22625003.535   118895194.61548       252.344    22625008.384    92645631.48347
       196.629  
  22593055.265   118727335.01048      1849.301    22593057.590    92514816.72747
      1441.012  
  24051947.287   126393845.36447      3432.738    24051955.303    98488716.13845
      2674.866  
  23924345.882   125723298.08147      2261.300    23924348.171    97966197.92145
      1762.047  
  23325386.043   122575737.53748       219.801    23325388.425    95513576.70145
       171.269  
  20074227.982   107458936.761 9      2824.730    20074233.772    83579208.988 8
      2197.011  
  19631320.681   104756490.610 9     -1353.667    19631326.436    81477295.648 6
     -1052.801  
  20945807.770   111810155.952 8      2709.241    20945815.841    86963496.911 8
      2107.187  
  22715962.280   121472449.297 5     -2694.906    22715971.576    94478589.237 7
     -2096.046  
  19814409.481   106030906.430 9      -313.391    19814414.610    82468507.526 8
      -243.753  
 16  3  2  5  7 30.0000000  0 14G29G20G21G18G26G15G10G16G13R 7R 6R22
                                R20R21
  20409431.176   107252283.15849     -1270.258    20409432.179    83573211.19948
      -989.812  
  20764200.127   109116610.26749     -1577.534    20764200.304    85025930.83648
     -1229.253  
  20613260.441   108323426.14649      1292.960    20613260.377    84407867.44247
      1007.503  
  21040985.443   110571146.61049      2676.296    21040986.209    86159349.16047
      2085.426  
  22623617.624   118887911.85248       233.234    22623622.614    92639956.61047
       181.741  
  22582532.715   118672038.67148      1837.316    22582534.989    92471728.74947
      1431.676  
  24032367.170   126290950.99547      3427.050    24032375.093    98408538.88946
      2670.433  
  23911480.960   125655692.33047      2245.910    23911483.303    97913518.15845
      1750.054  
  23324181.161   122569405.52448       202.422    23324183.243    95508642.71344
       157.726  
  20058455.146   107374503.533 9      2804.265    20058460.796    83513538.774 8
      2181.094  
  19638999.484   104797466.083 9     -1377.640    19639005.185    81509165.460 6
     -1071.500  
  20930594.190   111728945.359 8      2705.007    20930602.338    86900333.179 8
      2103.895  
  22731106.184   121553432.528 6     -2703.827    22731116.034    94541576.121 7
     -2102.979  
  19816205.103   106040515.013 9      -326.992    19816210.182    82475980.874 8
      -254.331  
 16  3  2  5  8  0.0000000  0 14G29G20G21G18G26G15G10G16G13R 7R 6R22
                                R20R21
  20416727.816   107290627.04449     -1285.875    20416728.852    83603089.54648
     -1001.984  
  20773242.689   109164129.50349     -1590.340    20773243.023    85062958.82248
     -1239.226  
  20605908.157   108284789.44449      1282.854    20605908.108    84377760.94447
       999.628  
  21025746.792   110491067.26949      2662.297    21025747.583    86096949.75247
      2074.515  
  22622340.999   118881203.86348       213.891    22622346.047    92634729.59346
       166.663  
  22572080.292   118617111.09848      1824.582    22572082.653    92428928.11647
      1421.753  
  24012820.340   126188232.40147      3421.019    24012827.985    98328498.56546
      2665.734  
  23898705.266   125588556.01347      2229.729    23898707.529    97861204.18445
      1737.453  
  23323077.317   122563604.91348       184.137    23323079.366    95504122.80445
       143.483  
  20042798.286   107290691.728 9      2783.104    20042804.108    83448351.884 8
      2164.637  
  19646815.018   104839171.395 9     -1402.581    19646820.813    81541602.938 6
     -1090.874  
  20915406.131   111647870.124 8      2700.062    20915413.967    86837274.696 8
      2100.047  
  22746304.176   121634702.394 6     -2714.050    22746313.936    94604785.916 7
     -2110.937  
  19818078.931   106050542.088 9      -341.464    19818084.070    82483779.708 8
      -265.582  
 16  3  2  5  8 30.0000000  0 14G29G20G21G18G26G15G10G16G13R 7R 6R22
                                R20R21
  20424111.025   107329426.07149     -1300.913    20424112.051    83633322.54248
     -1013.702  
  20782355.199   109212016.31449     -1602.313    20782355.579    85100273.21548
     -1248.559  
  20598611.122   108246443.26949      1273.383    20598611.150    84347880.83947
       992.246  
  21010585.266   110411393.28949      2649.050    21010585.901    86034866.19847
      2064.194  
  22621173.558   118875069.54748       194.917    22621178.688    92629949.61247
       151.883  
  22561698.366   118562553.95548      1812.531    22561700.593    92386416.12947
      1412.363  
  23993307.027   126085690.28147      3415.129    23993314.919    98248595.78745
      2661.148  
  23886019.396   125521890.43947      2214.375    23886021.511    97809257.06345
      1725.488  
  23322074.610   122558335.77748       166.913    23322076.849    95500017.03945
       130.062  
  20027257.963   107207503.257 9      2762.628    20027263.662    83383649.812 8
      2148.711  
  19654766.730   104881603.004 9     -1426.449    19654772.471    81574605.304 6
     -1109.414  
  20900243.685   111566931.585 8      2695.719    20900251.375    86774322.529 8
      2096.672  
  22761555.501   121716257.802 5     -2723.648    22761565.492    94668217.797 7
     -2118.398  
  19820030.931   106060988.166 9      -355.156    19820036.237    82491904.435 8
      -276.237  
 16  3  2  5  9  0.0000000  0 14G29G20G21G18G26G15G10G16G13R 7R 6R22
                                R20R21
  20431581.220   107368682.30349     -1315.933    20431582.270    83663911.80748
     -1025.405  
  20791537.562   109260269.95749     -1614.398    20791537.897    85137873.46048
     -1257.973  
  20591369.693   108208389.45649      1263.722    20591369.726    84318228.54347
       984.714  
  20995501.596   110332127.94349      2635.550    20995502.099    85973101.05347
      2053.675  
  22620115.669   118869510.52048       175.965    22620120.791    92625617.88846
       137.112  
  22551387.691   118508371.43048      1799.862    22551389.948    92344196.04447
      1402.492  
  23973828.167   125983328.27047      3409.237    23973836.019    98168833.35546
      2656.555  
  23873423.842   125455699.98147      2198.504    23873425.928    97757680.13144
      1713.117  
  23321173.494   122553600.97348       149.094    23321175.606    95496327.62845
       116.176  
  20011835.074   107124943.262 9      2741.656    20011840.619    83319436.545 8
      2132.397  
  19662854.487   104924760.483 9     -1450.526    19662860.232    81608172.233 6
     -1128.215  
  20885107.556   111486134.116 8      2690.836    20885115.228    86711480.120 8
      2092.870  
  22776860.602   121798100.272 5     -2732.558    22776870.644    94731872.967 7
     -2125.332  
  19822061.940   106071856.569 9      -369.175    19822067.241    82500357.629 8
      -287.140  
 16  3  2  5  9 30.0000000  0 14G29G20G21G18G26G15G10G16G13R 7R 6R22
                                R20R21
  20439138.023   107408393.69449     -1331.323    20439139.078    83694855.73748
     -1037.397  
  20800789.050   109308886.54749     -1626.477    20800789.396    85175756.51948
     -1267.387  
  20584183.673   108170626.38749      1253.979    20584183.531    84288802.80547
       977.129  
  20980495.485   110253271.11049      2621.804    20980496.332    85911654.25847
      2042.964  
  22619167.034   118864524.72248       156.620    22619172.052    92621732.86846
       122.039  
  22541148.438   118454564.20348      1787.413    22541150.616    92302268.40947
      1392.788  
  23954383.462   125881146.25047      3403.336    23954391.336    98089211.19346
      2651.952  
  23860918.464   125389984.87147      2182.562    23860920.592    97706473.55645
      1700.699  
  23320373.886   122549399.65948       131.011    23320376.035    95493053.92744
       102.086  
  19996529.574   107043012.383 9      2720.671    19996535.274    83255712.597 8
      2116.077  
  19671077.325   104968639.341 9     -1474.426    19671083.128    81642300.242 6
     -1146.895  
  20869997.864   111405478.274 8      2686.487    20870005.433    86648747.843 8
      2089.492  
  22792218.718   121880227.429 5     -2742.601    22792228.530    94795749.554 7
     -2133.140  
  19824171.772   106083146.953 9      -383.358    19824177.031    82509139.046 8
      -298.167  
 16  3  2  5 10  0.0000000  0 14G29G20G21G18G26G15G10G16G13R 7R 6R22
                                R20R21
  20446781.181   107448558.85549     -1346.351    20446782.313    83726153.25748
     -1049.108  
  20810109.013   109357863.18749     -1638.519    20810109.317    85213920.13047
     -1276.770  
  20577052.904   108133153.94449      1244.113    20577052.700    84259603.52747
       969.437  
  20965567.335   110174823.49449      2608.051    20965568.158    85850526.31647
      2032.246  
  22618327.083   118860110.90248       137.812    22618332.140    92618293.53746
       107.383  
  22530980.825   118401133.25148      1774.815    22530983.006    92260633.96447
      1382.973  
  23934973.116   125779145.01048      3397.003    23934980.941    98009729.89946
      2647.019  
  23848503.685   125324746.17647      2166.430    23848506.208    97655638.29245
      1688.133  
  23319675.703   122545731.27848       113.453    23319678.167    95490195.49145
        88.405  
  19981342.134   106961712.765 9      2699.616    19981347.673    83192479.626 8
      2099.702  
  19679434.657   105013235.759 9     -1498.398    19679440.411    81676986.349 6
     -1165.426  
  20854915.139   111324965.572 8      2681.273    20854922.555    86586126.884 8
      2085.433  
  22807630.141   121962638.078 6     -2752.031    22807640.090    94859846.632 7
     -2140.472  
  19826360.609   106094859.799 9      -397.535    19826365.838    82518249.026 8
      -309.199  
 16  3  2  5 10 30.0000000  0 14G29G20G21G18G26G15G10G16G13R 7R 6R22
                                R20R21
  20454511.038   107489179.40149     -1361.586    20454512.157    83757805.61448
     -1060.979  
  20819497.351   109407199.29849     -1650.512    20819497.627    85252363.85048
     -1286.113  
  20569977.677   108095973.74749      1234.534    20569977.627    84230631.97447
       961.976  
  20950717.607   110096787.64949      2594.300    20950718.217    85789719.22747
      2021.531  
  22617596.325   118856270.15148       118.543    22617601.324    92615300.74647
        92.370  
  22520885.468   118348082.57548      1762.077    22520887.844    92219295.84047
      1373.047  
  23915597.904   125677327.49048      3391.098    23915605.424    97930391.77146
      2642.418  
  23836180.432   125259987.72847      2150.726    23836182.716    97605177.21645
      1675.890  
  23319079.477   122542598.08948        95.616    23319081.904    95487754.08444
        74.507  
  19966273.199   106881047.946 9      2678.344    19966278.929    83129740.393 8
      2083.156  
  19687926.140   105058548.219 9     -1522.249    19687931.828    81712229.380 6
     -1183.979  
  20839859.815   111244599.821 8      2676.562    20839867.332    86523620.242 8
      2081.769  
  22823094.388   122045333.356 5     -2761.137    22823104.721    94924165.067 7
     -2147.554  
  19828628.918   106106997.952 9      -411.604    19828634.099    82527689.817 8
      -320.141  
 16  3  2  5 11  0.0000000  0 14G29G20G21G18G26G15G10G16G13R 7R 6R22
                                R20R21
  20462327.386   107530254.21649     -1376.758    20462328.426    83789811.95748
     -1072.801  
  20828953.542   109456891.79449     -1662.316    20828953.896    85291085.28348
     -1295.313  
  20562957.858   108059084.75549      1224.812    20562957.930    84201887.32947
       954.398  
  20935946.279   110019164.10849      2580.710    20935946.828    85729233.42447
      2010.944  
  22616974.311   118853000.81948        99.543    22616979.273    92612753.20746
        77.563  
  22510862.779   118295412.99048      1749.340    22510864.894    92178254.65947
      1363.120  
  23896257.634   125575694.11847      3384.687    23896265.116    97851197.16046
      2637.422  
  23823948.768   125195710.43547      2134.621    23823951.044    97555091.06344
      1663.335  
  23318585.001   122539999.91448        77.827    23318587.540    95485729.55944
        60.644  
  19951323.291   106801019.922 9      2657.027    19951328.956    83067496.444 8
      2066.578  
  19696551.253   105104573.383 9     -1546.109    19696556.916    81748026.730 6
     -1202.534  
  20824832.264   111164382.142 8      2671.581    20824839.779    86461228.763 8
      2077.898  
  22838611.754   122128311.339 6     -2770.733    22838622.020    94988703.393 7
     -2155.023  
  19830976.827   106119561.738 9      -425.874    19830981.956    82537461.646 8
      -331.233  
 16  3  2  5 11 30.0000000  0 14G29G20G21G18G26G15G10G16G13R 7R 6R22
                                R20R21
  20470230.578   107571785.70749     -1391.948    20470231.619    83822174.15148
     -1084.640  
  20838477.614   109506941.25549     -1674.222    20838477.990    85330084.85748
     -1304.594  
  20555994.018   108022489.74849      1214.812    20555994.054    84173371.76647
       946.605  
  20921254.186   109941956.88949      2566.640    20921254.870    85669072.02947
      1999.979  
  22616461.391   118850305.18748        80.297    22616466.273    92610652.71747
        62.565  
  22500913.617   118243129.63048      1736.323    22500915.787    92137514.44747
      1352.980  
  23876953.238   125474249.24148      3378.280    23876960.589    97772149.44746
      2632.434  
  23811809.396   125131918.47847      2118.191    23811811.754    97505383.10545
      1650.542  
  23318192.875   122537939.90348        59.746    23318195.517    95484124.38245
        46.551  
  19936493.338   106721634.301 9      2635.374    19936498.927    83005752.133 8
      2049.734  
  19705309.811   105151310.785 9     -1569.750    19705315.502    81784378.051 6
     -1220.921  
  20809833.597   111084317.643 8      2666.172    20809841.132    86398956.421 8
      2073.687  
  22854182.431   122211574.591 5     -2780.296    22854192.935    95053463.561 7
     -2162.457  
  19833404.893   106132555.092 9      -440.297    19833410.143    82547567.589 8
      -342.457  
 16  3  2  5 12  0.0000000  0 14G29G20G21G18G26G15G10G16G13R 7R 6R22
                                R20R21
  20478219.897   107613769.83149     -1406.996    20478220.960    83854889.04048
     -1096.362  
  20848068.613   109557342.07549     -1685.914    20848068.894    85369358.22548
     -1313.698  
  20549085.626   107986185.74949      1205.230    20549085.527    84145082.97447
       939.141  
  20906640.817   109865163.55549      2552.788    20906641.557    85609233.14447
      1989.188  
  22616056.713   118848179.12548        61.108    22616061.691    92608996.05047
        47.612  
  22491037.650   118191230.95249      1723.444    22491039.770    92097073.96747
      1342.945  
  23857684.204   125372990.72348      3372.227    23857691.362    97693246.90146
      2627.714  
  23799762.322   125068610.39547      2101.828    23799764.734    97456052.16845
      1637.788  
  23317902.794   122536415.26648        41.921    23317905.608    95482936.38044
        32.664  
  19921783.154   106642889.565 9      2614.004    19921788.697    82944506.295 8
      2033.113  
  19714200.684   105198754.284 9     -1593.180    19714206.438    81821278.549 6
     -1239.145  
  20794863.233   111004405.042 8      2661.082    20794870.819    86336802.219 8
      2069.730  
  22869805.982   122295118.425 5     -2789.210    22869815.821    95118442.008 7
     -2169.395  
  19835912.907   106145975.607 9      -454.574    19835918.177    82558005.769 8
      -353.562  
 16  3  2  5 12 30.0000000  0 14G29G20G21G18G26G15G10G16G13R 7R 6R22
                                R20R21
  20486295.903   107656209.62049     -1422.281    20486297.009    83887958.98848
     -1108.273  
  20857726.626   109608095.34149     -1697.671    20857726.988    85408906.22148
     -1322.863  
  20542233.223   107950176.06449      1195.354    20542233.035    84117023.50547
       931.445  
  20892107.224   109788788.97549      2538.819    20892107.805    85549720.54647
      1978.300  
  22615761.026   118846625.15448        42.507    22615765.973    92607785.16547
        33.117  
  22481235.792   118139722.31048      1710.476    22481238.131    92056937.42547
      1332.840  
  23838451.593   125271923.26448      3365.636    23838458.794    97614493.25146
      2622.578  
  23787808.399   125005791.10648      2085.813    23787810.309    97407102.10945
      1625.309  
  23317715.077   122535429.55548        23.504    23317717.788    95482168.31945
        18.312  
  19907193.664   106564791.291 9      2592.401    19907199.080    82883763.251 8
      2016.313  
  19723223.793   105246903.353 9     -1616.780    19723229.554    81858727.832 6
     -1257.551  
  20779922.292   110924649.693 8      2655.815    20779930.050    86274770.330 8
      2065.632  
  22885482.444   122378946.170 5     -2799.387    22885492.009    95183641.272 7
     -2177.308  
  19838501.497   106159827.736 9      -469.034    19838506.642    82568779.640 8
      -364.809  
 16  3  2  5 13  0.0000000  0 14G29G20G21G18G26G15G10G16G13R 7R 6R22
                                R20R21
  20494458.195   107699102.87849     -1436.940    20494459.330    83921382.29648
     -1119.699  
  20867450.968   109659197.10249     -1708.867    20867451.307    85448725.77948
     -1331.589  
  20535436.467   107914459.21849      1185.929    20535436.305    84089192.21947
       924.101  
  20877653.219   109712832.88649      2525.156    20877653.766    85490534.04647
      1967.652  
  22615573.747   118845641.15348        23.546    22615578.635    92607018.42247
        18.348  
  22471508.364   118088604.26548      1697.590    22471510.591    92017105.24147
      1322.796  
  23819255.169   125171046.68747      3359.737    23819262.464    97535888.33246
      2617.980  
  23775947.366   124943461.24148      2070.022    23775949.443    97358533.40745
      1612.999  
  23317629.796   122534981.43448         6.141    23317632.716    95481819.18145
         4.784  
  19892725.163   106487340.895 9      2571.152    19892730.719    82823524.122 8
      1999.785  
  19732378.352   105295753.898 9     -1639.730    19732384.200    81896722.697 6
     -1275.351  
  20765010.963   110845052.412 8      2650.901    20765018.734    86212861.384 8
      2061.813  
  22901211.003   122463055.062 5     -2807.968    22901221.370    95249059.152 7
     -2183.983  
  19841170.733   106174111.237 9      -483.051    19841175.864    82579889.035 8
      -375.710  
 16  3  2  5 13 30.0000000  0 14G29G20G21G18G26G15G10G16G13R 7R 6R22
                                R20R21
  20502707.196   107742451.48449     -1452.156    20502708.362    83955160.42148
     -1131.555  
  20877241.657   109710647.54849     -1720.434    20877241.963    85488817.03347
     -1340.601  
  20528695.988   107879037.69549      1176.081    20528695.935    84061591.06247
       916.426  
  20863279.455   109637298.62349      2511.116    20863279.990    85431676.24247
      1956.715  
  22615495.077   118845228.58448         4.589    22615500.042    92606696.94147
         3.577  
  22461855.958   118037880.71848      1684.504    22461858.058    91977580.45247
      1312.602  
  23800095.752   125070364.67847      3353.120    23800103.221    97457435.05846
      2612.824  
  23764180.430   124881624.60248      2053.308    23764182.131    97310349.01244
      1599.977  
  23317647.677   122535074.02648       -11.745    23317649.981    95481891.34645
        -9.151  
  19878378.503   106410542.571 9      2549.425    19878383.973    82763792.151 8
      1982.886  
  19741664.247   105345305.025 9     -1663.026    19741670.023    81935262.466 6
     -1293.464  
  20750130.164   110765617.820 8      2645.480    20750137.870    86151078.965 8
      2057.597  
  22916992.495   122547446.762 5     -2817.706    22917003.159    95314697.058 6
     -2191.558  
  19843921.139   106188829.432 9      -497.585    19843926.384    82591336.512 8
      -387.012  
 16  3  2  5 14  0.0000000  0 14G29G20G21G18G26G15G10G16G13R 7R 6R22
                                R20R21
  20511042.345   107786252.99249     -1467.230    20511043.500    83989291.45148
     -1143.300  
  20887097.869   109762442.38649     -1731.866    20887098.238    85529176.64448
     -1349.508  
  20522011.289   107843909.46249      1166.352    20522011.252    84034218.43547
       908.844  
  20848985.780   109562185.25849      2496.973    20848986.337    85373146.40747
      1945.691  
  22615524.684   118845384.63548       -14.444    22615529.796    92606818.52847
       -11.261  
  22452278.708   117987551.83549      1671.323    22452280.660    91938363.20247
      1302.332  
  23780973.298   124969876.47248      3346.488    23780980.646    97379132.78146
      2607.660  
  23752507.097   124820280.60548      2036.898    23752508.656    97262548.58445
      1587.199  
  23317767.893   122535705.26648       -29.684    23317769.883    95482383.23044
       -23.128  
  19864153.675   106334396.514 9      2527.589    19864159.310    82704567.504 8
      1965.901  
  19751080.365   105395551.392 9     -1686.108    19751086.195    81974342.981 6
     -1311.445  
  20735279.778   110686345.859 8      2639.909    20735287.564    86089423.040 8
      2053.258  
  22932826.552   122632118.484 5     -2826.617    22932836.819    95380552.737 7
     -2198.487  
  19846752.641   106203981.309 9      -512.062    19846758.009    82603121.305 8
      -398.272  
 16  3  2  5 14 30.0000000  0 14G29G20G21G18G26G15G10G16G13R 7R 6R22
                                R20R21
  20519464.215   107830510.08749     -1482.840    20519465.319    84023777.48548
     -1155.465  
  20897019.741   109814582.39549     -1743.761    20897020.212    85569805.22048
     -1358.773  
  20515383.107   107809078.00249      1156.210    20515383.071    84007077.05047
       900.945  
  20834773.061   109487497.35349      2482.566    20834773.757    85314948.10847
      1934.468  
  22615662.956   118846111.75948       -33.577    22615668.173    92607385.10046
       -26.168  
  22442777.464   117937622.71448      1657.526    22442779.445    91899457.44047
      1291.577  
  23761888.584   124869586.71848      3339.522    23761895.771    97300985.12446
      2602.230  
  23740928.555   124759434.77048      2019.960    23740930.265    97215136.28846
      1573.996  
  23317991.155   122536878.85648       -48.167    23317992.961    95483297.76345
       -37.535  
  19850051.857   106258908.570 9      2505.281    19850057.535    82645854.717 8
      1948.550  
  19760626.757   105446492.859 9     -1709.507    19760632.603    82013964.120 6
     -1329.616  
  20720461.026   110607242.259 8      2633.976    20720468.894    86027898.059 8
      2048.647  
  22948713.504   122717072.689 6     -2836.897    22948724.122    95446628.117 6
     -2206.480  
  19849666.009   106219571.139 9      -526.905    19849671.257    82615246.719 8
      -409.820  
 16  3  2  5 15  0.0000000  0 14G29G20G21G18G26G15G10G16G13R 7R 6R22
                                R20R21
  20527972.302   107875220.26449     -1497.604    20527973.405    84058616.57948
     -1166.965  
  20907006.425   109867063.08549     -1754.640    20907006.908    85610699.25748
     -1367.257  
  20508810.818   107774540.73549      1146.499    20508810.749    83980164.92647
       893.374  
  20820641.081   109413233.57649      2468.629    20820641.730    85257080.29247
      1923.604  
  22615909.577   118847406.88548       -52.246    22615914.530    92608394.29446
       -40.711  
  22433352.181   117888093.11049      1644.566    22433354.376    91860863.01247
      1281.480  
  23742841.608   124769494.52548      3333.452    23742848.600    97222991.39646
      2597.496  
  23729444.505   124699085.74248      2003.590    23729446.563    97168111.16845
      1561.237  
  23318317.262   122538592.93348       -66.038    23318319.681    95484633.40945
       -51.460  
  19836073.034   106184078.614 9      2483.628    19836078.451    82587653.695 8
      1931.711  
  19770302.411   105498123.974 9     -1732.175    19770308.267    82054121.657 6
     -1347.250  
  20705673.785   110528307.120 8      2628.629    20705681.703    85966504.115 8
      2044.488  
  22964652.788   122802306.488 6     -2845.577    22964663.267    95512920.957 6
     -2213.233  
  19852660.937   106235597.885 9      -541.277    19852666.283    82627711.968 8
      -420.996  
 16  3  2  5 15 30.0000000  0 14G29G20G21G18G26G15G10G16G13R 7R 6R22
                                R20R21
  20536566.461   107920382.84249     -1512.977    20536567.508    84093808.18448
     -1178.945  
  20917057.565   109919882.11949     -1766.336    20917058.049    85651856.93747
     -1376.370  
  20502294.665   107740298.18349      1136.484    20502294.497    83953482.43447
       885.570  
  20806590.098   109339395.35249      2454.023    20806590.714    85199544.07447
      1912.227  
  22616264.206   118849269.44648       -71.758    22616269.053    92609845.63346
       -55.917  
  22424003.345   117838965.08248      1630.851    22424005.552    91822581.48547
      1270.793  
  23723832.582   124669601.47948      3326.354    23723839.626    97145152.85646
      2591.968  
  23718055.202   124639236.14648      1986.480    23718057.220    97121475.11944
      1547.906  
  23318746.267   122540847.99748       -84.046    23318748.656    95486390.64645
       -65.492  
  19822217.489   106109908.861 9      2461.265    19822222.871    82529966.166 8
      1914.316  
  19780106.931   105550442.145 9     -1755.465    19780112.586    82094813.561 6
     -1365.366  
  20690918.595   110449542.757 8      2622.688    20690926.241    85905242.968 8
      2039.862  
  22980644.452   122887819.288 6     -2855.359    22980654.731    95579430.834 6
     -2220.840  
  19855737.842   106252062.808 9      -556.094    19855743.153    82640518.012 8
      -432.519  
 16  3  2  5 16  0.0000000  0 14G29G20G21G18G26G15G10G16G13R 7R 6R22
                                R20R21
  20545246.967   107965999.08449     -1528.038    20545247.994    84129353.29248
     -1190.684  
  20927173.123   109973039.36249     -1777.546    20927173.515    85693278.17148
     -1385.104  
  20495834.844   107706351.93949      1126.539    20495834.776    83927030.83147
       877.824  
  20792620.585   109265985.53149      2439.847    20792621.121    85142341.67547
      1901.180  
  22616726.750   118851700.00448       -90.460    22616731.654    92611739.56247
       -70.488  
  22414731.579   117790242.15448      1617.358    22414733.747    91784615.62047
      1260.281  
  23704861.817   124569910.37447      3319.629    23704868.624    97067471.64946
      2586.726  
  23706761.828   124579888.87448      1969.991    23706763.670    97075230.51244
      1535.058  
  23319278.634   122543645.88548      -102.237    23319281.091    95488570.81645
       -79.668  
  19808485.938   106036402.981 9      2439.129    19808491.257    82472794.983 8
      1897.102  
  19790039.714   105603445.286 9     -1778.223    19790045.382    82136038.230 6
     -1383.065  
  20676196.065   110370953.049 8      2616.691    20676203.682    85844117.679 8
      2035.202  
  22996688.117   122973611.852 5     -2864.409    22996698.239    95646158.264 6
     -2227.883  
  19858897.127   106268968.560 9      -570.866    19858902.246    82653666.928 8
      -444.011  
 16  3  2  5 16 30.0000000  0 14G29G20G21G18G26G15G10G16G13R 7R 6R22
                                R20R21
  20554013.759   108012069.01149     -1543.112    20554014.929    84165251.92648
     -1202.429  
  20937352.680   110026532.98549     -1788.555    20937352.980    85734961.50748
     -1393.679  
  20489431.583   107672702.57649      1116.776    20489431.551    83900810.56847
       870.211  
  20778732.918   109193005.38449      2425.555    20778733.489    85085474.08147
      1890.043  
  22617297.174   118854698.23048      -109.297    22617302.314    92614075.85047
       -85.167  
  22405537.457   117741926.68549      1603.879    22405539.510    91746967.25847
      1249.777  
  23685929.681   124470423.14047      3312.851    23685936.766    96989949.32346
      2581.444  
  23695564.469   124521045.92148      1953.069    23695566.252    97029378.89544
      1521.870  
  23319914.460   122546987.35948      -120.348    23319917.076    95491174.56545
       -93.781  
  19794878.992   105963564.182 9      2416.969    19794884.202    82416142.626 8
      1879.863  
  19800100.340   105657130.869 9     -1800.835    19800106.089    82177793.678 6
     -1400.652  
  20661506.737   110292540.729 8      2610.801    20661514.377    85783130.360 8
      2030.620  
  23012784.278   123059683.973 5     -2873.598    23012794.258    95713103.156 6
     -2235.023  
  19862138.973   106286316.427 9      -585.523    19862144.182    82667159.703 8
      -455.409  
 16  3  2  5 17  0.0000000  0 14G29G20G21G18G26G15G10G16G13R 7R 6R22
                                R20R21
  20562866.806   108058592.06049     -1558.636    20562867.921    84201503.63448
     -1214.526  
  20947595.727   110080360.55749     -1800.042    20947596.078    85776905.06248
     -1402.636  
  20483084.926   107639350.44849      1106.589    20483084.787    83874821.91247
       862.272  
  20764927.215   109120456.14349      2410.976    20764927.718    85028942.25847
      1878.684  
  22617975.424   118858263.17248      -128.523    22617980.740    92616853.70747
      -100.148  
  22396421.203   117694020.79349      1589.750    22396423.377    91709638.05947
      1238.766  
  23667036.424   124371140.97047      3305.852    23667043.739    96912586.78645
      2575.992  
  23684463.219   124462709.01847      1935.897    23684465.051    96983921.61544
      1508.491  
  23320653.722   122550872.30348      -138.848    23320656.471    95494201.82744
      -108.190  
  19781396.958   105891394.237 9      2394.140    19781402.241    82360010.503 8
      1862.108  
  19810288.133   105711495.290 9     -1823.582    19810293.919    82220077.114 6
     -1418.344  
  20646851.042   110214308.481 8      2604.444    20646858.709    85722283.104 8
      2025.679  
  23028932.662   123146034.640 5     -2883.234    23028942.606    95780264.690 6
     -2242.519  
  19865463.669   106304107.641 9      -600.660    19865468.925    82680997.311 8
      -467.184  
 16  3  2  5 17 30.0000000  0 14G29G20G21G18G26G15G10G16G13R 7R 6R22
                                R20R21
  20571805.878   108105566.73049     -1573.327    20571806.961    84238107.25948
     -1225.973  
  20957901.775   110134519.17749     -1810.745    20957902.257    85819106.57948
     -1410.977  
  20476794.631   107606294.94149      1096.937    20476794.607    83849064.39747
       854.757  
  20751203.699   109048338.61049      2396.776    20751204.170    84972746.83847
      1867.616  
  22618761.524   118862393.43748      -147.160    22618766.689    92620072.09747
      -114.672  
  22387383.145   117646525.56948      1576.374    22387385.357    91672628.84747
      1228.344  
  23648182.882   124272064.87547      3299.270    23648189.903    96835384.82346
      2570.862  
  23673458.595   124404879.39247      1919.206    23673460.237    96938859.58544
      1495.480  
  23321496.353   122555300.63948      -156.679    23321499.235    95497652.49145
      -122.094  
  19768040.195   105819894.813 9      2372.152    19768045.598    82304399.893 8
      1845.008  
  19820602.457   105766534.782 9     -1845.925    19820608.393    82262885.601 6
     -1435.719  
  20632229.546   110136257.879 8      2598.711    20632236.990    85661577.111 8
      2021.219  
  23045132.563   123232662.635 5     -2891.831    23045142.348    95847641.916 6
     -2249.206  
  19868871.396   106322342.763 9      -615.198    19868876.520    82695180.187 8
      -478.487  
 16  3  2  5 18  0.0000000  0 14G29G20G21G18G26G15G10G16G13R 7R 6R22
                                R20R21
  20580830.584   108152991.59649     -1588.297    20580831.579    84275061.68648
     -1237.637  
  20968270.212   110189005.55349     -1821.659    20968270.568    85861563.48547
     -1419.480  
  20470560.580   107573535.06549      1087.109    20470560.477    83823537.23947
       847.098  
  20737562.191   108976652.56549      2382.176    20737562.737    84916887.63947
      1856.241  
  22619654.597   118867086.85248      -165.776    22619659.867    92623729.29447
      -129.176  
  22378423.330   117599441.73449      1562.453    22378425.388    91635940.21147
      1217.496  
  23629368.810   124173194.94648      3292.073    23629375.527    96758343.50645
      2565.258  
  23662550.221   124347557.62747      1902.273    23662552.232    96894193.34644
      1482.284  
  23322442.409   122560271.35248      -174.948    23322445.058    95501525.82645
      -136.324  
  19754808.872   105749066.755 9      2349.573    19754814.319    82249311.455 8
      1827.444  
  19831042.575   105822245.188 9     -1868.246    19831048.484    82306215.917 6
     -1453.085  
  20617642.230   110058390.109 8      2592.457    20617649.803    85601013.330 8
      2016.355  
  23061383.784   123319565.685 5     -2901.429    23061393.980    95915233.087 6
     -2256.671  
  19872361.941   106341021.596 9      -630.112    19872367.192    82709708.151 8
      -490.093  
 16  3  2  5 18 30.0000000  0 14G29G20G21G18G26G15G10G16G13R 7R 6R22
                                R20R21
  20589941.082   108200867.80849     -1603.691    20589942.154    84312367.81248
     -1249.632  
  20978700.904   110243819.24449     -1832.788    20978701.172    85904275.44048
     -1428.151  
  20464383.156   107541072.54549      1076.831    20464383.055    83798241.79047
       839.089  
  20724003.461   108905400.80149      2367.554    20724003.882    84861366.83247
      1844.847  
  22620655.185   118872344.31748      -184.910    22620660.261    92627826.02047
      -144.085  
  22369542.644   117552773.07049      1548.340    22369544.461    91599575.07847
      1206.503  
  23610594.215   124074534.25247      3284.995    23610601.017    96681465.21345
      2559.746  
  23651739.604   124290746.48047      1884.867    23651741.440    96849924.92945
      1468.727  
  23323491.991   122565786.57048      -193.328    23323494.354    95505823.39245
      -150.647  
  19741703.754   105678914.065 9      2326.761    19741709.114    82194748.301 8
      1809.703  
  19841607.974   105878624.433 9     -1890.770    19841613.898    82350066.433 6
     -1470.598  
  20603089.928   109980709.025 8      2585.992    20603097.437    85540594.745 8
      2011.324  
  23077687.125   123406745.196 5     -2910.750    23077697.045    95983039.267 6
     -2263.921  
  19875936.022   106360146.911 9      -645.300    19875941.259    82724583.395 8
      -501.906  
 16  3  2  5 19  0.0000000  0 14G29G20G21G18G26G15G10G16G13R 7R 6R22
                                R20R21
  20599138.274   108249199.40649     -1618.300    20599139.461    84350028.77948
     -1261.015  
  20989194.266   110298962.26149     -1843.250    20989194.615    85947244.02248
     -1436.300  
  20458263.280   107508912.25749      1067.284    20458263.214    83773181.84447
       831.648  
  20710528.401   108834588.97749      2353.472    20710528.854    84806188.84747
      1833.875  
  22621763.694   118878169.25948      -203.222    22621768.716    92632364.92747
      -158.359  
  22360742.015   117506525.70449      1534.866    22360743.877    91563538.22147
      1195.999  
  23591860.041   123976088.66247      3278.426    23591867.057    96604754.55745
      2554.616  
  23641027.324   124234452.44647      1868.078    23641028.988    96806059.51244
      1455.640  
  23324645.761   122571850.76648      -210.956    23324648.143    95510548.77745
      -164.383  
  19728726.005   105609443.126 9      2304.608    19728731.409    82140715.401 8
      1792.472  
  19852299.006   105935673.737 9     -1912.464    19852304.942    82394438.109 6
     -1487.477  
  20588574.010   109903222.129 8      2579.945    20588581.478    85480327.194 8
      2006.625  
  23094042.715   123494204.920 5     -2919.750    23094052.552    96051063.402 6
     -2270.921  
  19879594.579   106379724.403 9      -659.847    19879599.696    82739810.323 8
      -513.218  
 16  3  2  5 19 30.0000000  0 14G29G20G21G18G26G15G10G16G13R 7R 6R22
                                R20R21
  20608420.390   108297977.54049     -1633.504    20608421.566    84388037.69548
     -1272.863  
  20999748.310   110354424.48149     -1854.300    20999748.799    85990461.32847
     -1444.913  
  20452199.389   107477046.26349      1057.050    20452199.309    83748351.22947
       823.676  
  20697135.717   108764210.31949      2338.476    20697136.133    84751348.39147
      1822.190  
  22622978.330   118884552.62248      -222.202    22622983.326    92637338.99147
      -173.145  
  22352020.400   117460693.71449      1520.565    22352022.311    91527825.05447
      1184.855  
  23573165.828   123877851.44047      3270.940    23573172.797    96528206.25345
      2548.793  
  23630412.051   124178669.27947      1850.749    23630413.706    96762592.14045
      1442.145  
  23325902.879   122578456.18448      -229.573    23325904.922    95515695.88944
      -178.890  
  19715874.370   105540647.727 9      2281.663    19715879.727    82087207.917 8
      1774.629  
  19863113.530   105993381.765 9     -1934.758    19863119.462    82439322.132 6
     -1504.815  
  20574093.276   109825923.362 8      2573.062    20574100.843    85420205.987 8
      2001.269  
  23110449.062   123581935.714 5     -2928.734    23110458.735    96119298.338 6
     -2277.913  
  19883336.271   106399746.860 9      -675.063    19883341.273    82755383.344 8
      -525.050  
 16  3  2  5 20  0.0000000  0 14G29G20G21G18G26G15G10G16G13R 7R 6R22
                                R20R21
  20617788.633   108347207.98649     -1648.652    20617789.798    84426399.07248
     -1284.667  
  21010363.901   110410209.85049     -1864.770    21010364.407    86033930.43947
     -1453.070  
  20446192.620   107445480.91749      1047.020    20446192.575    83723754.87747
       815.859  
  20683826.847   108694271.92449      2324.003    20683827.252    84696850.99747
      1810.914  
  22624300.349   118891499.69248      -240.854    22624305.236    92642752.27147
      -187.684  
  22343379.338   117415284.81549      1506.581    22343381.269    91492441.55647
      1173.960  
  23554513.023   123779830.25648      3263.784    23554519.826    96451826.26445
      2543.210  
  23619895.325   124123404.44547      1833.637    23619897.015    96719528.64344
      1428.805  
  23327263.883   122585608.99648      -247.690    23327265.925    95521269.53345
      -193.008  
  19703150.645   105472536.723 9      2259.194    19703156.074    82034232.733 8
      1757.152  
  19874051.954   106051751.163 9     -1956.664    19874057.785    82484720.546 6
     -1521.854  
  20559649.564   109748821.911 8      2566.746    20559657.274    85360238.235 8
      1996.358  
  23126906.151   123669943.008 5     -2938.538    23126916.858    96187748.326 6
     -2285.538  
  19887162.434   106420221.553 9      -690.008    19887167.675    82771308.099 8
      -536.675  
 16  3  2  5 20 30.0000000  0 14G29G20G21G18G26G15G10G16G13R 7R 6R22
                                R20R21
  20627242.860   108396890.12949     -1663.664    20627244.052    84465112.40848
     -1296.367  
  21021040.646   110466316.27549     -1875.672    21021041.111    86077649.72648
     -1461.565  
  20440243.205   107414216.43649      1037.090    20440242.996    83699392.96947
       808.121  
  20670601.927   108624774.90849      2309.152    20670602.406    84642697.53047
      1799.340  
  22625729.252   118899009.47348      -259.679    22625734.471    92648604.06147
      -202.347  
  22334819.237   117370301.21049      1492.347    22334821.102    91457389.44647
      1162.866  
  23535901.551   123682026.40648      3256.188    23535908.342    96375615.66345
      2537.293  
  23609477.506   124068659.81647      1816.140    23609478.956    96676870.49745
      1415.175  
  23328729.046   122593309.47748      -265.812    23328731.242    95527269.91545
      -207.128  
  19690555.040   105405111.618 9      2235.887    19690560.391    81981791.039 8
      1739.022  
  19885113.786   106110779.220 9     -1978.574    19885119.524    82530631.246 6
     -1538.895  
  20545243.092   109671919.811 8      2559.973    20545250.676    85300425.514 8
      1991.086  
  23143415.350   123758226.085 5     -2947.812    23143426.298    96256412.848 6
     -2292.749  
  19891073.338   106441149.591 9      -705.262    19891078.674    82787585.449 8
      -548.539  
 16  3  2  5 21  0.0000000  0 14G29G20G21G18G26G15G10G16G13R 7R 6R22
                                R20R21
  20636781.802   108447017.54549     -1678.577    20636782.955    84504172.71848
     -1307.988  
  21031776.981   110522736.03249     -1886.137    21031777.371    86121613.16547
     -1469.718  
  20434350.043   107383247.53449      1027.039    20434349.761    83675261.37747
       800.289  
  20657460.246   108555714.91149      2294.343    20657460.677    84588884.59547
      1787.801  
  22627264.185   118907075.50448      -278.500    22627269.444    92654889.27147
      -217.012  
  22326339.397   117325739.41249      1478.035    22326341.266    91422666.03147
      1151.715  
  23517330.747   123584435.95048      3249.011    23517337.173    96299571.33046
      2531.703  
  23599158.259   124014431.30347      1798.801    23599159.490    96634614.57344
      1401.659  
  23330297.736   122601552.24948      -284.121    23330300.088    95533692.89144
      -221.395  
  19678086.937   105338369.200 9      2212.925    19678092.315    81929880.325 8
      1721.164  
  19896297.383   106170456.568 9     -2000.387    19896303.213    82577046.959 6
     -1555.855  
  20530873.603   109595214.469 8      2553.348    20530881.260    85240765.850 8
      1985.937  
  23159975.097   123846778.496 5     -2956.945    23159986.432    96325286.836 6
     -2299.855  
  19895068.172   106462526.474 9      -720.297    19895073.341    82804211.906 8
      -560.234  
 16  3  2  5 21 30.0000000  0 14G29G20G21G18G26G15G10G16G13R 7R 6R22
                                R20R21
  20646406.703   108497596.55549     -1693.608    20646407.803    84543584.92448
     -1319.695  
  21042573.839   110579473.65749     -1896.590    21042574.180    86165824.29148
     -1477.866  
  20428514.316   107352580.61649      1017.140    20428514.115    83651365.10147
       792.578  
  20644403.085   108487099.44049      2279.754    20644403.541    84535418.05647
      1776.429  
  22628906.143   118915703.20948      -296.848    22628911.105    92661612.15947
      -231.309  
  22317941.287   117281607.70749      1463.741    22317943.243    91388277.74847
      1140.578  
  23498801.748   123487066.59048      3241.976    23498808.104    96223699.26445
      2526.218  
  23588938.617   123960726.75747      1781.246    23588939.991    96592766.86943
      1387.980  
  23331970.847   122610344.00848      -302.320    23331973.014    95540543.61944
      -235.577  
  19665747.933   105272317.889 9      2190.112    19665753.288    81878507.126 8
      1703.421  
  19907603.104   106230785.934 9     -2021.898    19907608.878    82623969.789 6
     -1572.585  
  20516542.601   109518714.825 8      2546.383    20516550.478    85181266.183 8
      1980.519  
  23176586.123   123935606.023 5     -2965.723    23176597.174    96394374.804 6
     -2306.675  
  19899148.246   106484359.773 9      -735.512    19899153.330    82821193.353 8
      -572.069  
 16  3  2  5 22  0.0000000  0 14G29G20G21G18G26G15G10G16G13R 7R 6R22
                                R20R21
  20656117.051   108548624.36949     -1708.418    20656118.061    84583346.83648
     -1331.238  
  21053430.266   110636524.34449     -1906.969    21053430.632    86210279.36947
     -1485.952  
  20422735.711   107322214.05749      1007.152    20422735.534    83627702.87047
       784.788  
  20631430.346   108418927.36349      2264.988    20631430.770    84482297.00847
      1764.926  
  22630654.264   118924889.23948      -315.445    22630659.130    92668770.09446
      -245.804  
  22309624.950   117237905.58849      1449.569    22309626.914    91354224.21047
      1129.535  
  23480314.786   123389917.51348      3234.598    23480321.236    96147998.84946
      2520.464  
  23578818.361   123907545.66847      1763.813    23578820.103    96551327.15143
      1374.402  
  23333747.940   122619682.66648      -320.441    23333750.005    95547820.53644
      -249.698  
  19653537.972   105206957.295 9      2167.112    19653543.206    81827671.163 8
      1685.531  
  19919030.009   106291762.245 9     -2043.440    19919035.900    82671395.798 6
     -1589.347  
  20502250.242   109442421.028 8      2539.526    20502257.981    85121926.594 8
      1975.188  
  23193248.634   124024705.766 5     -2974.238    23193259.544    96463674.475 6
     -2313.301  
  19903313.392   106506648.312 9      -750.598    19903318.377    82838528.877 8
      -583.801  
 16  3  2  5 22 30.0000000  0 13G29G20G21G18G26G15G10G16G13R 7R 6R22
                                R21
  20665912.499   108600099.80049     -1723.331    20665913.567    84623457.54548
     -1342.855  
  21064345.782   110693885.86249     -1917.261    21064346.240    86254976.64447
     -1493.973  
  20417014.172   107292147.47949       997.152    20417013.998    83604274.39147
       777.000  
  20618542.086   108351199.50249      2250.046    20618542.553    84429522.10147
      1753.284  
  22632508.320   118934632.27448      -334.335    22632513.250    92676362.06247
      -260.523  
  22301390.629   117194634.44248      1435.085    22301392.548    91320506.48247
      1118.250  
  23461870.080   123292989.74048      3227.105    23461876.281    96072470.87546
      2514.632  
  23568798.185   123854889.28647      1746.339    23568800.024    96510296.22743
      1360.784  
  23335629.158   122629567.90748      -338.566    23335631.314    95555523.33645
      -263.819  
  19641457.320   105142288.991 9      2143.983    19641462.627    81777373.642 8
      1667.543  
  19930577.376   106353381.490 9     -2064.702    19930583.320    82719321.876 6
     -1605.879  
  20487996.936   109366335.599 8      2532.565    20488004.475    85062749.078 8
      1969.773  
  19907563.727   106529392.804 9      -765.770    19907568.856    82856219.033 8
      -595.602  
 16  3  2  5 23  0.0000000  0 13G29G20G21G18G26G15G10G16G13R 7R 6R22
                                R21
  20675793.188   108652023.19849     -1738.038    20675794.325    84663917.32048
     -1354.320  
  21075320.289   110751556.91049     -1927.347    21075320.689    86299915.11847
     -1501.828  
  20411350.026   107262382.37849       987.266    20411349.832    83581080.82447
       769.296  
  20605738.789   108283917.65949      2235.562    20605739.181    84377094.74547
      1741.996  
  22634468.248   118944932.04948      -352.612    22634473.067    92684387.84147
      -274.765  
  22293238.912   117151797.16249      1420.784    22293240.845    91287126.83947
      1107.104  
  23443467.780   123196285.50348      3220.008    23443474.081    95997117.09746
      2509.102  
  23558878.309   123802760.23947      1729.148    23558879.985    96469676.16944
      1347.386  
  23337614.330   122640000.15148      -356.890    23337616.544    95563652.39944
      -278.098  
  19629506.553   105078315.726 9      2121.046    19629511.911    81727616.708 8
      1649.702  
  19942244.779   106415641.116 9     -2085.852    19942250.711    82767746.008 6
     -1622.328  
  20473783.192   109290461.696 8      2525.621    20473790.739    85003736.084 8
      1964.370  
  19911899.572   106552594.883 9      -780.840    19911904.755    82874265.088 8
      -607.324  
 16  3  2  5 23 30.0000000  0 13G29G20G21G18G26G15G10G16G13R 7R 6R22
                                R21
  20685758.919   108704393.34549     -1753.108    20685760.030    84704725.21448
     -1366.059  
  21086353.063   110809534.71949     -1937.738    21086353.459    86345092.61947
     -1509.930  
  20405743.161   107232918.01149       977.008    20405742.965    83558121.61047
       761.305  
  20593020.446   108217082.47349      2220.081    20593020.866    84325015.43547
      1729.933  
  22636533.788   118955786.81648      -371.304    22636538.729    92692846.09746
      -289.328  
  22285170.072   117109394.90049      1406.078    22285171.976    91254086.17047
      1095.645  
  23425108.285   123099805.64348      3212.496    23425114.398    95921938.13846
      2503.245  
  23549058.964   123751159.13747      1711.191    23549060.424    96429467.55443
      1333.390  
  23339703.588   122650979.36848      -375.203    23339705.690    95572207.66444
      -292.367  
  19617685.843   105015038.820 9      2097.526    19617691.167    81678401.384 8
      1631.409  
  19954031.424   106478536.501 9     -2107.179    19954037.279    82816664.639 6
     -1638.918  
  20459609.521   109214801.648 8      2518.405    20459616.950    84944889.415 8
      1958.761  
  19916320.970   106576255.175 9      -796.410    19916326.401    82892667.528 8
      -619.433  
 16  3  2  5 24  0.0000000  0 13G29G20G21G18G26G15G10G16G13R 7R 6R22
                                R21
  20695809.401   108757208.83149     -1767.772    20695810.501    84745880.12148
     -1377.487  
  21097443.657   110867816.37249     -1947.727    21097444.041    86390506.88747
     -1517.715  
  20400193.427   107203753.86849       967.320    20400193.216    83535396.31947
       753.758  
  20580387.084   108150694.20849      2205.449    20580387.559    84273284.37147
      1718.531  
  22638704.716   118967194.87048      -389.570    22638709.621    92701735.47547
      -303.566  
  22277184.096   117067428.93949      1391.605    22277186.088    91221385.48047
      1084.366  
  23406791.530   123003550.84948      3204.801    23406797.444    95846934.55746
      2497.249  
  23539340.234   123700086.61947      1693.718    23539341.444    96389670.79744
      1319.780  
  23341896.925   122662504.77548      -393.344    23341898.838    95581188.51844
      -306.500  
  19605995.426   104952459.323 9      2074.371    19606000.834    81629728.495 8
      1613.398  
  19965936.438   106542063.974 9     -2128.078    19965942.215    82866074.888 6
     -1655.172  
  20445476.205   109139357.297 9      2511.172    20445483.615    84886210.516 8
      1953.133  
  19920828.066   106600373.774 9      -811.641    19920833.619    82911426.433 8
      -631.276  
 16  3  2  5 24 30.0000000  0 13G29G20G21G18G26G15G10G16G13R 7R 6R22
                                R21
  20705945.266   108810473.09449     -1782.926    20705946.389    84787384.72948
     -1389.297  
  21108592.475   110926404.05449     -1958.035    21108592.950    86436159.62147
     -1525.746  
  20394701.625   107174894.59649       956.902    20394701.523    83512908.59747
       745.632  
  20567839.910   108084758.21049      2190.347    20567840.291    84221905.72147
      1706.766  
  22640981.331   118979159.15848      -408.203    22640986.534    92711058.27547
      -318.085  
  22269282.365   117025905.15549      1376.741    22269284.361    91189029.32547
      1072.784  
  23388518.639   122907526.59848      3196.828    23388524.540    95772110.60046
      2491.038  
  23529723.130   123649548.49147      1675.925    23529724.698    96350290.48844
      1305.913  
  23344194.834   122674580.55548      -411.647    23344196.474    95590598.23645
      -320.766  
  19594436.435   104890583.014 9      2050.847    19594441.727    81581602.530 8
      1595.105  
  19977959.981   106606224.462 9     -2149.250    19977965.922    82915977.486 6
     -1671.644  
  20431384.541   109064135.414 8      2503.777    20431391.950    84827704.652 8
      1947.382  
  19925421.820   106624955.947 9      -827.128    19925427.316    82930545.891 8
      -643.324  
 16  3  2  5 25  0.0000000  0 13G29G20G21G18G26G15G10G16G13R 7R 6R22
                                R21
  20716165.383   108864180.32749     -1797.780    20716166.463    84829234.50648
     -1400.870  
  21119798.202   110985290.45449     -1968.003    21119798.650    86482045.12047
     -1533.512  
  20389266.918   107146335.29949       946.644    20389266.786    83490654.63247
       737.645  
  20555377.925   108019270.12749      2175.168    20555378.312    84170876.09447
      1694.938  
  22643362.739   118991673.44848      -426.438    22643367.877    92720809.66346
      -332.289  
  22261464.181   116984820.53949      1361.914    22261466.216    91157015.39047
      1061.230  
  23370288.802   122811729.21948      3189.038    23370294.727    95697463.43846
      2484.968  
  23520206.979   123599541.15347      1657.956    23520208.613    96311323.80444
      1291.913  
  23346596.606   122687201.51748      -430.026    23346598.071    95600432.78144
      -335.085  
  19583008.185   104829406.977 9      2027.229    19583013.443    81534021.214 8
      1576.734  
  19990100.523   106671008.692 9     -2170.104    19990106.433    82966365.208 6
     -1687.863  
  20417334.130   108989133.429 8      2496.133    20417341.515    84769369.814 8
      1941.437  
  19930101.435   106649997.603 9      -842.581    19930106.915    82950022.722 8
      -655.343  
 16  3  2  5 25 30.0000000  0 13G29G20G21G18G26G15G10G16G13R 7R 6R22
                                R21
  20726470.851   108918335.80649     -1812.367    20726471.844    84871433.56948
     -1412.238  
  21131061.528   111044479.28949     -1977.680    21131061.955    86528166.28147
     -1541.050  
  20383890.578   107118082.31749       936.945    20383890.311    83468639.33347
       730.086  
  20543002.442   107954236.99449      2160.374    20543002.724    84120200.97347
      1683.410  
  22645849.752   119004742.50948      -444.473    22645854.794    92730993.32847
      -346.343  
  22253730.957   116944182.20749      1347.297    22253732.950    91125349.20947
      1049.840  
  23352103.528   122716165.95948      3181.883    23352109.647    95622998.73146
      2479.395  
  23510793.401   123550072.12247      1640.792    23510794.832    96272776.50543
      1278.535  
  23349103.140   122700373.63148      -447.979    23349104.703    95610696.76945
      -349.074  
  19571712.214   104768938.793 9      2004.108    19571717.483    81486990.454 8
      1558.750  
  20002358.498   106736419.591 9     -2190.570    20002364.308    83017240.346 6
     -1703.780  
  20403326.567   108914360.137 8      2488.874    20403333.907    84711212.849 8
      1935.792  
  19934868.266   106675505.661 9      -857.922    19934873.657    82969862.308 8
      -667.277  
 16  3  2  5 26  0.0000000  0 13G29G20G21G18G26G15G10G16G13R 7R 6R22
                                R21
  20736860.724   108972934.98949     -1826.973    20736861.848    84913978.36548
     -1423.617  
  21142381.110   111103964.40749     -1987.394    21142381.532    86574518.30847
     -1548.620  
  20378571.804   107090131.81949       926.991    20378571.490    83446859.74347
       722.332  
  20530713.065   107889656.03949      2145.531    20530713.349    84069878.19447
      1671.843  
  22648441.318   119018361.12048      -462.796    22648446.319    92741605.22146
      -360.620  
  22246082.294   116903988.21149      1332.738    22246084.264    91094029.24447
      1038.496  
  23333962.375   122620834.24848      3174.292    23333968.456    95548714.43247
      2473.476  
  23501481.894   123501138.94747      1622.866    23501483.457    96234646.82444
      1264.569  
  23351713.625   122714092.91348      -466.012    23351715.478    95621387.14344
      -363.124  
  19560548.142   104709176.483 9      1980.660    19560553.331    81440508.700 8
      1540.511  
  20014732.451   106802449.223 9     -2210.890    20014738.155    83068596.716 6
     -1719.581  
  20389361.518   108839814.194 8      2481.319    20389369.009    84653232.706 8
      1929.914  
  19939721.662   106701476.977 9      -873.176    19939727.089    82990062.205 8
      -679.140  
 16  3  2  5 26 30.0000000  0 13G29G20G21G18G26G15G10G16G13R 7R 6R22
                                R21
  20747335.071   109027978.01849     -1842.094    20747336.229    84956869.01748
     -1435.402  
  21153756.860   111163744.37649     -1997.605    21153757.189    86621100.09847
     -1556.577  
  20373310.772   107062484.72049       916.433    20373310.458    83425316.57347
       714.104  
  20518509.980   107825528.51949      2130.112    20518510.283    84019908.74247
      1659.828  
  22651137.122   119032528.63548      -481.324    22651142.137    92752644.83247
      -375.059  
  22238518.660   116864241.07649      1317.358    22238520.525    91063057.49747
      1026.515  
  23315865.536   122525735.96648      3165.921    23315871.605    95474612.00846
      2466.952  
  23492272.377   123452743.20447      1604.296    23492274.272    96196935.91145
      1250.101  
  23354428.453   122728359.99348      -484.706    23354430.261    95632504.35444
      -377.698  
  19549516.152   104650121.661 9      1956.824    19549521.324    81394577.222 8
      1521.972  
  20027221.839   106869094.768 9     -2231.745    20027227.672    83120432.131 6
     -1735.805  
  20375439.730   108765499.151 8      2473.203    20375447.163    84595432.157 8
      1923.602  
  19944661.941   106727913.125 9      -889.023    19944667.267    83010623.638 8
      -691.465  
 16  3  2  5 27  0.0000000  0 14G29G20G21G18G26G15G10G16G13R 7R 8R 6
                                R22R21
  20757893.434   109083462.59349     -1856.581    20757894.620    85000103.74048
     -1446.690  
  21165188.129   111223815.87949     -2007.086    21165188.421    86667909.05047
     -1563.968  
  20368107.225   107035140.17849       906.609    20368106.939    83404009.15647
       706.445  
  20506393.220   107761854.54649      2115.012    20506393.438    83970292.69147
      1648.062  
  22653937.067   119047242.85048      -499.363    22653942.330    92764110.43547
      -389.116  
  22231040.131   116824941.42149      1302.680    22231041.823    91032434.43147
      1015.074  
  23297813.383   122430871.57348      3158.214    23297819.387    95400691.85046
      2460.949  
  23483165.277   123404885.72547      1586.351    23483166.978    96159644.40444
      1236.120  
  23357247.321   122743173.46348      -502.694    23357249.298    95644047.33844
      -391.711  
  19538616.498   104591775.050 9      1933.292    19538621.727    81349196.568 8
      1503.672  
  23161865.609   124030737.07117      4314.706    23161875.371    96468385.36517
      3355.890  
  20039825.842   106936351.865 9     -2252.008    20039831.659    83172743.199 6
     -1751.565  
  20361561.459   108691416.312 8      2465.687    20361568.860    84537812.198 8
      1917.754  
  19949689.050   106754813.983 9      -904.254    19949694.333    83031546.521 8
      -703.312  
 16  3  2  5 27 30.0000000  0 14G29G20G21G18G26G15G10G16G13R 7R 8R 6
                                R22R21
  20768536.590   109139392.44049     -1871.949    20768537.801    85043685.41348
     -1458.664  
  21176675.278   111284181.28749     -2017.211    21176675.647    86714947.00747
     -1571.854  
  20362962.096   107008102.84249       895.983    20362961.781    83382941.12847
       698.168  
  20494363.756   107698639.50749      2099.426    20494363.988    83921034.26247
      1635.917  
  22656841.789   119062506.83048      -518.168    22656847.184    92776004.42147
      -403.770  
  22223647.947   116786095.17349      1287.101    22223649.723    91002164.67047
      1002.938  
  23279806.791   122336246.66848      3150.104    23279812.863    95326958.29846
      2454.633  
  23474161.659   123357571.83147      1567.902    23474163.342    96122776.49144
      1221.746  
  23360170.868   122758537.59048      -521.500    23360172.988    95656019.39144
      -406.367  
  19527850.278   104534142.945 9      1909.035    19527855.388    81304371.640 8
      1484.804  
  23137712.980   123901400.117 7      4307.612    23137722.915    96367790.209 7
      3350.374  
  20052544.499   107004220.994 9     -2272.688    20052550.233    83225530.284 6
     -1767.647  
  20347728.108   108617573.255 8      2457.184    20347735.568    84480378.745 8
      1911.145  
  19954804.001   106782185.025 9      -920.406    19954809.362    83052835.097 8
      -715.870  
 16  3  2  5 28  0.0000000  0 14G29G20G21G18G26G15G10G16G13R 7R 8R 6
                                R22R21
  20779262.983   109195760.01849     -1886.206    20779264.160    85087608.18348
     -1469.776  
  21188216.581   111344831.17949     -2026.390    21188216.952    86762206.65847
     -1579.007  
  20357874.146   106981365.79449       886.081    20357873.863    83362107.08047
       690.453  
  20482420.465   107635877.21349      2084.487    20482420.677    83872128.61647
      1624.277  
  22659849.573   119078312.21948      -535.917    22659855.036    92788320.29147
      -417.602  
  22216341.019   116747697.19549      1272.362    22216342.733    90972244.20847
       991.453  
  23261844.473   122241855.64648      3142.426    23261850.796    95253407.01246
      2448.648  
  23465260.508   123310796.21747      1550.074    23465262.078    96086327.96045
      1207.847  
  23363198.030   122774445.15348      -539.401    23363200.074    95668414.89745
      -420.316  
  19517216.459   104477219.874 9      1885.550    19517221.617    81260098.189 8
      1466.539  
  23113594.618   123772249.415 7      4301.914    23113604.437    96267339.880 6
      3345.937  
  20065375.976   107072691.804 9     -2292.438    20065381.661    83278785.350 6
     -1783.008  
  20333938.913   108543965.344 9      2449.585    20333946.379    84423128.181 8
      1905.233  
  19960005.617   106810019.829 9      -935.683    19960010.956    83074484.371 8
      -727.758  
 16  3  2  5 28 30.0000000  0 14G29G20G21G18G26G15G10G16G13R 7R 8R 6
                                R22R21
  20790073.944   109252572.03449     -1901.007    20790075.084    85131877.26648
     -1481.309  
  21199813.245   111405771.77749     -2036.098    21199813.535    86809692.82347
     -1586.574  
  20352844.987   106954937.44849       875.851    20352844.729    83341513.58547
       682.480  
  20470564.894   107573576.45449      2069.190    20470565.216    83823582.61347
      1612.354  
  22662961.579   119094665.57448      -554.116    22662966.842    92801063.14647
      -431.784  
  22209121.206   116709757.10349      1257.179    22209123.014    90942680.54147
       979.620  
  23243928.583   122147707.63548      3134.155    23243934.986    95180045.07646
      2442.203  
  23456463.384   123264567.52047      1532.055    23456465.038    96050305.67545
      1193.812  
  23366330.170   122790904.25348      -557.652    23366332.154    95681240.21044
      -434.534  
  19506716.910   104421015.122 9      1861.660    19506722.129    81216383.420 8
      1447.957  
  23089512.848   123643295.849 7      4295.038    23089522.968    96167042.944 7
      3340.594  
  20078320.861   107141768.066 9     -2312.589    20078326.670    83332511.317 6
     -1798.684  
  20320195.755   108470603.122 9      2441.273    20320203.201    84366068.707 8
      1898.770  
  19965295.553   106838327.249 9      -951.417    19965300.967    83096501.235 8
      -739.996  
 16  3  2  5 29  0.0000000  0 14G29G20G21G18G26G15G10G16G13R 7R 8R 6
                                R22R21
  20800968.606   109309823.77549     -1915.828    20800969.824    85176489.00148
     -1492.855  
  21211463.911   111466996.31649     -2045.625    21211464.182    86857400.24447
     -1593.995  
  20347873.806   106928813.93749       865.602    20347873.701    83321157.62047
       674.496  
  20458796.647   107511733.96449      2053.652    20458796.954    83775393.70147
      1600.249  
  22666176.788   119111561.27248      -572.331    22666181.913    92814228.60746
      -445.977  
  22201988.058   116672272.31149      1241.819    22201989.906    90913471.65547
       967.652  
  23226058.413   122053799.63348      3126.179    23226064.579    95106870.15546
      2435.987  
  23447769.840   123218883.13947      1513.812    23447771.696    96014707.48844
      1179.594  
  23369566.289   122807909.95248      -576.078    23369567.966    95694491.41244
      -448.890  
  19496350.979   104365525.671 9      1837.594    19496356.161    81173225.002 8
      1429.238  
  23065467.973   123514538.512 7      4288.125    23065478.518    96066898.565 7
      3335.215  
  20091377.713   107211442.245 9     -2332.520    20091383.623    83386702.334 6
     -1814.187  
  20306498.322   108397485.106 9      2433.073    20306505.717    84309199.171 8
      1892.391  
  19970673.165   106867103.781 9      -967.199    19970678.541    83118882.977 8
      -752.265  
 16  3  2  5 29 30.0000000  0 14G29G20G21G18G26G15G10G16G13R 7R 8R 6
                                R22R21
  20811946.654   109367514.05349     -1930.457    20811947.876    85221442.44348
     -1504.258  
  21223168.207   111528502.49849     -2055.027    21223168.525    86905327.13247
     -1601.323  
  20342960.540   106902994.86149       855.410    20342960.540    83301038.88747
       666.555  
  20447115.690   107450350.18349      2038.378    20447115.996    83727562.22647
      1588.347  
  22669494.965   119128997.50448      -590.320    22669499.976    92827815.26947
      -459.988  
  22194941.697   116635243.74749      1226.632    22194943.460    90884618.26047
       955.816  
  23208234.144   121960132.59148      3118.097    23208240.017    95033882.99146
      2429.691  
  23439180.430   123173744.17248      1495.543    23439181.970    95979534.30845
      1165.354  
  23372906.221   122825461.69548      -594.245    23372907.930    95708168.10145
      -463.055  
  19486118.939   104310752.693 9      1813.608    19486124.105    81130623.842 8
      1410.585  
  23041460.537   123385979.969 7      4281.878    23041470.993    95966908.819 6
      3330.352  
  20104545.867   107281709.912 9     -2352.128    20104551.659    83441354.948 6
     -1829.437  
  20292847.019   108324613.837 8      2424.800    20292854.420    84252521.547 8
      1885.952  
  19976138.515   106896349.816 9      -982.765    19976143.776    83141629.879 8
      -764.378  
 16  3  2  5 30  0.0000000  0 14G29G20G21G18G26G15G10G16G13R 7R 8R 6
                                R22R21
  20823008.806   109425645.86749     -1944.949    20823010.010    85266739.93948
     -1515.547  
  21234926.324   111590291.63049     -2064.308    21234926.624    86953474.48847
     -1608.554  
  20338106.012   106877484.23649       845.305    20338105.972    83281160.49447
       658.680  
  20435523.010   107389430.04949      2023.019    20435523.314    83680092.03647
      1576.379  
  22672916.337   119146976.77548      -608.082    22672921.395    92841825.06647
      -473.836  
  22187983.254   116598677.25849      1211.184    22187985.013    90856124.92747
       943.780  
  23190456.649   121866711.72548      3110.090    23190462.531    94961087.65946
      2423.449  
  23430695.494   123129155.59247      1477.155    23430697.333    95944789.98245
      1151.026  
  23376350.693   122843563.26948      -612.449    23376352.756    95722273.24244
      -477.238  
  19476021.805   104256701.977 9      1789.831    19476027.038    81088584.433 8
      1392.090  
  23017491.476   123257627.143 7      4275.370    23017501.083    95867079.117 6
      3325.297  
  20117825.401   107352571.834 9     -2371.858    20117831.032    83496469.773 6
     -1844.781  
  20279243.198   108251995.938 9      2416.449    20279250.484    84196040.997 8
      1879.460  
  19981692.533   106926070.332 9      -998.445    19981697.755    83164745.829 8
      -776.569  
 16  3  2  5 30 30.0000000  0 14G29G20G21G18G26G15G10G16G13R 7R 8R 6
                                R22R21
  20834154.026   109484214.33449     -1959.464    20834155.305    85312377.68548
     -1526.859  
  21246737.194   111652358.01549     -2073.362    21246737.477    87001837.89547
     -1615.612  
  20333309.601   106852278.67649       835.144    20333309.403    83261519.81447
       650.758  
  20424017.862   107328970.21149      2007.780    20424018.152    83632980.50847
      1564.504  
  22676440.106   119165493.87148      -626.011    22676444.972    92856253.96446
      -487.800  
  22181112.421   116562570.47149      1195.949    22181114.116    90827989.81547
       931.910  
  23172725.572   121773534.47248      3102.098    23172731.405    94888482.16146
      2417.219  
  23422314.764   123085114.62247      1458.913    23422316.412    95910472.35545
      1136.812  
  23379899.362   122862210.39748      -630.624    23379901.062    95736803.49445
      -491.394  
  19466059.061   104203370.879 9      1765.844    19466064.200    81047104.727 8
      1373.434  
  22993560.468   123129479.589 6      4267.992    22993570.087    95767409.053 6
      3319.559  
  20131214.735   107424019.946 9     -2391.241    20131220.438    83552040.500 6
     -1859.859  
  20265686.672   108179630.248 8      2408.020    20265694.043    84139756.606 8
      1872.901  
  19987334.589   106956262.053 9     -1014.159    19987339.752    83188228.264 8
      -788.797  
 16  3  2  5 31  0.0000000  0 14G29G20G21G18G26G15G10G16G13R 7R 8R 6
                                R22R21
  20845382.189   109543218.72949     -1974.120    20845383.457    85358355.12148
     -1538.281  
  21258600.449   111714699.77649     -2082.676    21258600.694    87050415.87947
     -1622.866  
  20328571.297   106827378.53549       824.949    20328571.075    83242117.12447
       642.815  
  20412600.521   107268971.77449      1992.250    20412600.638    83586228.51047
      1552.402  
  22680065.967   119184547.49048      -644.125    22680070.734    92871100.91446
      -501.917  
  22174329.352   116526925.39349      1180.456    22174331.022    90800214.46347
       919.836  
  23155041.004   121680602.31348      3093.675    23155046.552    94816067.64246
      2410.659  
  23414038.535   123041622.68347      1440.437    23414040.273    95876582.57545
      1122.417  
  23383551.645   122881402.93348      -648.891    23383553.215    95751758.72944
      -505.629  
  19456231.037   104150760.632 9      1741.597    19456236.090    81006185.686 8
      1354.574  
  22969668.670   123001540.253 6      4261.022    22969678.739    95667900.963 6
      3314.136  
  20144713.240   107496050.618 9     -2410.772    20144719.131    83608064.338 6
     -1875.051  
  20252177.926   108107519.800 9      2399.359    20252185.374    84083670.745 8
      1866.168  
  19993064.812   106986925.944 9     -1029.925    19993070.232    83212077.943 8
      -801.058  
 16  3  2  5 31 30.0000000  0 14G29G20G21G18G26G15G10G16G13R 7R 8R 6
                                R22R21
  20856694.091   109602662.95549     -1988.844    20856695.403    85404675.27148
     -1549.753  
  21270516.558   111777319.44749     -2092.155    21270516.801    87099210.40847
     -1630.254  
  20323891.963   106802788.46649       814.414    20323891.790    83222956.04447
       634.605  
  20401271.974   107209440.39249      1976.305    20401272.126    83539840.46247
      1539.976  
  22683794.501   119204140.78948      -662.237    22683799.126    92886368.40046
      -516.035  
  22167635.138   116491747.87549      1164.719    22167636.924    90772803.46647
       907.574  
  23137404.124   121587921.10148      3085.035    23137409.747    94743848.65946
      2403.921  
  23405867.859   122998685.52348      1421.875    23405869.853    95843125.07145
      1107.948  
  23387308.464   122901145.39748      -667.344    23387310.229    95767142.45044
      -520.007  
  19446538.793   104098877.448 9      1717.270    19446543.929    80965832.132 8
      1335.651  
  22945817.278   122873817.096 6      4253.769    22945827.038    95568561.002 6
      3308.495  
  20158321.165   107568665.365 9     -2430.352    20158327.205    83664542.457 6
     -1890.277  
  20238718.369   108035672.052 9      2390.223    20238725.619    84027789.183 8
      1859.062  
  19998884.379   107018067.533 9     -1046.145    19998889.862    83236299.169 8
      -813.671  
 16  3  2  5 32  0.0000000  0 14G29G20G21G18G26G15G10G16G13R 7R 8R 6
                                R22R21
  20868088.746   109662541.77249     -2003.164    20868089.919    85451334.06948
     -1560.910  
  21282484.333   111840210.43449     -2100.913    21282484.586    87148216.36347
     -1637.078  
  20319270.910   106778504.70349       804.413    20319270.811    83204033.65947
       626.815  
  20390031.638   107150372.39849      1961.281    20390031.864    83493813.49747
      1528.269  
  22687624.493   119224267.87748      -679.836    22687629.196    92902051.83447
      -529.745  
  22161029.558   116457035.31649      1149.414    22161031.275    90745754.75247
       895.648  
  23119814.560   121495487.72748      3077.020    23119820.114    94671822.80046
      2397.679  
  23397802.239   122956300.21448      1403.645    23397803.978    95810097.59845
      1093.749  
  23391168.910   122921432.83648      -685.207    23391170.520    95782950.85244
      -533.929  
  19436981.780   104047718.290 9      1693.266    19436986.872    80926041.712 8
      1316.984  
  22922005.783   122746308.874 6      4246.938    22922014.959    95469388.220 6
      3303.180  
  20172036.947   107641855.468 9     -2449.160    20172042.937    83721468.088 6
     -1904.906  
  20225307.734   107964085.423 9      2381.945    20225315.005    83972110.742 8
      1852.625  
  20004792.518   107049683.179 9     -1061.581    20004797.938    83260889.102 8
      -825.679  
 16  3  2  5 32 30.0000000  0 14G29G20G21G18G26G15G10G16G13R 7R 8R 6
                                R22R21
  20879566.487   109722857.98749     -2018.020    20879567.685    85498333.69648
     -1572.488  
  21294503.967   111903374.25649     -2110.136    21294504.303    87197434.90847
     -1644.265  
  20314708.895   106754531.31049       793.801    20314708.745    83185353.10547
       618.547  
  20378880.441   107091772.49649      1945.226    20378880.643    83448151.27047
      1515.761  
  22691556.391   119244931.04548      -697.944    22691561.307    92918152.98346
      -543.855  
  22154513.444   116422793.03349      1133.270    22154515.218    90719072.49447
       883.066  
  23102273.065   121403307.23848      3068.331    23102278.554    94599994.01446
      2390.906  
  23389842.407   122914471.64248      1384.668    23389844.426    95777503.93945
      1078.961  
  23395133.736   122942268.67048      -703.894    23395135.870    95799186.57945
      -548.488  
  19427560.873   103997287.814 9      1668.671    19427566.000    80886818.049 8
      1297.855  
  22898235.737   122619022.292 6      4238.953    22898244.744    95370387.833 6
      3296.973  
  20185860.644   107715621.017 9     -2468.633    20185866.586    83778841.272 6
     -1920.051  
  20211947.315   107892766.412 9      2372.586    20211954.527    83916640.427 8
      1845.344  
  20010790.139   107081777.377 9     -1077.909    20010795.468    83285851.253 8
      -838.374  
 16  3  2  5 33  0.0000000  0 14G29G20G21G18G26G15G10G16G13R 7R 8R 6
                                R22R21
  20891126.651   109783606.87249     -2031.945    20891127.879    85545670.47648
     -1583.339  
  21306574.354   111966804.97549     -2118.632    21306574.832    87246861.42547
     -1650.886  
  20310205.222   106730864.53349       783.945    20310205.034    83166911.47647
       610.862  
  20367817.785   107033637.65849      1930.270    20367817.889    83402851.42347
      1504.105  
  22695589.488   119266124.74248      -715.012    22695594.308    92934667.54346
      -557.156  
  22148086.337   116389018.60449      1118.336    22148088.253    90692754.80447
       871.429  
  23084779.274   121311376.87048      3060.374    23084784.727    94528360.12146
      2384.711  
  23381988.128   122873196.81248      1366.847    23381989.856    95745341.75445
      1065.069  
  23399202.092   122963648.46248      -721.363    23399204.283    95815846.17444
      -562.101  
  19418275.683   103947583.465 9      1644.886    19418280.749    80848159.140 8
      1279.379  
  22874506.547   122491956.683 6      4231.781    22874516.112    95271559.324 6
      3291.395  
  20199790.812   107789954.562 9     -2486.953    20199796.459    83836656.227 6
     -1934.300  
  20198636.775   107821713.969 9      2364.305    20198643.814    83861377.444 8
      1838.902  
  20016876.570   107114346.784 9     -1093.335    20016881.799    83311182.999 8
      -850.374  
 16  3  2  5 33 30.0000000  0 14G29G20G21G18G26G15G10G16G13R 7R 8R 6
                                R22R21
  20902769.203   109844789.17849     -2046.422    20902770.502    85593344.97848
     -1594.617  
  21318695.483   112030501.93849     -2127.515    21318695.913    87296495.41147
     -1657.808  
  20305760.242   106707506.16549       773.563    20305760.080    83148710.16247
       602.773  
  20356843.919   106975970.07149      1914.504    20356844.198    83357915.68047
      1491.819  
  22699723.398   119287848.99148      -732.746    22699728.359    92951595.50847
      -570.977  
  22141748.789   116355715.06549      1102.398    22141750.675    90666804.04147
       859.011  
  23067333.625   121219699.42648      3051.812    23067338.978    94456923.29146
      2378.039  
  23374239.667   122832478.28548      1348.261    23374241.231    95713613.05745
      1050.589  
  23403374.556   122985573.47148      -739.761    23403376.304    95832930.59344
      -576.438  
  19409126.531   103898608.086 9      1620.641    19409131.715    80810067.212 8
      1260.499  
  22850819.841   122365116.823 6      4224.429    22850829.355    95172906.349 6
      3285.675  
  20213826.875   107864853.623 9     -2505.827    20213832.522    83894911.038 6
     -1948.979  
  20185376.942   107750932.360 9      2354.961    20185384.026    83806325.112 8
      1831.636  
  20023052.190   107147393.713 9     -1109.276    20023057.413    83336886.156 8
      -862.772  
 16  3  2  5 34  0.0000000  0 14G29G20G21G18G26G15G10G16G13R 7R 8R 6
                                R22R21
  20914494.373   109906405.14349     -2061.218    20914495.656    85641357.39648
     -1606.145  
  21330867.271   112094464.89749     -2136.550    21330867.684    87346336.65647
     -1664.848  
  20301374.497   106684458.63949       762.906    20301374.272    83130751.07347
       594.468  
  20345959.477   106918771.97349      1898.699    20345959.673    83313345.77447
      1479.507  
  22703958.393   119310104.04048      -750.906    22703963.427    92968937.09147
      -585.124  
  22135501.556   116322885.57349      1086.246    22135503.417    90641222.65847
       846.426  
  23049936.709   121128277.95248      3043.054    23049942.034    94385685.93146
      2371.215  
  23366597.672   122792319.04548      1329.210    23366599.225    95682320.19545
      1035.750  
  23407650.679   123008045.42948      -758.257    23407652.656    95850441.19345
      -590.854  
  19400114.270   103850364.500 9      1595.729    19400119.415    80772544.451 8
      1241.124  
  22827176.371   122238507.395 7      4216.141    22827185.851    95074432.614 6
      3279.222  
  20227968.626   107940316.466 9     -2524.918    20227974.396    83953604.344 6
     -1963.828  
  20172168.759   107680426.434 9      2345.438    20172175.857    83751487.188 8
      1824.226  
  20029317.482   107180920.713 9     -1125.722    20029322.797    83362962.692 8
      -875.566  
 16  3  2  5 34 30.0000000  0 14G29G20G21G18G26G15G10G16G13R 7R 8R 6
                                R22R21
  20926302.023   109968454.45249     -2075.343    20926303.202    85689707.48148
     -1617.156  
  21343089.289   112158691.59949     -2145.055    21343089.699    87396383.41747
     -1671.477  
  20297047.749   106661721.45649       752.913    20297047.510    83113033.80147
       586.688  
  20335164.464   106862044.14149      1883.254    20335164.742    83269142.30547
      1467.468  
  22708293.867   119332888.13948      -768.141    22708299.168    92986690.91446
      -598.555  
  22129344.782   116290531.66449      1070.746    22129346.652    90616011.86347
       834.348  
  23032588.543   121037113.60348      3034.593    23032593.817    94314648.91346
      2364.620  
  23359062.126   122752720.11248      1310.925    23359063.981    95651463.91245
      1021.500  
  23412030.708   123031063.01248      -776.141    23412032.552    95868376.98044
      -604.788  
  19391238.815   103802853.835 9      1571.722    19391243.994    80735591.744 8
      1222.448  
  22803576.176   122112131.394 6      4208.772    22803585.949    94976140.451 6
      3273.500  
  20242215.022   108016338.309 8     -2543.043    20242220.791    84012732.424 6
     -1977.925  
  20159012.728   107610198.869 9      2336.484    20159019.861    83696865.786 8
      1817.266  
  20035672.649   107214928.308 9     -1141.391    20035678.136    83389413.030 8
      -887.753  
 16  3  2  5 35  0.0000000  0 14G29G20G21G18G26G15G10G16G13R 7R 8R 6
                                R22R21
  20938191.317   110030932.70749     -2089.715    20938192.506    85738391.81848
     -1628.352  
  21355360.555   112223177.31849     -2153.960    21355360.920    87446632.01547
     -1678.414  
  20292779.649   106639292.46949       742.480    20292779.366    83095556.68347
       578.555  
  20324458.645   106805784.74549      1867.472    20324458.798    83225303.84947
      1455.171  
  22712729.531   119356197.08648      -785.788    22712734.697    93004853.72747
      -612.309  
  22123278.337   116258652.24849      1054.793    22123280.059    90591170.80347
       821.918  
  23015288.998   120946204.97248      3025.964    23015294.292    94243811.15846
      2357.897  
  23351633.013   122713679.82848      1291.980    23351634.825    95621042.94845
      1006.733  
  23416514.232   123054623.62048      -794.500    23416516.293    95886735.90045
      -619.090  
  19382500.022   103756074.361 9      1547.085    19382505.233    80699207.743 8
      1203.288  
  22780019.906   121985989.294 7      4200.776    22780029.512    94878030.222 6
      3267.276  
  20256565.276   108092913.764 9     -2561.706    20256571.000    84072291.087 6
     -1992.440  
  20145908.927   107540249.826 9      2327.011    20145916.044    83642460.988 8
      1809.895  
  20042117.212   107249414.620 9     -1157.613    20042122.687    83416235.706 8
      -900.371  
 16  3  2  5 35 30.0000000  0 14G29G20G21G18G26G15G10G16G13R 7R 8R 6
                                R22R21
  20950162.490   110093841.67849     -2103.854    20950163.731    85787411.76548
     -1639.371  
  21367681.215   112287922.51149     -2162.101    21367681.432    87497082.79847
     -1684.757  
  20288570.790   106617174.70349       732.405    20288570.437    83078322.07347
       570.706  
  20313842.603   106749997.03649      1852.043    20313842.720    83181832.93947
      1443.147  
  22717265.144   119380031.80148      -802.819    22717270.328    93023426.22047
      -625.573  
  22117302.902   116227251.28249      1038.902    22117304.535    90566702.56047
       809.534  
  22998038.781   120855555.87548      3017.604    22998044.279    94173175.64546
      2351.382  
  23344310.900   122675201.95648      1273.569    23344312.514    95591060.21245
       992.386  
  23421101.368   123078729.09048      -812.137    23421103.054    95905519.38645
      -632.832  
  19373898.519   103710029.627 9      1522.859    19373903.718    80663395.194 8
      1184.445  
  22756508.527   121860086.928 7      4193.074    22756517.702    94780106.460 6
      3261.289  
  20271018.906   108170041.354 9     -2579.772    20271024.808    84132279.194 6
     -2006.496  
  20132858.347   107470584.910 9      2317.804    20132865.497    83588277.202 8
      1802.738  
  20048651.809   107284382.725 9     -1173.397    20048657.151    83443433.101 8
      -912.645  
 16  3  2  5 36  0.0000000  0 14G29G20G21G18G26G15G10G16G13R 7R 8R 6
                                R22R21
  20962215.311   110157179.43049     -2118.336    20962216.508    85836765.83848
     -1650.656  
  21380050.533   112352923.83749     -2170.727    21380050.768    87547733.16347
     -1691.480  
  20284421.008   106595367.29549       721.801    20284420.607    83061329.30647
       562.441  
  20303316.186   106694680.53049      1836.070    20303316.341    83138729.20747
      1430.702  
  22721900.313   119404389.52848      -820.586    22721905.384    93042406.24947
      -639.421  
  22111418.663   116196328.93149      1022.883    22111420.125    90542607.25947
       797.050  
  22980838.011   120765166.31548      3008.601    22980843.542    94102742.34546
      2344.367  
  23337095.743   122637286.02048      1254.546    23337097.195    95561515.37445
       977.566  
  23425791.968   123103377.95548      -830.456    23425793.659    95924726.28744
      -647.108  
  19365434.230   103664719.813 9      1498.241    19365439.329    80628154.259 8
      1165.301  
  22733042.220   121734426.168 7      4184.585    22733051.202    94682370.565 6
      3254.688  
  20285575.061   108247715.725 8     -2598.016    20285581.007    84192692.573 6
     -2020.684  
  20119861.272   107401205.706 9      2308.047    20119868.448    83534315.624 8
      1795.147  
  20055276.406   107319832.191 9     -1189.566    20055281.818    83471004.896 8
      -925.222  
 16  3  2  5 36 30.0000000  0 14G29G20G21G18G26G15G10G16G13R 7R 8R 6
                                R22R21
  20974349.799   110220946.56349     -2132.733    20974351.051    85886454.48448
     -1661.875  
  21392468.538   112418180.61549     -2179.363    21392468.661    87598582.57647
     -1698.211  
  20280330.525   106573871.88249       711.406    20280330.186    83044579.65447
       554.343  
  20292879.948   106639837.41549      1820.183    20292879.912    83095994.33947
      1418.324  
  22726634.930   119429269.95348      -838.059    22726639.934    93061793.56446
      -653.035  
  22105625.898   116165888.18249      1006.636    22105627.417    90518887.24447
       784.390  
  22963687.262   120675038.98748      3000.019    22963692.807    94032513.39246
      2337.679  
  23329987.978   122599934.58748      1235.637    23329989.585    95532410.37046
       962.832  
  23430585.876   123128570.86248      -848.801    23430587.526    95944357.12245
      -661.405  
  19357107.678   103620147.031 9      1473.469    19357112.765    80593486.567 8
      1146.031  
  22709621.866   121609011.488 7      4176.582    22709630.594    94584826.090 6
      3248.383  
  20300233.360   108325935.056 9     -2616.245    20300239.270    84253529.806 6
     -2034.862  
  20106918.467   107332116.568 9      2298.034    20106925.643    83480579.669 8
      1787.359  
  20061991.399   107355765.005 9     -1205.788    20061996.651    83498952.622 8
      -937.840  
 16  3  2  5 37  0.0000000  0 14G29G20G21G18G26G15G10G16G13R 7R 8R 6
                                R22R21
  20986565.107   110285138.22049     -2146.698    20986566.327    85936473.93448
     -1672.758  
  21404934.061   112483687.41449     -2187.906    21404934.241    87649626.82447
     -1704.866  
  20276298.800   106552685.39649       701.124    20276298.536    83028070.72147
       546.331  
  20282533.144   106585465.06449      1804.597    20282533.231    83053626.31547
      1406.180  
  22731468.310   119454667.94048      -855.116    22731472.994    93081584.20146
      -666.323  
  22099924.417   116135927.01049       990.632    22099926.012    90495540.91547
       771.941  
  22946585.988   120585171.62548      2991.319    22946591.467    93962487.01146
      2330.897  
  23322987.218   122563145.62548      1216.952    23322988.811    95503743.68345
       948.273  
  23435482.859   123154303.93148      -866.702    23435484.706    95964408.87945
      -675.354  
  19348918.341   103576309.089 9      1449.016    19348923.371    80559390.418 8
      1127.012  
  22686247.383   121483842.314 7      4167.995    22686255.751    94487472.571 7
      3241.887  
  20314992.238   108404691.230 9     -2634.144    20314998.086    84314784.591 6
     -2048.780  
  20094030.000   107263317.057 9      2288.520    20094037.006    83427068.950 8
      1779.960  
  20068796.169   107392178.390 9     -1221.823    20068801.270    83527274.131 8
      -950.312  
 16  3  2  5 37 30.0000000  0 14G29G20G21G18G26G15G10G16G13R 7R 8R 6
                                R22R21
  20998862.075   110349758.97249     -2161.363    20998863.258    85986827.74748
     -1684.183  
  21417447.759   112549447.65349     -2196.316    21417448.146    87700868.54747
     -1711.417  
  20272326.966   106531813.61049       690.272    20272326.671    83011807.00147
       537.874  
  20272277.107   106531569.63349      1788.563    20272277.401    83011629.90547
      1393.684  
  22736400.475   119480587.26748      -872.726    22736405.391    93101781.04146
      -680.051  
  22094315.508   116106452.24149       974.253    22094317.145    90472573.60647
       759.160  
  22929535.437   120495570.81448      2982.137    22929540.831    93892668.32247
      2323.746  
  23316094.717   122526924.63248      1197.780    23316096.158    95475519.54745
       933.336  
  23440483.515   123180582.02348      -884.938    23440485.225    95984885.29545
      -689.565  
  19340867.473   103533212.161 9      1424.133    19340872.586    80525870.619 8
      1107.659  
  22662920.337   121358927.480 7      4159.417    22662928.912    94390316.860 7
      3235.108  
  20329852.235   108483986.584 8     -2652.207    20329858.033    84376458.731 6
     -2062.832  
  20081197.261   107194815.523 9      2278.246    20081204.393    83373790.021 8
      1771.969  
  20075691.743   107429078.282 9     -1238.245    20075697.169    83555974.027 8
      -963.085  
 16  3  2  5 38  0.0000000  0 14G29G20G21G18G26G15G10G16G13R 7R 8R 6
                                R22R21
  21011239.768   110414804.28249     -2174.987    21011240.893    86037512.37848
     -1694.801  
  21430008.593   112615455.50049     -2204.262    21430009.232    87752303.22147
     -1717.609  
  20268414.361   106511253.01649       680.331    20268414.109    82995785.78047
       530.128  
  20262111.244   106478148.03749      1772.914    20262111.539    82970002.71447
      1381.492  
  22741430.958   119507022.38248      -889.331    22741435.860    93122379.81546
      -692.988  
  22088798.649   116077461.35749       958.520    22088800.303    90449983.34047
       746.897  
  22912535.118   120406234.06648      2973.573    22912540.537    93823055.39546
      2317.074  
  23309309.747   122491269.25148      1179.253    23309311.091    95447736.17345
       918.894  
  23445586.992   123207400.63048      -902.815    23445588.815    96005782.92244
      -703.496  
  19332954.473   103490853.286 9      1399.659    19332959.486    80492924.852 8
      1088.625  
  22639640.582   121234266.106 7      4151.140    22639649.027    94293358.275 7
      3228.667  
  20344811.702   108563813.072 8     -2669.559    20344817.606    84438545.984 6
     -2076.323  
  20068420.256   107126611.131 9      2268.594    20068427.304    83320742.178 8
      1764.461  
  20082677.685   107466461.531 9     -1254.042    20082683.081    83585049.867 8
      -975.371  
 16  3  2  5 38 30.0000000  0 14G29G20G21G18G26G15G10G16G13R 7R 8R 6
                                R22R21
  21023698.085   110480273.36849     -2189.104    21023699.240    86088527.22348
     -1705.801  
  21442616.344   112681709.64849     -2212.444    21442617.072    87803929.81347
     -1723.987  
  20264561.244   106491004.74649       669.914    20264561.019    82980007.92347
       522.011  
  20252035.784   106425201.23049      1757.203    20252036.022    82928745.49847
      1369.249  
  22746559.504   119533972.32448      -906.792    22746564.398    93143379.75746
      -706.593  
  22083374.310   116048956.42149       942.218    22083375.948    90427771.73047
       734.191  
  22895585.590   120317163.28748      2964.921    22895590.687    93753649.68747
      2310.328  
  23302632.673   122456181.42648      1160.487    23302634.074    95420395.03145
       904.276  
  23450793.461   123234760.12348      -920.796    23450795.079    96027102.01744
      -717.507  
  19325179.566   103449233.974 9      1375.070    19325184.648    80460554.305 8
      1069.500  
  22616408.773   121109862.199 7      4142.679    22616416.925    94196599.951 6
      3222.094  
  20359870.030   108644167.603 8     -2687.188    20359876.104    84501043.933 6
     -2090.039  
  20055699.605   107058707.495 9      2258.676    20055706.666    83267928.278 8
      1756.746  
  20089754.210   107504329.477 9     -1270.222    20089759.570    83614502.698 8
      -987.949  
 16  3  2  5 39  0.0000000  0 14G29G20G21G18G26G15G10G16G13R 7R 8R 6
                                R22R21
  21036237.391   110546167.73949     -2203.777    21036238.669    86139873.46448
     -1717.234  
  21455270.898   112748210.14949     -2221.089    21455271.647    87855748.36647
     -1730.723  
  20260768.050   106471071.16049       658.913    20260767.834    82964475.27847
       513.440  
  20242051.237   106372732.20949      1740.714    20242051.430    82887860.57647
      1356.402  
  22751785.935   119561437.68948      -924.465    22751790.826    93164781.32746
      -720.363  
  22078043.222   116020941.33149       925.480    22078044.817    90405941.82947
       721.151  
  22878687.066   120228362.00548      2955.249    22878692.276    93684454.01847
      2302.796  
  23296064.000   122421663.87948      1140.874    23296065.446    95393498.28445
       888.991  
  23456102.942   123262662.04048      -939.375    23456104.379    96048843.77745
      -731.980  
  19317543.537   103408357.684 9      1349.801    19317548.560    80428761.661 8
      1049.843  
  22593226.231   120985721.520 7      4133.085    22593234.108    94100046.338 7
      3214.629  
  20375027.086   108725048.805 8     -2704.992    20375033.368    84563951.517 6
     -2103.887  
  20043036.382   106991110.130 9      2247.855    20043043.507    83215352.579 8
      1748.332  
  20096921.975   107542685.136 9     -1286.921    20096927.253    83644334.859 8
     -1000.940  
 16  3  2  5 39 30.0000000  0 14G29G20G21G18G26G15G10G16G13R 7R 8R 6
                                R22R21
  21048856.842   110612483.61949     -2217.566    21048858.246    86191548.14848
     -1727.977  
  21467971.530   112814952.29949     -2228.714    21467972.190    87907755.21947
     -1736.664  
  20257034.298   106451450.15949       648.741    20257034.070    82949186.20247
       505.512  
  20232157.329   106320739.46449      1725.159    20232157.395    82847346.78347
      1344.280  
  22757109.738   119589414.11548      -940.968    22757114.605    93186581.12247
      -733.222  
  22072805.076   115993414.97249       909.206    22072806.792    90384492.74247
       708.473  
  22861839.645   120139828.90148      2946.573    22861844.769    93615467.29546
      2296.031  
  23289603.582   122387714.87348      1121.930    23289605.016    95367044.52945
       874.227  
  23461515.109   123291103.23348      -957.097    23461516.474    96071005.74444
      -745.788  
  19310045.909   103368222.323 9      1325.593    19310050.937    80397545.298 8
      1031.016  
  22570092.773   120861843.936 7      4124.965    22570100.449    94003697.338 6
      3208.254  
  20390281.745   108806450.308 8     -2722.105    20390287.999    84627263.776 6
     -2117.195  
  20030430.576   106923819.264 9      2237.688    20030437.726    83163015.263 8
      1740.421  
  20104180.350   107581526.353 9     -1302.941    20104185.785    83674544.672 8
     -1013.401  
 16  3  2  5 40  0.0000000  0 14G29G20G21G18G26G15G10G16G13R 7R 8R 6
                                R22R21
  21061556.974   110679223.07749     -2231.801    21061558.292    86243552.90248
     -1739.069  
  21480718.472   112881937.61549     -2237.055    21480719.090    87959951.55047
     -1743.163  
  20253360.685   106432145.13349       638.078    20253360.289    82934143.33947
       497.202  
  20222354.736   106269226.42549      1708.948    20222354.683    82807206.78547
      1331.647  
  22762530.903   119617902.93948      -958.438    22762535.961    93208780.17146
      -746.839  
  22067660.738   115966381.54149       892.694    22067662.449    90363427.76647
       695.601  
  22845043.927   120051568.17748      2937.308    22845049.274    93546692.80047
      2288.813  
  23283252.343   122354338.66948      1102.624    23283253.993    95341037.12045
       859.184  
  23467030.234   123320086.22248      -975.253    23467031.763    96093589.89744
      -759.940  
  19302687.491   103328831.887 9      1300.469    19302692.403    80366908.317 8
      1011.473  
  22547009.571   120738236.030 7      4115.394    22547017.199    93907558.045 7
      3200.945  
  20405633.771   108888371.194 9     -2739.483    20405639.941    84690980.003 6
     -2130.714  
  20017883.237   106856840.965 9      2227.227    20017890.495    83110921.067 8
      1732.289  
  20111530.203   107620856.839 9     -1319.257    20111535.733    83705135.027 8
     -1026.094  
 16  3  2  5 40 30.0000000  0 14G29G20G21G18G26G15G10G16G13R 7R 8R 6
                                R22R21
  21074336.743   110746381.09149     -2245.594    21074338.091    86295883.79148
     -1749.815  
  21493510.403   112949159.82649     -2244.706    21493511.070    88012332.47647
     -1749.124  
  20249746.448   106413152.47149       627.847    20249746.125    82919343.88047
       489.229  
  20212642.752   106218189.73149      1693.269    20212642.694    82767437.97147
      1319.429  
  22768048.586   119646898.30648      -975.175    22768053.745    93231373.94746
      -759.879  
  22062609.711   115939838.37249       876.589    22062611.392    90342744.81447
       683.059  
  22828299.756   119963577.03248      2928.500    22828305.374    93478128.39047
      2281.952  
  23277009.285   122321531.86148      1083.987    23277011.073    95315473.40545
       844.668  
  23472647.748   123349606.23748      -993.055    23472649.096    96116592.53345
      -773.812  
  19295467.542   103290182.901 9      1275.706    19295472.395    80336848.023 8
       992.215  
  22523976.427   120614896.620 7      4106.746    22523984.334    93811627.629 7
      3194.145  
  20421081.610   108970803.569 8     -2756.273    20421087.562    84755094.055 6
     -2143.772  
  20005394.224   106790174.141 9      2217.050    20005401.417    83059069.123 8
      1724.371  
  20118970.877   107660672.922 9     -1335.379    20118976.360    83736103.070 8
     -1038.632  
 16  3  2  5 41  0.0000000  0 14G29G20G21G18G26G15G10G16G13R 7R 8R 6
                                R22R21
  21087196.630   110813960.28649     -2259.820    21087197.995    86348542.88548
     -1760.901  
  21506347.811   113016620.42149     -2252.757    21506348.346    88064899.16347
     -1755.394  
  20246192.521   106394476.26949       617.163    20246192.242    82904791.01047
       480.905  
  20203022.250   106167633.43449      1677.031    20203022.052    82728043.48547
      1306.777  
  22773662.878   119676402.01648      -991.953    22773668.260    93254363.82346
      -772.952  
  22057652.948   115913790.28249       859.801    22057654.531    90322447.64047
       669.976  
  22811607.643   119875860.25748      2919.145    22811613.345    93409777.76047
      2274.655  
  23270875.587   122289298.97048      1064.559    23270877.394    95290356.89145
       829.522  
  23478367.758   123379665.81248     -1011.004    23478369.618    96140015.58345
      -787.800  
  19288386.807   103252279.704 9      1250.796    19288391.894    80307367.791 8
       972.843  
  22500994.592   120491832.717 7      4097.305    22501003.253    93715911.519 7
      3186.917  
  20436625.242   109053747.023 9     -2773.476    20436631.170    84819605.611 6
     -2157.152  
  19992964.906   106723825.724 9      2206.184    19992972.063    83007464.832 8
      1715.922  
  20126502.961   107700978.873 9     -1351.879    20126508.418    83767452.126 8
     -1051.464  
 16  3  2  5 41 30.0000000  0 14G29G20G21G18G26G15G10G16G13R 7R 8R 6
                                R22R21
  21100135.677   110881954.93649     -2273.104    21100136.988    86401525.71248
     -1771.253  
  21519229.302   113084313.17449     -2259.984    21519229.867    88117646.74447
     -1761.031  
  20242698.042   106376112.56749       607.164    20242697.828    82890481.65547
       473.112  
  20193492.461   106117554.27349      1661.586    20193492.367    82689020.80248
      1294.742  
  22779372.820   119706407.87348     -1008.253    22779378.034    93277744.98846
      -785.655  
  22052789.747   115888234.29949       843.902    22052791.380    90302533.91347
       657.586  
  22794967.115   119788414.63248      2910.563    22794972.849    93341638.42847
      2267.972  
  23264850.549   122257636.52248      1046.011    23264852.105    95265684.87145
       815.069  
  23484189.717   123410260.35048     -1028.465    23484191.728    96163855.49345
      -801.401  
  19281444.767   103215118.544 9      1226.569    19281449.702    80278464.687 8
       954.000  
  22478064.380   120369042.852 7      4088.706    22478072.914    93620408.470 7
      3180.109  
  20452263.067   109137193.800 8     -2789.652    20452269.230    84884508.645 6
     -2169.734  
  19980594.886   106657794.090 9      2195.999    19980602.075    82956106.925 8
      1707.999  
  20134125.949   107741770.738 9     -1367.663    20134131.364    83799179.114 8
     -1063.742  
 16  3  2  5 42  0.0000000  0 14G29G20G21G18G26G15G10G16G13R 7R 8R 6
                                R22R21
  21113154.100   110950366.80549     -2287.191    21113155.380    86454833.63448
     -1782.230  
  21532155.141   113152239.07649     -2267.874    21532155.719    88170576.00847
     -1767.179  
  20239263.590   106358064.49249       596.632    20239263.267    82876418.23347
       464.909  
  20184054.131   106067955.76349      1645.461    20184054.162    82650372.64647
      1282.176  
  22785178.493   119736917.04648     -1025.078    22785183.723    93301518.34447
      -798.761  
  22048021.090   115863174.77849       827.300    22048022.659    90283007.04747
       644.636  
  22778379.425   119701244.41948      2901.218    22778384.817    93273713.68047
      2260.690  
  23258934.668   122226548.32848      1026.816    23258935.980    95241460.32845
       800.117  
  23490114.032   123441391.96348     -1046.336    23490116.019    96188113.87845
      -815.332  
  19274642.061   103178703.347 9      1201.578    19274647.067    80250141.785 8
       934.562  
  22455186.487   120246533.177 7      4079.112    22455194.631    93525123.355 7
      3172.647  
  20467995.063   109221142.464 8     -2806.366    20468001.178    84949802.040 6
     -2182.733  
  19968285.446   106592085.560 9      2185.246    19968292.622    82905000.318 8
      1699.637  
  20141840.267   107783051.960 9     -1383.991    20141845.809    83831286.707 8
     -1076.441  
 16  3  2  5 42 30.0000000  0 14G29G20G21G18G26G15G10G16G13R 7R 8R 6
                                R22R21
  21126251.740   111019195.77349     -2301.383    21126253.115    86508466.57648
     -1793.289  
  21545125.220   113220396.82949     -2275.870    21545125.658    88223685.93047
     -1773.409  
  20235889.409   106340333.24149       585.660    20235889.140    82862601.68747
       456.354  
  20174707.497   106018839.05949      1629.050    20174707.502    82612099.92048
      1269.391  
  22791079.735   119767928.46748     -1042.016    22791085.016    93325683.05746
      -811.965  
  22043347.253   115838613.66149       810.344    22043348.809    90263868.53947
       631.438  
  22761844.407   119614351.56148      2891.688    22761849.506    93206005.06347
      2253.266  
  23253128.213   122196035.73548      1007.273    23253130.042    95217684.32746
       784.886  
  23496140.365   123473060.49348     -1064.684    23496141.846    96212790.66644
      -829.625  
  19267978.960   103143035.213 9      1176.370    19267983.817    80222399.935 8
       914.957  
  22432361.550   120124307.705 7      4069.324    22432369.779    93430059.337 7
      3165.034  
  20483820.544   109305590.385 8     -2823.190    20483826.442    85015483.729 6
     -2195.819  
  19956037.097   106526703.728 9      2173.715    19956044.575    82854147.815 8
      1690.667  
  20149646.379   107824824.070 9     -1400.694    20149651.907    83863776.109 8
     -1089.429  
 16  3  2  5 43  0.0000000  0 14G29G20G21G18G26G15G10G16G13R 7R 8R 6
                                R22R21
  21139428.376   111088438.99749     -2314.898    21139429.612    86562422.31447
     -1803.820  
  21558138.625   113288782.67349     -2283.081    21558138.996    88276973.59247
     -1779.022  
  20232575.199   106322917.35549       575.414    20232574.974    82849030.88647
       448.375  
  20165452.264   105970202.70149      1613.414    20165452.257    82574201.48647
      1257.206  
  22797075.905   119799438.49148     -1058.570    22797080.987    93350236.30746
      -824.859  
  22038768.191   115814550.65549       794.008    22038769.773    90245118.18247
       618.706  
  22745361.978   119527735.37848      2882.737    22745366.913    93138512.04047
      2246.288  
  23247431.155   122166097.45848       988.691    23247432.666    95194355.80745
       770.410  
  23502268.175   123505263.38447     -1082.102    23502270.143    96237883.82945
      -843.199  
  19261455.209   103108113.316 9      1151.862    19261460.158    80195238.488 8
       895.895  
  22409590.080   120002367.458 7      4059.996    22409597.930    93335217.078 7
      3157.828  
  20499738.477   109390531.621 8     -2839.414    20499744.396    85081549.118 6
     -2208.438  
  19943850.374   106461649.830 9      2163.199    19943857.831    82803550.362 8
      1682.488  
  20157544.003   107867085.416 9     -1416.640    20157549.481    83896646.019 8
     -1101.835  
 16  3  2  5 43 30.0000000  0 14G29G20G21G18G26G15G10G16G13R 7R 8R 6
                                R22R21
  21152684.046   111158098.01049     -2329.190    21152685.266    86616702.03448
     -1814.957  
  21571195.670   113357397.65949     -2291.315    21571195.981    88330439.79447
     -1785.441  
  20229321.707   106305820.04549       564.234    20229321.489    82835708.31747
       439.659  
  20156289.062   105922050.09449      1596.581    20156289.087    82536679.99647
      1244.090  
  22803167.318   119831447.96048     -1075.535    22803172.142    93375178.72446
      -838.082  
  22034284.592   115790989.33549       776.694    22034286.146    90226758.72947
       605.183  
  22728932.749   119441399.85248      2872.781    22728937.835    93071237.71147
      2238.535  
  23241844.209   122136737.42448       968.691    23241845.630    95171477.89145
       754.824  
  23508498.391   123538003.04348     -1100.476    23508500.428    96263395.27245
      -857.516  
  19255071.486   103073940.559 9      1126.320    19255076.362    80168659.706 8
       876.027  
  22386872.911   119880718.581 7      4049.937    22386880.602    93240601.490 7
      3149.753  
  20515748.645   109475965.074 8     -2856.198    20515754.681    85147997.337 6
     -2221.492  
  19931726.185   106396929.958 9      2151.434    19931733.535    82753212.714 8
      1673.336  
  20165533.622   107909839.385 9     -1433.621    20165539.129    83929899.083 8
     -1115.042  
 16  3  2  5 44  0.0000000  0 14G29G20G21G18G26G15G10G16G13R 7R 8R 6
                                R22R21
  21166018.110   111228168.58249     -2342.722    21166019.370    86671302.46048
     -1825.504  
  21584295.261   113426236.56549     -2298.480    21584295.578    88384080.48447
     -1791.027  
  20226128.381   106289038.87949       553.922    20226128.020    82822632.09447
       431.629  
  20147217.597   105874378.90749      1580.902    20147217.507    82499533.64047
      1231.871  
  22809352.688   119863951.95148     -1091.730    22809357.676    93400506.48347
      -850.703  
  22029896.135   115767927.87249       760.155    22029897.678    90208788.78347
       592.378  
  22712556.454   119355343.12148      2863.848    22712561.318    93004180.61047
      2231.570  
  23236366.660   122107953.11448       949.542    23236368.169    95149048.57045
       739.897  
  23514829.695   123571275.30348     -1118.175    23514832.016    96289321.72645
      -871.305  
  19248827.064   103040514.398 9      1101.538    19248832.110    80142661.606 8
       856.754  
  22364210.306   119759361.143 7      4040.097    22364217.704    93146212.538 7
      3142.301  
  20531849.843   109561884.058 8     -2872.176    20531855.910    85214823.196 6
     -2233.918  
  19919664.499   106332543.984 9      2140.324    19919671.864    82703134.760 8
      1664.694  
  20173614.834   107953083.458 9     -1449.758    20173620.351    83963533.345 8
     -1127.594  
 16  3  2  5 44 30.0000000  0 14G29G20G21G18G26G15G10G16G13R 7R 8R 6
                                R22R21
  21179430.519   111298651.64449     -2356.093    21179431.858    86726224.29447
     -1835.921  
  21597437.455   113495299.35449     -2305.604    21597437.755    88437895.62747
     -1796.578  
  20222995.583   106272575.75949       543.773    20222995.127    82809803.70147
       423.719  
  20138238.181   105827191.54149      1565.026    20138238.017    82462764.28548
      1219.500  
  22815632.073   119896950.68948     -1108.008    22815636.903    93426219.77446
      -863.382  
  22025603.429   115745369.92649       743.761    22025605.084    90191211.19947
       579.554  
  22696233.918   119269568.42948      2854.582    22696238.808    92937343.28647
      2224.351  
  23230999.063   122079747.51447       930.762    23231001.023    95127070.19446
       725.269  
  23521262.800   123605081.52948     -1135.472    23521264.962    96315664.25044
      -884.785  
  19242722.757   103007837.437 9      1076.976    19242727.689    80117246.222 8
       837.645  
  22341603.024   119638300.234 7      4030.734    22341610.511    93052054.223 7
      3135.020  
  20548041.798   109648286.838 8     -2887.843    20548047.682    85282025.342 6
     -2246.105  
  19907666.384   106268497.074 9      2129.409    19907673.501    82653320.527 8
      1656.206  
  20181788.121   107996819.713 9     -1465.761    20181793.487    83997550.405 8
     -1140.039  
 16  3  2  5 45  0.0000000  0 14G29G20G21G18G26G15G10G16G13R 7R 8R 6
                                R22R21
  21192920.795   111369543.36549     -2369.444    21192921.963    86781464.57947
     -1846.320  
  21610621.409   113564581.56749     -2312.726    21610621.811    88491881.75747
     -1802.124  
  20219922.897   106256428.55749       533.434    20219922.381    82797221.47847
       415.663  
  20129350.360   105780485.94549      1549.172    20129350.229    82426370.34248
      1207.147  
  22822004.864   119930439.42848     -1124.066    22822009.638    93452314.87546
      -875.898  
  22021406.309   115723313.72249       727.234    22021407.910    90174024.56748
       566.624  
  22679964.771   119184074.14148      2845.526    22679969.881    92870724.46947
      2217.297  
  23225741.390   122052118.44648       911.707    23225743.152    95105541.05845
       710.422  
  23527796.725   123639418.06648     -1152.933    23527798.839    96342419.97745
      -898.390  
  19236757.908   102975907.324 9      1052.335    19236762.822    80092411.717 8
       818.484  
  22319050.854   119517535.980 7      4020.530    22319058.462    92958126.674 6
      3127.273  
  20564323.042   109735166.393 8     -2903.448    20564328.935    85349598.305 6
     -2258.242  
  19895731.889   106204789.680 9      2118.234    19895738.979    82603770.351 8
      1647.516  
  20190052.799   108041046.207 9     -1482.070    20190058.313    84031948.771 8
     -1152.727  
 16  3  2  5 45 30.0000000  0 14G29G20G21G18G26G15G10G16G13R 7R 8R 6
                                R22R21
  21206489.301   111440846.37649     -2383.448    21206490.483    86837025.34048
     -1857.237  
  21623847.464   113634084.76649     -2320.245    21623848.031    88546040.07347
     -1807.988  
  20216911.108   106240601.53349       522.401    20216910.639    82784888.74248
       407.066  
  20120554.954   105734266.02649      1532.624    20120554.825    82390354.85147
      1194.249  
  22828471.115   119964419.71748     -1140.816    22828476.161    93478792.98647
      -888.952  
  22017305.576   115701764.10149       709.922    22017307.045    90157232.68247
       553.159  
  22663749.964   119098864.94348      2835.840    22663755.079    92804327.78347
      2209.746  
  23220594.258   122025069.71048       892.277    23220595.993    95084464.14845
       695.281  
  23534432.111   123674287.82247     -1171.116    23534434.312    96369591.22645
      -912.558  
  19230933.296   102944727.967 9      1026.887    19230938.225    80068161.134 8
       798.690  
  22296555.468   119397075.148 7      4010.608    22296562.475    92864435.057 6
      3119.258  
  20580693.579   109822522.653 8     -2919.645    20580699.515    85417542.042 6
     -2270.839  
  19883862.211   106141428.472 9      2106.355    19883869.199    82554489.443 8
      1638.276  
  20198409.888   108085766.706 9     -1498.797    20198415.445    84066731.355 8
     -1165.733  
 16  3  2  5 46  0.0000000  0 14G29G20G21G18G26G15G10G16G13R 7R 8R 6
                                R22R21
  21220135.166   111512555.82249     -2397.129    21220136.389    86892902.79348
     -1867.898  
  21637114.673   113703804.07449     -2327.581    21637115.322    88600366.78747
     -1813.698  
  20213959.684   106225091.75849       511.625    20213959.229    82772803.20947
       398.663  
  20111851.472   105688529.22849      1516.531    20111851.448    82354715.82448
      1181.710  
  22835029.874   119998886.57248     -1156.918    22835034.897    93505650.25546
      -901.496  
  22013300.856   115680719.05849       693.030    22013302.184    90140833.97447
       539.969  
  22647589.116   119013938.92748      2826.012    22647594.078    92738151.74747
      2202.085  
  23215557.050   121998598.96948       872.769    23215558.496    95063837.62545
       680.081  
  23541167.963   123709686.46048     -1188.710    23541170.560    96397174.59944
      -926.270  
  19225248.520   102914296.699 9      1001.815    19225253.339    80044492.392 8
       779.191  
  22274116.788   119276917.880 8      4000.218    22274123.600    92770979.562 6
      3111.284  
  20597152.013   109910348.291 8     -2935.324    20597157.915    85485850.853 6
     -2283.030  
  19872057.320   106078413.131 9      2094.706    19872064.308    82505477.534 8
      1629.214  
  20206858.837   108130978.618 9     -1515.316    20206864.321    84101896.152 8
     -1178.581  
 16  3  2  5 46 30.0000000  0 14G29G20G21G18G26G15G10G16G13R 7R 8R 6
                                R22R21
  21233858.241   111584670.97249     -2410.901    21233859.470    86949096.39247
     -1878.628  
  21650422.695   113773738.01749     -2335.054    21650423.358    88654860.75047
     -1819.527  
  20211068.807   106209900.25449       500.616    20211068.301    82760965.68847
       390.089  
  20103240.118   105643276.60249      1500.168    20103240.245    82319454.07448
      1168.960  
  22841681.068   120033838.58048     -1173.426    22841685.934    93532885.57846
      -914.362  
  22009392.490   115660180.51849       675.847    22009393.907    90124829.95347
       526.633  
  22631482.457   118929297.73948      2816.414    22631487.202    92672197.65947
      2194.609  
  23210630.126   121972707.74747       853.215    23210631.574    95043662.70645
       664.843  
  23548004.769   123745613.77348     -1206.813    23548007.404    96425169.86345
      -940.378  
  19219703.558   102884614.143 9       976.507    19219708.423    80021405.980 8
       759.508  
  22251735.514   119157067.736 8      3989.766    22251742.711    92677762.947 6
      3103.155  
  20613697.889   109998640.598 8     -2951.176    20613704.072    85554522.612 6
     -2295.362  
  19860317.918   106015747.843 9      2082.707    19860324.948    82456737.886 8
      1619.882  
  20215399.731   108176682.730 9     -1531.913    20215405.253    84137443.778 8
     -1191.437  
 16  3  2  5 47  0.0000000  0 14G29G20G21G18G26G15G10G16G13R 7R 8R 6
                                R22R21
  21247658.398   111657190.72349     -2424.211    21247659.606    87005605.26448
     -1888.999  
  21663771.170   113843884.22649     -2341.801    21663771.679    88709520.11347
     -1824.784  
  20208238.582   106195027.32049       490.219    20208238.092    82749376.39248
       381.987  
  20094720.949   105598508.10249      1484.276    20094721.053    82284569.56148
      1156.577  
  22848424.239   120069273.40448     -1189.218    22848429.148    93560497.09946
      -926.668  
  22005580.634   115640148.83149       659.206    22005581.992    90109220.86147
       513.647  
  22615430.081   118844942.27448      2806.858    22615434.754    92606466.22647
      2187.164  
  23205813.328   121947395.89648       833.824    23205814.914    95023939.16145
       649.730  
  23554942.076   123782068.60348     -1224.101    23554944.427    96453576.24944
      -953.840  
  19214298.542   102855680.669 9       951.895    19214303.421    79998902.195 8
       740.362  
  22229412.138   119037527.414 7      3979.226    22229419.131    92584787.306 6
      3094.898  
  20630330.550   110087395.167 8     -2966.187    20630336.855    85623553.929 6
     -2307.038  
  19848644.561   105953435.201 9      2071.183    19848651.545    82408272.520 8
      1610.922  
  20224032.595   108222879.113 9     -1548.211    20224038.151    84173374.265 8
     -1204.168  
 16  3  2  5 47 30.0000000  0 14G29G20G21G18G26G15G10G16G13R 7R 8R 6
                                R22R21
  21261535.802   111730117.16249     -2437.660    21261537.061    87062431.03148
     -1899.479  
  21677160.241   113914244.11249     -2348.871    21677160.691    88764345.97447
     -1830.292  
  20205469.587   106180476.36749       479.621    20205469.179    82738038.00047
       373.730  
  20086294.675   105554227.98349      1468.016    20086294.719    82250065.60048
      1143.910  
  22855259.342   120105192.39448     -1205.226    22855264.305    93588485.89446
      -939.136  
  22001865.971   115620628.55249       642.438    22001867.230    90094010.28247
       500.601  
  22599432.901   118760876.90148      2797.391    22599437.546    92540960.83347
      2179.785  
  23201107.618   121922667.38047       814.652    23201109.208    95004670.23845
       634.793  
  23561980.053   123819053.23348     -1241.523    23561982.436    96482395.40545
      -967.425  
  19209034.075   102827499.694 9       926.909    19209038.984    79976983.683 8
       720.929  
  22207147.929   118918303.525 7      3968.929    22207154.592    92492057.786 7
      3087.011  
  20647049.589   110176611.035 8     -2981.409    20647055.779    85692944.013 6
     -2318.878  
  19837038.556   105891481.591 9      2059.199    19837045.688    82360086.406 8
      1601.598  
  20232758.143   108269571.471 9     -1564.594    20232763.611    84209690.533 8
     -1216.910  
 16  3  2  5 48  0.0000000  0 14G29G20G21G18G26G15G10G16G13R 7R 8R 6
                                R22R21
  21275489.480   111803444.45449     -2451.077    21275490.855    87119569.13848
     -1909.934  
  21690588.761   113984811.46249     -2355.797    21690589.123    88819333.50147
     -1835.690  
  20202761.151   106166243.44049       468.863    20202760.715    82726947.41947
       365.347  
  20077960.613   105510432.31749      1451.512    20077960.717    82215939.13148
      1131.046  
  22862185.360   120141589.05048     -1221.312    22862190.207    93616846.90046
      -951.676  
  21998248.117   115601616.56949       625.035    21998249.398    90079195.77047
       487.038  
  22583490.387   118677098.39448      2787.531    22583495.038    92475678.95747
      2172.102  
  23196512.314   121898518.58248       795.425    23196513.700    94985852.99645
       619.813  
  23569118.067   123856562.37448     -1259.434    23569120.252    96511623.32145
      -981.378  
  19203909.348   102800066.784 9       901.590    19203914.337    79955646.998 8
       701.234  
  22184942.367   118799394.529 7      3958.305    22184949.254    92399573.181 7
      3078.683  
  20663853.535   110266280.049 8     -2996.675    20663859.483    85762686.560 6
     -2330.745  
  19825499.603   105829885.811 9      2046.999    19825506.600    82312178.601 8
      1592.108  
  20241575.584   108316755.440 9     -1581.194    20241581.028    84246389.151 8
     -1229.820  
 16  3  2  5 48 30.0000000  0 14G29G20G21G18G26G15G10G16G13R 7R 8R 6
                                R22R21
  21289519.613   111877172.77049     -2464.577    21289520.986    87177019.74547
     -1920.452  
  21704056.600   114055585.46549     -2362.812    21704056.896    88874482.06147
     -1841.155  
  20200113.494   106152330.10149       458.117    20200113.059    82716105.86547
       356.969  
  20069718.917   105467121.94049      1435.401    20069718.909    82182190.80848
      1118.495  
  22869202.005   120178462.42648     -1237.547    22869207.259    93645579.36547
      -964.323  
  21994727.366   115583114.92849       608.000    21994728.734    90064778.92848
       473.765  
  22567602.694   118593608.84948      2777.965    22567607.463    92410622.27447
      2164.648  
  23192027.632   121874950.66948       775.793    23192029.132    94967488.43845
       604.516  
  23576355.950   123894596.17348     -1276.883    23576357.902    96541260.03645
      -994.977  
  19198924.726   102773383.584 9       876.804    19198929.598    79934893.419 8
       681.961  
  22162796.423   118680804.412 7      3947.397    22162803.160    92307336.579 6
      3070.136  
  20680741.929   110356399.443 8     -3011.581    20680747.931    85832779.389 6
     -2342.343  
  19814028.445   105768651.992 9      2034.805    19814035.403    82264552.319 8
      1582.625  
  20250485.161   108364432.669 9     -1597.746    20250490.756    84283471.413 8
     -1242.694  
 16  3  2  5 49  0.0000000  0 14G29G20G21G18G26G15G10G16G13R 7R 8R 6
                                R22R21
  21303626.278   111951303.88749     -2477.629    21303627.631    87234784.22048
     -1930.624  
  21717563.974   114126567.63149     -2369.449    21717564.433    88929792.82247
     -1846.324  
  20197527.401   106138740.11749       447.715    20197526.950    82705516.27647
       348.862  
  20061570.384   105424301.14449      1419.214    20061570.274    82148823.97748
      1105.882  
  22876309.833   120215813.87748     -1252.781    22876314.998    93674684.37046
      -976.190  
  21991304.515   115565127.85149       591.065    21991305.815    90050763.05347
       460.608  
  22551770.861   118510412.88048      2768.223    22551775.501    92345794.31847
      2157.054  
  23187654.147   121851967.69248       756.858    23187655.417    94949579.61845
       589.758  
  23583694.082   123933157.19548     -1294.222    23583695.713    96571307.61445
     -1008.483  
  19194080.691   102747453.276 9       851.922    19194085.598    79914725.429 8
       662.604  
  22140711.107   118562539.828 7      3936.366    22140717.577    92215353.154 7
      3061.616  
  20697714.630   110446969.062 8     -3026.187    20697720.757    85903222.390 6
     -2353.707  
  19802626.323   105707786.724 9      2022.780    19802633.224    82217212.685 8
      1573.272  
  20259487.769   108412606.817 9     -1614.125    20259493.399    84320940.171 8
     -1255.434  
 16  3  2  5 49 30.0000000  0 14G29G20G21G18G26G15G10G16G13R 7R 8R 6
                                R22R21
  21317809.080   112025834.95249     -2491.117    21317810.411    87292860.33548
     -1941.133  
  21731110.319   114197754.49849     -2376.558    21731111.011    88985263.07747
     -1851.866  
  20195002.583   106125472.27049       436.671    20195002.189    82695177.70847
       340.266  
  20053514.738   105381968.53149      1402.844    20053514.630    82115837.55548
      1093.125  
  22883507.907   120253639.60548     -1268.874    22883512.911    93704158.93346
      -988.738  
  21987979.419   115547654.82549       573.707    21987980.806    90037147.72847
       447.043  
  22535994.752   118427509.77448      2758.363    22535999.564    92281194.58847
      2149.375  
  23183391.575   121829568.38448       736.714    23183392.947    94932125.64244
       574.062  
  23591131.732   123972242.55748     -1311.809    23591133.751    96601763.70145
     -1022.190  
  19189377.060   102722274.430 9       826.589    19189381.938    79895141.905 8
       642.901  
  22118686.782   118444602.160 7      3925.534    22118693.641    92123624.022 7
      3053.222  
  20714770.783   110537983.210 8     -3041.378    20714776.725    85974011.143 6
     -2365.520  
  19791293.517   105647291.495 9      2010.081    19791300.323    82170160.867 8
      1563.398  
  20268582.820   108461276.274 9     -1630.718    20268588.401    84358794.173 8
     -1268.339  
 16  3  2  5 50  0.0000000  0 14G29G20G21G18G26G15G10G16G13R 7R 8R 6
                                R22R21
  21332067.287   112100761.92849     -2504.124    21332068.707    87351244.95448
     -1951.270  
  21744694.888   114269141.61049     -2382.852    21744695.576    89040889.38047
     -1856.769  
  20192538.687   106112524.47149       426.355    20192538.339    82685088.52848
       332.226  
  20045551.606   105340122.02049      1386.789    20045551.419    82083229.91248
      1080.612  
  22890795.270   120291935.20448     -1284.331    22890800.246    93733999.63346
     -1000.780  
  21984751.932   115530694.67249       556.913    21984753.333    90023932.04647
       433.914  
  22520274.391   118344898.37648      2748.953    22520278.987    92216822.14147
      2142.042  
  23179239.879   121807750.98048       717.511    23179241.161    94915125.08645
       559.102  
  23598668.345   124011848.84948     -1328.604    23598670.591    96632625.73645
     -1035.277  
  19184813.339   102697844.508 9       802.058    19184818.236    79876140.876 8
       623.824  
  22096723.644   118326992.022 7      3914.867    22096730.804    92032149.642 7
      3044.886  
  20731908.840   110629435.168 8     -3055.637    20731914.866    86045140.416 6
     -2376.609  
  19780030.169   105587167.199 9      1998.003    19780037.014    82123397.551 8
      1554.004  
  20277770.126   108510438.938 9     -1646.812    20277775.681    84397031.773 8
     -1280.858  
 16  3  2  5 50 30.0000000  0 14G29G20G21G18G26G15G10G16G13R 7R 8R 6
                                R22R21
  21346400.990   112176085.92449     -2517.590    21346402.433    87409938.94847
     -1961.761  
  21758317.616   114340729.34049     -2389.862    21758318.386    89096672.00947
     -1862.233  
  20190136.164   106099899.37849       415.148    20190135.806    82675250.80747
       323.492  
  20037681.425   105298763.93949      1370.265    20037681.252    82051002.86148
      1067.738  
  22898172.150   120330700.50048     -1300.250    22898177.227    93764206.32246
     -1013.188  
  21981622.547   115514250.23549       539.254    21981624.018    90011118.21448
       420.237  
  22504609.909   118262581.65448      2738.707    22504614.497    92152679.32847
      2134.058  
  23175199.228   121786517.46548       698.050    23175200.533    94898579.48544
       543.933  
  23606304.420   124051976.94948     -1346.331    23606306.254    96663894.37745
     -1049.090  
  19180389.954   102674165.968 9       776.539    19180394.900    79857724.261 8
       603.976  
  22074822.792   118209714.426 7      3903.410    22074829.881    91940933.884 7
      3035.987  
  20749128.749   110721323.683 8     -3070.449    20749134.892    86116609.231 6
     -2388.133  
  19768837.304   105527418.864 9      1985.039    19768844.141    82076926.638 8
      1543.914  
  20287050.021   108560097.154 9     -1663.750    20287055.651    84435654.812 8
     -1294.031  
 16  3  2  5 51  0.0000000  0 14G29G20G21G18G26G15G10G16G13R 7R 8R 6
                                R22R21
  21360810.026   112251805.98049     -2530.480    21360811.538    87468941.54547
     -1971.808  
  21771978.057   114412515.40849     -2395.965    21771978.761    89152609.18346
     -1866.987  
  20187795.163   106087597.20649       404.781    20187794.736    82665664.70347
       315.414  
  20029904.193   105257894.33949      1354.301    20029903.986    82019156.44548
      1055.301  
  22905637.896   120369933.35348     -1315.391    22905642.984    93794777.34946
     -1024.980  
  21978591.548   115498322.32049       522.300    21978593.089    89998706.87847
       406.983  
  22489001.563   118180560.64948      2729.293    22489006.375    92088766.96147
      2126.722  
  23171269.897   121765868.65948       678.602    23171271.146    94882489.51945
       528.776  
  23614039.568   124092625.95548     -1363.750    23614041.506    96695568.90845
     -1062.668  
  19176106.839   102651238.466 9       751.854    19176111.749    79839891.774 8
       584.776  
  22052984.619   118092772.346 7      3892.554    22052991.889    91849979.075 7
      3027.542  
  20766429.549   110813644.317 8     -3084.480    20766435.807    86188414.137 6
     -2399.043  
  19757715.417   105468049.565 9      1972.843    19757722.262    82030750.541 8
      1534.434  
  20296422.512   108610250.932 9     -1679.851    20296428.090    84474663.273 8
     -1306.555  
 16  3  2  5 51 30.0000000  0 14G29G20G21G18G26G15G10G16G13R 7R 8R 6
                                R22R21
  21375293.975   112327919.30249     -2543.429    21375295.444    87528250.59247
     -1981.898  
  21785675.844   114484497.54949     -2402.382    21785676.539    89208699.13847
     -1871.991  
  20185515.558   106075617.67649       394.227    20185515.117    82656330.01647
       307.188  
  20022219.952   105217513.38449      1338.031    20022219.789    81987690.78848
      1042.620  
  22913192.108   120409630.97748     -1330.757    22913197.060    93825710.52746
     -1036.957  
  21975659.033   115482911.56849       505.523    21975660.556    89986698.52147
       393.770  
  22473449.854   118098835.83648      2719.547    22473454.487    92025085.36147
      2119.129  
  23167451.720   121745803.78848       659.249    23167452.891    94866854.55945
       513.698  
  23621873.423   124133793.82848     -1380.632    23621875.617    96727647.75045
     -1075.820  
  19171963.939   102629061.384 9       727.104    19171968.821    79822642.952 8
       565.527  
  22031209.136   117976167.967 7      3881.422    22031216.736    91759286.925 7
      3018.851  
  20783810.643   110906393.195 8     -3098.367    20783816.982    86260552.122 6
     -2409.844  
  19746665.019   105409062.010 9      1960.262    19746671.873    81984871.354 8
      1524.647  
  20305887.529   108660899.901 9     -1696.395    20305893.055    84514056.892 8
     -1319.422  
 16  3  2  5 52  0.0000000  0 14G29G20G21G18G26G15G10G16G13R 7R 8R 6
                                R22R21
  21389852.442   112404424.43849     -2556.816    21389853.856    87587864.94947
     -1992.327  
  21799410.464   114556673.40049     -2409.237    21799411.065    89264940.03647
     -1877.331  
  20183297.363   106063960.64249       383.016    20183296.899    82647246.62447
       298.448  
  20014628.615   105177620.76349      1321.417    20014628.449    81956605.64447
      1029.675  
  22920834.458   120449790.51548     -1346.469    22920839.304    93857003.64746
     -1049.198  
  21972824.884   115468017.92449       487.543    21972826.396    89975093.10848
       379.901  
  22457954.570   118017407.56548      2709.198    22457959.196    91961634.85747
      2111.063  
  23163744.648   121726322.93148       639.676    23163745.884    94851674.70444
       498.448  
  23629805.780   124175479.14748     -1398.301    23629808.303    96760129.80845
     -1089.585  
  19167961.093   102607633.866 9       701.616    19167965.970    79805977.127 8
       545.702  
  22009497.718   117859903.995 7      3869.495    22009505.200    91668859.551 7
      3009.613  
  20801271.108   110999565.583 8     -3112.859    20801277.404    86333019.514 6
     -2421.117  
  19735686.581   105350458.428 9      1946.804    19735693.536    81939290.815 8
      1514.179  
  20315444.954   108712043.455 9     -1713.309    20315450.370    84553835.187 8
     -1332.577  
 16  3  2  5 52 30.0000000  0 14G29G20G21G18G26G15G10G16G13R 7R 8R 6
                                R22R21
  21404485.182   112481320.10149     -2569.605    21404486.773    87647783.61047
     -2002.293  
  21813181.553   114629040.96249     -2415.335    21813182.094    89321330.31747
     -1882.082  
  20181140.486   106052626.04849       372.452    20181139.892    82638414.48247
       290.218  
  20007130.203   105138216.52749      1305.319    20007130.111    81925901.07748
      1017.133  
  22928564.064   120490409.86748     -1361.636    22928569.188    93888655.04346
     -1061.020  
  21970089.257   115453642.17049       470.598    21970090.727    89963891.25247
       366.715  
  22442515.979   117936276.84948      2699.495    22442520.394    91898416.19947
      2103.504  
  23160148.437   121707426.18448       620.085    23160149.739    94836949.96545
       483.179  
  23637836.484   124217680.56347     -1415.035    23637838.661    96793014.03045
     -1102.629  
  19164098.290   102586955.949 9       676.785    19164103.211    79789894.322 8
       526.382  
  21987850.385   117743983.289 7      3858.340    21987857.539    91578699.119 7
      3000.930  
  20818810.127   111093157.055 8     -3126.589    20818816.307    86405812.847 6
     -2431.796  
  19724780.721   105292242.174 9      1934.012    19724787.613    81894011.521 8
      1504.230  
  20325094.851   108763681.814 9     -1729.582    20325100.180    84593998.329 8
     -1345.269  
 16  3  2  5 53  0.0000000  0 14G29G20G21G18G26G15G10G16G13R 7R 8R 6
                                R22R21
  21419191.649   112558602.85549     -2582.957    21419193.097    87708003.89447
     -2012.698  
  21826988.582   114701597.10949     -2421.843    21826989.019    89377867.55346
     -1887.152  
  20179044.804   106041613.48149       361.387    20179044.183    82629833.27547
       281.602  
  19999724.460   105099299.14849      1288.870    19999724.364    81895575.87548
      1004.316  
  22936380.306   120531485.12348     -1376.934    22936385.415    93920661.71446
     -1072.938  
  21967452.124   115439783.91149       453.011    21967453.522    89953092.61947
       352.948  
  22427133.724   117855443.17548      2689.148    22427138.054    91835428.99847
      2095.440  
  23156663.800   121689112.60048       600.245    23156664.852    94822679.68744
       467.722  
  23645965.045   124260395.56448     -1432.554    23645967.104    96826298.42644
     -1116.276  
  19160375.215   102567025.691 9       651.542    19160380.003    79774393.036 8
       506.754  
  21966267.164   117628406.965 8      3846.648    21966274.416    91488806.549 7
      2991.835  
  20836426.749   111187162.507 8     -3140.530    20836433.006    86478928.157 6
     -2442.641  
  19713947.649   105234414.813 9      1920.832    19713954.582    81849034.706 8
      1493.980  
  20334836.945   108815813.357 9     -1746.237    20334842.413    84634545.044 8
     -1358.187  
 16  3  2  5 53 30.0000000  0 14G29G20G21G18G26G15G10G16G13R 7R 8R 6
                                R22R21
  21433972.906   112636278.00949     -2595.655    21433974.225    87768529.95347
     -2022.593  
  21840832.270   114774345.93148     -2428.055    21840832.660    89434554.92047
     -1891.995  
  20177011.772   106030929.94749       350.741    20177011.245    82621508.45347
       273.301  
  19992412.801   105060875.77949      1272.554    19992412.614    81865635.60648
       991.601  
  22944284.159   120573020.71248     -1391.977    22944289.461    93953027.09047
     -1084.660  
  21964914.844   115426450.38249       435.757    21964916.135    89942702.88247
       339.546  
  22411809.501   117774914.06048      2679.426    22411813.940    91772679.12547
      2087.862  
  23153291.066   121671388.42048       581.098    23153292.089    94808868.63145
       452.804  
  23654192.013   124303629.16748     -1449.647    23654194.126    96859986.92445
     -1129.601  
  19156792.834   102547849.393 9       626.718    19156797.724    79759478.165 8
       487.448  
  21944750.417   117513184.890 8      3834.858    21944757.259    91399189.509 7
      2982.672  
  20854121.468   111281584.825 8     -3154.195    20854127.829    86552367.710 6
     -2453.265  
  19703189.318   105176986.266 9      1907.629    19703196.310    81804368.088 8
      1483.710  
  20344672.392   108868444.914 9     -1762.699    20344677.902    84675480.679 8
     -1370.991  
 16  3  2  5 54  0.0000000  0 14G29G20G21G18G26G15G10G16G13R 7R 8R 6
                                R22R21
  21448827.151   112714337.56249     -2608.175    21448828.469    87829355.53847
     -2032.348  
  21854711.033   114847279.07049     -2434.147    21854711.434    89491385.89747
     -1896.742  
  20175040.105   106020568.77049       340.227    20175039.635    82613434.82447
       265.108  
  19985193.807   105022939.89449      1256.409    19985193.526    81836075.20948
       979.019  
  22952273.936   120615007.65048     -1406.898    22952279.378    93985744.14946
     -1096.284  
  21962476.287   115413635.67949       418.613    21962477.592    89932717.42347
       326.190  
  22396542.068   117694683.81848      2669.401    22396546.625    91710162.14547
      2080.055  
  23150029.144   121654247.18548       561.929    23150030.234    94795511.81645
       437.863  
  23662516.381   124347373.51648     -1466.593    23662518.153    96894073.42345
     -1142.800  
  19153350.112   102529420.235 9       602.094    19153354.931    79745144.392 8
       468.296  
  21923298.801   117398313.050 7      3823.344    21923305.504    91309844.860 7
      2973.715  
  20871892.396   111376413.117 8     -3167.469    20871898.489    86626123.016 6
     -2463.586  
  19692504.974   105119952.514 9      1894.632    19692511.851    81760008.526 8
      1473.602  
  20354599.928   108921569.693 9     -1778.969    20354605.671    84716799.916 8
     -1383.645  
 16  3  2  5 54 30.0000000  0 14G29G20G21G18G26G15G10G16G13R 7R 8R 6
                                R22R21
  21463754.593   112792781.86249     -2621.191    21463755.945    87890480.93047
     -2042.492  
  21868624.887   114920396.71248     -2440.370    21868625.340    89548360.67347
     -1901.590  
  20173130.131   106010532.10249       329.030    20173129.709    82605614.05847
       256.386  
  19978067.917   104985493.28149      1240.016    19978067.583    81806896.04247
       966.245  
  22960349.766   120657445.48548     -1422.223    22960355.047    94018812.57046
     -1108.230  
  21960136.907   115401342.49649       400.934    21960138.328    89923138.34147
       312.414  
  22381332.174   117614755.21848      2659.175    22381336.593    91647880.20247
      2072.085  
  23146878.666   121637691.12648       542.026    23146879.682    94782611.01844
       422.354  
  23670938.095   124391629.54348     -1483.765    23670939.984    96928558.63344
     -1156.180  
  19150047.213   102511739.810 9       576.847    19150052.063    79731392.976 8
       448.660  
  21901913.803   117283796.388 7      3811.184    21901920.436    91220776.463 7
      2964.254  
  20889738.718   111471645.075 8     -3181.132    20889744.867    86700192.266 6
     -2474.219  
  19681895.543   105063318.711 9      1881.042    19681902.587    81715960.031 8
      1463.030  
  20364620.104   108975189.649 9     -1795.602    20364625.694    84758504.303 8
     -1396.484  
 16  3  2  5 55  0.0000000  0 14G29G20G21G18G26G15G10G16G13R 7R 8R 6
                                R22R21
  21478755.272   112871610.93449     -2633.852    21478756.622    87951906.13347
     -2052.355  
  21882573.671   114993698.37749     -2445.938    21882574.379    89605478.81147
     -1905.930  
  20171282.291   106000821.63749       318.637    20171281.781    82598047.47647
       248.288  
  19971035.520   104948537.84749      1224.069    19971035.206    81778099.63248
       953.820  
  22968511.007   120700333.41048     -1436.757    22968516.469    94052231.69746
     -1119.554  
  21957897.219   115389573.11049       383.879    21957898.593    89913967.40748
       299.124  
  22366180.016   117535130.71748      2649.461    22366184.491    91585835.22147
      2064.516  
  23143839.657   121621721.36847       522.988    23143840.562    94770167.08445
       407.522  
  23679457.115   124436397.26748     -1500.390    23679459.002    96963442.55545
     -1169.137  
  19146884.414   102494809.159 9       552.202    19146889.333    79718224.715 8
       429.492  
  21880595.819   117169639.240 8      3799.468    21880602.403    91131987.703 7
      2955.140  
  20907660.464   111567278.757 8     -3194.187    20907666.475    86774574.001 6
     -2484.371  
  19671361.929   105007089.659 9      1867.854    19671368.875    81672226.344 8
      1452.776  
  20374733.095   109029306.148 9     -1811.875    20374738.648    84800594.884 8
     -1409.238  
 16  3  2  5 55 30.0000000  0 14G29G20G21G18G26G15G10G16G13R 7R 8R 6
                                R22R21
  21493828.773   112950822.39949     -2646.890    21493830.160    88013629.31447
     -2062.515  
  21896556.908   115067181.09548     -2452.680    21896557.716    89662738.05046
     -1911.184  
  20169496.367   105991436.73149       307.168    20169495.856    82590734.57048
       239.347  
  19964096.332   104912072.54349      1207.147    19964096.088    81749685.13548
       940.636  
  22976757.378   120743668.06648     -1452.257    22976762.794    94085998.92747
     -1131.633  
  21955757.225   115378327.17449       365.983    21955758.593    89905204.37348
       285.214  
  22351085.920   117455810.20648      2638.789    22351090.118    91524027.09847
      2056.198  
  23140911.920   121606337.35148       502.812    23140913.298    94758179.55045
       391.805  
  23688073.026   124481674.40348     -1517.633    23688074.946    96998723.40745
     -1182.569  
  19143861.333   102478626.621 9       526.722    19143866.214    79705638.320 8
       409.671  
  21859345.099   117055843.536 8      3786.968    21859351.600    91043480.047 7
      2945.425  
  20925656.418   111663308.680 8     -3207.805    20925662.530    86849263.903 6
     -2494.965  
  19660904.509   104951267.305 9      1853.722    19660911.472    81628808.979 8
      1441.780  
  20384938.723   109083918.275 9     -1828.969    20384944.251    84843070.948 8
     -1422.535  
 16  3  2  5 56  0.0000000  0 14G29G20G21G18G26G15G10G16G13R 7R 8R 6
                                R22R21
  21508974.796   113030414.60249     -2659.453    21508976.149    88075649.16948
     -2072.305  
  21910574.308   115140842.62548     -2458.397    21910575.018    89720136.62147
     -1915.637  
  20167772.469   105982377.68049       296.519    20167772.041    82583675.58547
       231.055  
  19957250.393   104876097.04749      1190.859    19957250.191    81721652.30148
       927.940  
  22985088.218   120787446.51948     -1466.836    22985093.610    94120111.97847
     -1142.992  
  21953716.841   115367604.91449       348.519    21953718.143    89896849.38248
       271.573  
  22336049.625   117376794.03948      2628.632    22336054.107    91462456.14747
      2048.285  
  23138095.699   121591538.63548       483.469    23138097.256    94746648.08145
       376.726  
  23696785.527   124527458.90548     -1534.647    23696787.379    97034399.61445
     -1195.831  
  19140977.960   102463191.478 9       501.964    19140982.804    79693633.224 8
       390.418  
  21838162.454   116942411.563 8      3774.664    21838168.777    90955255.307 7
      2935.852  
  20943725.897   111759730.664 8     -3220.613    20943732.075    86924258.752 6
     -2504.926  
  19650523.695   104895854.187 9      1840.234    19650530.665    81585709.909 8
      1431.292  
  20395236.796   109139025.281 9     -1845.207    20395242.238    84885931.926 8
     -1435.164  
 16  3  2  5 56 30.0000000  0 14G29G20G21G18G26G15G10G16G13R 7R 8R 6
                                R22R21
  21524192.937   113110386.41049     -2671.933    21524194.305    88137964.81847
     -2082.031  
  21924625.586   115214682.52748     -2463.941    21924626.233    89777674.18547
     -1919.956  
  20166110.887   105973646.13249       285.883    20166110.441    82576871.79548
       222.762  
  19950497.948   104840612.80249      1174.980    19950497.915    81694002.26548
       915.570  
  22993503.212   120831667.73947     -1481.175    22993508.645    94154570.04447
     -1154.168  
  21951776.456   115357407.99949       331.547    21951777.731    89888903.75248
       258.348  
  22321071.744   117298084.49348      2618.901    22321076.276    91401124.11947
      2040.702  
  23135391.169   121577326.79848       463.866    23135392.677    94735573.93545
       361.453  
  23705594.831   124573750.79648     -1551.206    23705596.431    97070471.20944
     -1208.733  
  19138234.285   102448504.469 9       477.483    19138239.123    79682210.021 8
       371.371  
  21817048.317   116829347.411 8      3763.113    21817054.765    90867316.631 7
      2926.866  
  20961868.394   111856542.095 8     -3233.195    20961874.449    86999556.499 6
     -2514.711  
  19640220.443   104840854.823 9      1826.656    19640227.445    81542932.651 8
      1420.734  
  20405627.623   109194628.477 9     -1861.402    20405633.136    84929178.822 8
     -1447.762  
 16  3  2  5 57  0.0000000  0 14G29G20G21G18G26G15G10G16G13R 7R 8R 6
                                R22R21
  21539482.599   113190734.25149     -2684.523    21539483.918    88200573.47847
     -2091.840  
  21938709.923   115288696.09549     -2470.059    21938710.582    89835347.05447
     -1924.726  
  20164511.180   105965239.61349       274.866    20164510.695    82570321.26347
       214.183  
  19943838.490   104805617.11649      1158.398    19943838.388    81666732.92748
       902.648  
  23002001.668   120876326.86148     -1495.914    23002006.998    94189369.34746
     -1165.647  
  21949935.782   115347734.97549       313.741    21949936.973    89881366.34248
       244.495  
  22306151.788   117219679.96748      2608.367    22306156.040    91340029.74847
      2032.491  
  23132797.900   121563698.76348       444.547    23132799.252    94724954.73145
       346.394  
  23714499.773   124620546.52048     -1568.277    23714501.160    97106935.39645
     -1222.035  
  19135629.829   102434562.639 9       452.421    19135634.683    79671366.391 8
       351.878  
  21796002.947   116716651.375 8      3750.406    21796009.377    90779664.269 7
      2916.983  
  20980082.627   111953736.359 8     -3246.163    20980088.640    87075151.995 6
     -2524.797  
  19629994.826   104786269.631 9      1812.508    19630001.781    81500477.522 8
      1409.726  
  20416110.725   109250725.145 9     -1877.995    20416116.066    84972809.540 8
     -1460.667  
 16  3  2  5 57 30.0000000  0 14G29G20G21G18G26G15G10G16G13R 7R 8R 6
                                R22R21
  21554844.557   113271462.16849     -2696.745    21554846.057    88263478.30747
     -2101.363  
  21952828.130   115362887.36648     -2475.566    21952828.744    89893158.41047
     -1929.016  
  20162974.567   105957164.46949       264.090    20162974.072    82564028.95147
       205.785  
  19937273.170   104771116.40549      1142.230    19937273.028    81639849.28148
       890.051  
  23010583.932   120921427.18347     -1510.167    23010589.438    94224512.41047
     -1176.758  
  21948195.833   115338592.13549       296.371    21948197.063    89874242.07447
       230.938  
  22291291.096   117141586.97548      2598.319    22291295.387    91279178.13947
      2024.663  
  23130316.922   121550660.38848       425.081    23130317.918    94714794.96144
       331.229  
  23723501.132   124667849.91948     -1584.867    23723502.784    97143795.16844
     -1234.961  
  19133165.456   102421370.912 9       427.620    19133170.348    79661106.179 8
       332.594  
  21775028.009   116604332.132 7      3738.137    21775034.287    90692304.978 7
      2907.441  
  20998368.970   112051315.697 8     -3258.723    20998374.771    87151047.010 6
     -2534.566  
  19619848.473   104732107.709 9      1798.797    19619855.381    81458351.608 8
      1399.063  
  20426687.009   109307321.008 9     -1894.398    20426692.446    85016828.512 8
     -1473.425  
 16  3  2  5 58  0.0000000  0 14G29G20G21G18G26G15G10G16G13R 7R 8R 6
                                R22R21
  21570277.258   113352561.36949     -2709.632    21570278.766    88326672.45247
     -2111.405  
  21966978.329   115437246.91348     -2481.723    21966978.888    89951100.88347
     -1933.813  
  20161499.613   105949413.40749       252.730    20161499.134    82557989.17447
       196.933  
  19930800.585   104737102.68149      1125.430    19930800.344    81613345.09948
       876.957  
  23019248.268   120966958.73547     -1525.155    23019253.665    94259991.50347
     -1188.438  
  21946555.553   115329972.37349       278.206    21946556.827    89867525.39647
       216.785  
  22276488.404   117063798.86748      2587.722    22276492.798    91218564.10447
      2016.406  
  23127946.703   121538204.26948       405.063    23127947.993    94705088.91745
       315.629  
  23732597.934   124715652.37148     -1602.172    23732599.403    97181043.80344
     -1248.444  
  19130839.761   102408921.439 9       402.434    19130844.573    79651423.273 8
       313.004  
  21754122.549   116492384.747 8      3725.046    21754128.771    90605234.898 7
      2897.258  
  21016725.269   112149267.988 8     -3271.480    21016731.114    87227232.087 6
     -2544.488  
  19609780.601   104678364.475 9      1784.117    19609787.390    81416551.328 8
      1387.647  
  20437355.169   109364408.238 9     -1911.374    20437360.688    85061229.663 8
     -1486.628  
 16  3  2  5 58 30.0000000  0 14G29G20G21G18G26G15G10G16G13R 7R 8R 6
                                R22R21
  21585781.282   113434035.43949     -2722.085    21585782.747    88390158.69247
     -2121.109  
  21981161.170   115511778.40248     -2487.183    21981161.797    90009177.33847
     -1938.070  
  20160087.453   105941992.51949       241.858    20160086.957    82552206.66947
       188.457  
  19924421.747   104703581.81349      1109.101    19924421.480    81587224.96648
       864.233  
  23027995.202   121012924.65048     -1539.359    23028000.769    94295809.05847
     -1199.503  
  21945015.877   115321881.76149       260.914    21945017.332    89861221.04548
       203.309  
  22261744.779   116986322.06148      2577.332    22261749.255    91158192.63847
      2008.313  
  23125688.198   121526335.74447       385.944    23125689.527    94695840.72044
       300.737  
  23741790.039   124763958.08847     -1618.663    23741791.799    97218684.59543
     -1261.300  
  19128653.555   102397218.630 9       377.754    19128658.477    79642321.107 8
       293.809  
  21733288.264   116380817.815 8      3712.727    21733294.449    90518460.716 7
      2887.680  
  21035151.720   112247595.435 8     -3283.835    21035157.798    87303708.947 6
     -2554.097  
  19599792.669   104625048.587 9      1770.069    19599799.594    81375083.439 8
      1376.722  
  20448116.199   109421992.243 9     -1927.742    20448121.689    85106017.194 8
     -1499.359  
 16  3  2  5 59  0.0000000  0 14G29G20G21G18G26G15G10G16G13R 7R 8R 6
                                R22R21
  21601355.878   113515880.55949     -2734.516    21601357.497    88453934.06647
     -2130.797  
  21995376.003   115586477.63648     -2492.789    21995376.686    90067384.49446
     -1942.437  
  20158737.700   105934899.52349       230.925    20158737.146    82546679.66947
       179.941  
  19918136.170   104670551.28949      1092.749    19918135.856    81561486.91948
       851.491  
  23036824.128   121059319.87548     -1553.741    23036829.572    94331961.15347
     -1210.710  
  21943576.581   115314318.39849       243.354    21943577.968    89855327.52847
       189.624  
  22247060.214   116909154.87148      2566.965    22247064.801    91098062.44147
      2000.230  
  23123540.982   121515052.17748       366.472    23123542.264    94687048.32045
       285.559  
  23751077.264   124812762.75248     -1635.402    23751079.033    97256714.20544
     -1274.340  
  19126606.377   102386259.709 9       352.957    19126611.135    79633797.518 8
       274.523  
  21712524.659   116269631.340 7      3699.741    21712530.903    90431982.468 7
      2877.582  
  21053647.261   112346290.969 8     -3295.977    21053653.534    87380472.117 6
     -2563.543  
  19589884.961   104572160.445 9      1755.691    19589891.663    81333948.233 8
      1365.539  
  20458969.472   109480070.270 9     -1944.093    20458975.024    85151188.963 8
     -1512.077  
 16  3  2  5 59 30.0000000  0 14G29G20G21G18G26G15G10G16G13R 7R 8R 6
                                R22R21
  21617000.968   113598095.87549     -2746.737    21617002.609    88517997.90147
     -2140.320  
  22009622.545   115661343.65449     -2498.397    22009623.316    90125721.62747
     -1946.808  
  20157450.578   105928135.49349       220.019    20157450.003    82541409.00247
       171.440  
  19911944.040   104638011.42949      1076.395    19911943.755    81536131.20848
       838.749  
  23045734.336   121106142.86447     -1567.831    23045739.759    94368446.56647
     -1221.690  
  21942237.935   115307283.79849       225.565    21942239.371    89849846.04247
       175.827  
  22232434.972   116832299.02048      2556.757    22232439.551    91038174.83047
      1992.277  
  23121505.284   121504354.23148       346.776    23121506.610    94678712.25045
       270.211  
  23760459.538   124862065.96548     -1651.711    23760461.144    97295132.28544
     -1287.050  
  19124698.092   102376044.666 9       328.156    19124702.889    79625852.495 8
       255.233  
  21691833.077   116158829.014 7      3686.901    21691839.397    90345802.982 7
      2867.590  
  21072211.230   112445352.238 8     -3308.059    21072217.630    87457519.725 6
     -2572.938  
  19580058.037   104519704.064 9      1741.218    19580064.835    81293148.843 8
      1354.280  
  20469915.211   109538643.095 9     -1960.773    20469920.727    85196745.577 8
     -1525.050  
 16  3  2  6  0  0.0000000  0 14G29G20G21G18G26G15G10G16G13R 7R 8R 6
                                R22R21
  21632716.708   113680682.55049     -2758.629    21632718.404    88582351.11047
     -2149.586  
  22023900.918   115736377.01248     -2503.387    22023901.827    90184189.15047
     -1950.695  
  20156226.513   105921702.98649       209.402    20156225.968    82536396.65947
       163.172  
  19905845.809   104605965.25949      1060.402    19905845.585    81511160.18948
       826.288  
  23054725.680   121153393.76048     -1581.671    23054731.211    94405265.40347
     -1232.477  
  21941000.515   115300780.95149       208.473    21941001.976    89844778.89847
       162.440  
  22217869.498   116755757.90648      2546.608    22217874.117    90978532.46947
      1984.371  
  23119581.447   121494244.40048       327.737    23119582.687    94670834.48345
       255.375  
  23769936.630   124911868.82648     -1667.750    23769938.495    97333939.67344
     -1299.546  
  19122929.185   102366575.411 9       303.723    19122933.950    79618487.540 8
       236.230  
  21671214.230   116048416.494 7      3674.629    21671220.726    90259926.697 7
      2858.046  
  21090843.558   112544777.442 8     -3319.676    21090849.883    87534850.400 6
     -2581.973  
  19570313.199   104467685.612 9      1727.108    19570319.948    81252690.067 8
      1343.309  
  20480953.907   109597713.107 9     -1976.727    20480959.499    85242688.888 8
     -1537.456  
 16  3  2  6  0 30.0000000  0 14G29G20G21G18G26G15G10G16G13R 7R 8R 6
                                R22R21
  21648501.229   113763630.48649     -2771.125    21648502.920    88646985.81547
     -2159.319  
  22038209.332   115811567.86148     -2509.136    22038210.178    90242779.39146
     -1955.176  
  20155064.063   105915594.67949       198.144    20155063.545    82531636.95047
       154.398  
  19899839.938   104574404.34749      1043.776    19899839.809    81486567.29048
       813.332  
  23063796.768   121201061.77647     -1596.164    23063802.197    94442409.29346
     -1243.769  
  21939862.785   115294801.95349       190.582    21939864.191    89840119.95348
       148.503  
  22203362.713   116679524.11249      2535.909    22203367.327    90919129.58847
      1976.034  
  23117767.869   121484714.13748       307.930    23117768.993    94663408.30444
       239.940  
  23779507.098   124962161.72748     -1684.898    23779508.988    97373128.93044
     -1312.909  
  19121297.844   102357842.843 9       278.680    19121302.651    79611695.555 8
       216.745  
  21650667.044   115938387.873 7      3661.141    21650673.558    90174348.964 7
      2847.554  
  21109541.744   112644554.480 8     -3331.793    21109548.265    87612454.719 6
     -2591.398  
  19560649.336   104416099.161 9      1712.296    19560656.183    81212567.284 8
      1331.785  
  20492083.853   109657271.667 9     -1993.398    20492089.373    85289012.187 8
     -1550.425  
 16  3  2  6  1  0.0000000  0 14G29G20G21G18G26G15G10G16G13R 7R 8R 6
                                R22R21
  21664355.953   113846946.84249     -2783.012    21664357.501    88711907.61447
     -2168.585  
  22052548.952   115886922.78848     -2514.304    22052549.799    90301497.49046
     -1959.203  
  20153965.044   105909819.38849       187.253    20153964.456    82527136.73647
       145.914  
  19893928.008   104543337.13649      1027.690    19893927.958    81462359.09348
       800.793  
  23072948.166   121249152.94648     -1609.952    23072953.633    94479882.89546
     -1254.511  
  21938826.516   115289356.19949       172.965    21938827.772    89835876.51948
       134.777  
  22188916.306   116603606.94948      2525.551    22188920.803    90859973.42447
      1967.961  
  23116066.146   121475772.05548       288.562    23116067.502    94656440.45045
       224.855  
  23789171.967   125012951.55148     -1700.917    23789173.852    97412705.40044
     -1325.395  
  19119805.630   102349854.715 9       254.129    19119810.362    79605482.587 8
       197.655  
  21630193.819   115828754.557 8      3648.128    21630200.126    90089078.717 7
      2837.433  
  21128306.794   112744688.105 8     -3343.316    21128313.070    87690336.409 5
     -2600.358  
  19551068.707   104364956.899 9      1697.629    19551075.572    81172789.990 8
      1320.379  
  20503306.571   109717326.882 9     -2009.867    20503312.132    85335721.764 8
     -1563.234  
 16  3  2  6  1 30.0000000  0 14G29G20G21G18G26G15G10G16G13R 7R 8R 6
                                R22R21
  21680279.992   113930628.16949     -2795.379    21680281.532    88777113.79447
     -2178.222  
  22066919.131   115962438.15148     -2519.895    22066919.894    90360340.59646
     -1963.558  
  20152929.056   105904375.38949       175.753    20152928.544    82522894.66547
       136.944  
  19888109.739   104512761.86249      1010.808    19888109.676    81438534.23048
       787.645  
  23082179.276   121297662.91447     -1623.887    23082184.964    94517682.83947
     -1265.370  
  21937891.385   115284442.08449       154.766    21937892.635    89832047.35447
       120.594  
  22174529.838   116528005.42548      2514.667    22174534.050    90801063.20347
      1959.480  
  23114475.984   121467415.91647       268.523    23114477.383    94649929.17745
       209.238  
  23798930.712   125064234.72347     -1717.749    23798932.354    97452666.27144
     -1338.515  
  19118451.887   102342608.241 9       229.022    19118456.624    79599846.450 8
       178.128  
  21609794.434   115719517.558 8      3634.453    21609800.897    90004116.712 7
      2826.797  
  21147137.643   112845172.623 8     -3355.406    21147143.671    87768490.989 6
     -2609.765  
  19541571.442   104314259.884 9      1682.215    19541578.370    81133358.997 8
      1308.390  
  20514621.820   109777877.067 9     -2026.672    20514627.488    85382816.329 8
     -1576.304  
 16  3  2  6  2  0.0000000  0 14G29G20G21G18G26G15G10G16G13R 7R 8R 6
                                R22R21
  21696272.596   114014669.37249     -2807.633    21696274.123    88842600.40647
     -2187.769  
  22081318.897   116038109.24948     -2525.241    22081319.519    90419305.06146
     -1967.726  
  20151955.748   105899260.43549       164.832    20151955.227    82518908.99847
       128.438  
  19882384.458   104482675.46349       994.645    19882384.306    81415090.29748
       775.042  
  23091489.114   121346586.34648     -1637.976    23091494.746    94555804.96446
     -1276.348  
  21937056.881   115280057.14449       137.167    21937058.243    89828630.53247
       106.883  
  22160202.992   116452717.46449      2504.069    22160207.030    90742397.32447
      1951.223  
  23112996.554   121459642.48847       249.223    23112998.173    94643871.96945
       194.199  
  23808782.647   125116007.02147     -1734.188    23808784.163    97493008.34543
     -1351.316  
  19117236.021   102336099.614 9       204.362    19117240.762    79594784.202 8
       158.948  
  21589469.182   115610676.662 8      3621.190    21589475.517    89919462.757 7
      2816.479  
  21166032.855   112946001.031 8     -3366.879    21166039.018    87846913.037 5
     -2618.687  
  19532157.666   104264008.228 9      1667.348    19532164.349    81094274.389 8
      1296.823  
  20526028.873   109838918.699 9     -2043.047    20526034.532    85430293.124 8
     -1589.038  
 16  3  2  6  2 30.0000000  0 14G29G20G21G18G26G15G10G16G13R 7R 8R 6
                                R22R21
  21712334.170   114099073.51349     -2819.554    21712335.655    88908369.82147
     -2197.058  
  22095748.731   116113938.75648     -2530.367    22095749.280    90478392.95846
     -1971.718  
  20151045.965   105894479.27649       153.636    20151045.359    82515183.43147
       119.719  
  19876753.120   104453082.55049       977.987    19876752.953    81392030.91048
       762.069  
  23100877.831   121395924.94947     -1651.637    23100883.333    94594250.60047
     -1286.991  
  21936324.033   115276206.31249       119.352    21936325.451    89825629.90248
        92.996  
  22145936.869   116377748.13949      2493.538    22145940.765    90683979.73147
      1943.016  
  23111629.029   121452456.03347       229.667    23111630.741    94638272.12644
       178.961  
  23818727.992   125168271.22947     -1750.508    23818730.358    97533733.66344
     -1364.035  
  19116158.675   102330332.499 9       179.772    19116163.436    79590298.687 8
       139.824  
  21569219.210   115502238.950 8      3607.695    21569225.286    89835122.415 7
      2805.983  
  21184992.675   113047174.139 8     -3378.288    21184998.844    87925603.196 5
     -2627.562  
  19522828.635   104214209.505 9      1652.249    19522835.382    81055542.068 8
      1285.082  
  20537528.610   109900455.896 9     -2059.663    20537534.178    85478155.370 8
     -1601.965  
 16  3  2  6  3  0.0000000  0 14G29G20G21G18G26G15G10G16G13R 7R 8R 6
                                R22R21
  21728463.696   114183834.34049     -2831.250    21728465.102    88974417.18047
     -2206.172  
  22110207.460   116189920.35648     -2535.199    22110208.122    90537599.37546
     -1975.484  
  20150198.854   105890027.70949       143.003    20150198.248    82511714.68147
       111.425  
  19871214.744   104423978.09649       962.007    19871214.548    81369352.13148
       749.617  
  23110344.418   121445671.66848     -1664.887    23110349.962    94633014.23547
     -1297.315  
  21935692.139   115272885.31449       101.965    21935693.414    89823042.12948
        79.430  
  22131730.540   116303093.78248      2483.176    22131734.436    90625807.56347
      1934.940  
  23110372.207   121445851.39047       210.500    23110373.731    94633125.62945
       164.022  
  23828766.282   125221021.29847     -1766.382    23828768.273    97574837.59144
     -1376.406  
  19115218.708   102325300.874 9       155.573    19115223.505    79586385.215 8
       121.004  
  21549044.187   115394202.621 8      3594.597    21549050.067    89751094.244 7
      2795.796  
  21204015.478   113148683.210 8     -3389.159    21204021.808    88004554.654 6
     -2636.016  
  19513584.201   104164862.277 9      1637.461    19513590.897    81017160.907 8
      1273.577  
  20549120.028   109962483.726 9     -2075.690    20549125.656    85526399.195 8
     -1614.429  
 16  3  2  6  3 30.0000000  0 14G29G20G21G18G26G15G10G16G13R 7R 8R 6
                                R22R21
  21744660.982   114268951.34049     -2843.362    21744662.479    89040742.07347
     -2215.612  
  22124695.016   116266053.41648     -2540.378    22124695.720    90596923.82446
     -1979.516  
  20149414.630   105885906.73849       131.675    20149414.139    82508503.54347
       102.601  
  19865769.423   104395363.05549       945.527    19865769.125    81347054.72048
       736.772  
  23119888.437   121495824.70548     -1678.805    23119893.816    94672094.50546
     -1308.159  
  21935161.168   115270095.44549        84.070    21935162.554    89820868.22447
        65.449  
  22117584.375   116228755.84149      2472.425    22117588.478    90567881.97947
      1926.565  
  23109226.258   121439828.97948       190.836    23109227.803    94628432.86945
       148.703  
  23838896.750   125274256.20447     -1782.440    23838898.463    97616319.31044
     -1388.918  
  19114416.220   102321005.221 9       130.625    19114421.015    79583044.169 8
       101.594  
  21528944.528   115286571.139 8      3580.815    21528950.816    89667380.981 7
      2785.081  
  21223100.625   113250525.370 8     -3400.441    21223107.239    88083765.183 6
     -2644.792  
  19504425.042   104115970.315 9      1621.902    19504431.828    80979133.850 8
      1261.477  
  20560803.174   110025002.603 9     -2092.319    20560808.939    85575024.964 8
     -1627.363  
 16  3  2  6  4  0.0000000  0 14G29G20G21G18G26G15G10G16G13R 7R 8R 6
                                R22R21
  21760926.116   114354424.66549     -2854.852    21760927.471    89107344.62247
     -2224.562  
  22139211.397   116342337.45248     -2545.227    22139212.241    90656365.89346
     -1983.296  
  20148693.824   105882118.94249       120.781    20148693.389    82505552.03647
        94.117  
  19860417.660   104367239.31949       929.300    19860417.313    81325140.13448
       724.129  
  23129509.599   121546383.53048     -1691.789    23129515.070    94711490.96247
     -1318.277  
  21934731.840   115267839.12549        66.473    21934733.232    89819110.06448
        51.797  
  22103499.004   116154737.21648      2462.155    22103503.054    90510205.17847
      1918.563  
  23108191.580   121434390.74248       171.516    23108192.886    94624195.24645
       133.647  
  23849119.531   125327976.50147     -1798.706    23849121.192    97658179.26744
     -1401.593  
  19113751.295   102317446.008 9       106.390    19113756.067    79580275.905 8
        82.746  
  21508921.484   115179349.239 8      3567.245    21508927.610    89583986.252 7
      2774.522  
  21242247.865   113352698.743 8     -3411.277    21242254.185    88163233.338 5
     -2653.219  
  19495352.134   104067538.638 9      1606.753    19495358.895    80941464.785 8
      1249.699  
  20572578.478   110088014.413 9     -2108.487    20572584.139    85624034.105 8
     -1639.937  
 16  3  2  6  4 30.0000000  0 15G29G20G21G18G26G15G10G16G13R 7R 8R23
                                R 6R22R21
  21777258.465   114440251.61349     -2866.987    21777259.847    89174222.72147
     -2234.019  
  22153756.081   116418770.56448     -2550.488    22153756.956    90715924.12946
     -1987.397  
  20148036.323   105878663.84449       109.358    20148035.844    82502859.75148
        85.211  
  19855159.197   104339606.03249       912.687    19855158.978    81303607.72548
       711.179  
  23139207.312   121597344.89048     -1705.543    23139212.781    94751201.05946
     -1328.999  
  21934403.819   115266115.64649        48.199    21934405.185    89817767.10848
        37.559  
  22089474.276   116081037.83249      2451.046    22089478.449    90452777.17147
      1909.905  
  23107267.707   121429535.44448       151.921    23107269.090    94620411.89245
       118.379  
  23859433.941   125382179.80647     -1814.781    23859435.775    97700415.60544
     -1414.120  
  19113223.663   102314621.524 9        81.598    19113228.373    79578079.097 8
        63.465  
  21488975.347   115072538.741 8      3553.378    21488981.581    89500911.530 7
      2763.737  
  23161725.183   123899605.60117      3750.969                                  
                
  21261456.328   113455198.501 8     -3422.530    21261462.450    88242955.331 5
     -2661.973  
  19486365.973   104019569.807 9      1590.960    19486372.744    80904155.715 8
      1237.413  
  20584445.576   110151517.713 9     -2125.285    20584451.392    85673425.534 8
     -1653.004  
 16  3  2  6  5  0.0000000  0 15G29G20G21G18G26G15G10G16G13R 7R 8R23
                                R 6R22R21
  21793658.341   114526434.01049     -2878.733    21793659.931    89241377.79247
     -2243.171  
  22168329.328   116495353.68048     -2555.277    22168330.470    90775599.26746
     -1991.129  
  20147442.698   105875544.38549        98.320    20147442.219    82500429.01747
        76.612  
  19849994.501   104312465.31249       896.484    19849994.275    81282459.12948
       698.558  
  23148981.530   121648708.87448     -1718.940    23148987.015    94791224.88547
     -1339.437  
  21934177.905   115264928.58149        30.680    21934179.168    89816842.14148
        23.906  
  22075511.257   116007661.29848      2440.503    22075515.268    90395600.71547
      1901.691  
  23106455.142   121425265.26047       132.508    23106456.272    94617084.47645
       103.249  
  23869840.252   125436867.40347     -1831.327    23869842.238    97743029.27044
     -1427.012  
  19112833.559   102312533.483 9        57.190    19112838.319    79576455.076 8
        44.476  
  21469107.028   114966145.197 8      3539.387    21469113.369    89418161.095 7
      2752.855  
  23140687.594   123787067.812 7      3751.629                                  
                
  21280725.859   113558023.911 8     -3432.987    21280731.897    88322930.595 5
     -2670.105  
  19477467.545   103972069.615 9      1575.461    19477474.247    80867211.133 8
      1225.359  
  20596405.012   110215514.978 9     -2141.520    20596410.789    85723201.157 8
     -1665.628  
 16  3  2  6  5 30.0000000  0 15G29G20G21G18G26G15G10G16G13R 7R 8R23
                                R 6R22R21
  21810124.509   114612964.08749     -2890.144    21810126.133    89308803.79047
     -2252.065  
  22182929.912   116572079.98248     -2559.875    22182931.008    90835385.96646
     -1994.711  
  20146912.049   105872755.93349        87.453    20146911.687    82498256.20448
        68.140  
  19844922.513   104285812.11549       880.378    19844922.298    81261690.41848
       686.003  
  23158830.928   121700467.68948     -1731.757    23158836.353    94831556.40446
     -1349.421  
  21934053.055   115264272.30449        13.077    21934054.332    89816330.76948
        10.191  
  22061608.555   115934603.10548      2429.886    22061612.514    90338672.32647
      1893.417  
  23105752.723   121421574.74648       113.347    23105753.936    94614208.74545
        88.323  
  23880337.565   125492032.21747     -1846.582    23880340.101    97786014.82744
     -1438.894  
  19112579.988   102311175.818 9        33.180    19112584.745    79575399.129 8
        25.804  
  21449316.083   114860165.962 8      3525.770    21449322.287    89335732.909 7
      2742.266  
  23119645.701   123674510.436 7      3752.301                                  
                
  21300054.611   113661165.643 8     -3443.249    21300060.866    88403151.899 5
     -2678.085  
  19468656.540   103925035.936 9      1559.909    19468663.275    80830629.406 8
      1213.258  
  20608455.744   110280000.692 9     -2157.695    20608461.426    85773356.679 8
     -1678.210  
 16  3  2  6  6  0.0000000  0 15G29G20G21G18G26G15G10G16G13R 7R 8R23
                                R 6R22R21
  21826657.137   114699843.88449     -2902.277    21826658.775    89376502.29147
     -2261.520  
  22197558.108   116648951.14048     -2565.246    22197559.185    90895285.53146
     -1998.898  
  20146445.249   105870302.78649        75.852    20146444.771    82496344.66547
        59.102  
  19839944.099   104259650.21849       863.452    19839943.926    81241304.53648
       672.819  
  23168755.711   121752622.49548     -1745.414    23168760.999    94872196.48246
     -1360.066  
  21934029.940   115264151.08349        -5.313    21934031.254    89816236.33248
        -4.140  
  22047767.402   115861867.70049      2418.983    22047771.404    90281995.44947
      1884.921  
  23105161.394   121418467.59948        93.551    23105162.946    94611787.61444
        72.898  
  23890926.300   125547676.45947     -1863.406    23890928.766    97829373.95245
     -1452.007  
  19112463.200   102310550.676 9         8.129    19112467.952    79574912.922 8
         6.367  
  21429603.761   114754607.625 8      3511.043    21429609.823    89253632.067 7
      2730.813  
  23098601.282   123561939.171 7      3752.195                                  
                
  21319442.652   113764623.696 8     -3454.449    21319449.000    88483619.229 6
     -2686.797  
  19459934.206   103878475.428 9      1543.746    19459940.895    80794415.687 8
      1200.688  
  20620598.380   110344977.923 9     -2174.577    20620604.117    85823894.494 8
     -1691.343  
 16  3  2  6  6 30.0000000  0 15G29G20G21G18G26G15G10G16G13R 7R 8R23
                                R 6R22R21
  21843255.371   114787067.97249     -2913.199    21843256.996    89444469.07747
     -2270.027  
  22212212.716   116725961.56648     -2569.496    22212213.743    90955293.62246
     -2002.207  
  20146041.503   105868180.93349        65.261    20146040.928    82494691.27947
        50.852  
  19835058.338   104233975.46049       847.773    19835058.095    81221298.24848
       660.597  
  23178754.620   121805166.70848     -1757.843    23178759.967    94913139.98946
     -1369.754  
  21934108.009   115264561.52949       -22.554    21934109.342    89816556.18247
       -17.594  
  22033987.017   115789451.91348      2408.476    22033991.160    90225567.62447
      1876.733  
  23104680.273   121415938.88948        74.941    23104681.361    94609817.17044
        58.395  
  23901605.442   125603794.35347     -1878.550    23901607.890    97873102.14644
     -1463.804  
  19112482.321   102310653.063 9       -15.437    19112487.080    79574992.564 8
       -12.008  
  21409969.750   114649468.605 8      3497.648    21409975.880    89171857.388 7
      2720.397  
  23077554.445   123449353.222 7      3753.160                                  
                
  21338888.642   113868390.632 8     -3463.972    21338894.869    88564326.806 5
     -2694.203  
  19451300.347   103832387.273 9      1528.347    19451307.065    80758569.363 8
      1188.711  
  20632832.098   110410442.267 9     -2190.215    20632837.605    85874811.177 8
     -1703.504  
 16  3  2  6  7  0.0000000  0 15G29G20G21G18G26G15G10G16G13R 7R 8R23
                                R 6R22R21
  21859919.529   114874638.49449     -2924.991    21859921.116    89512705.79747
     -2279.219  
  22226894.349   116803113.50448     -2574.359    22226895.147    91015411.98546
     -2005.999  
  20145701.575   105866394.47049        53.508    20145701.007    82493299.23447
        41.690  
  19830265.940   104208791.05449       830.969    19830265.591    81201674.06148
       647.508  
  23188827.643   121858101.30347     -1771.516    23188833.167    94954387.68447
     -1380.406  
  21934288.049   115265507.39749       -40.941    21934289.352    89817293.23147
       -31.902  
  22020268.326   115717360.05148      2397.406    22020272.627    90169392.21347
      1868.109  
  23104309.703   121413991.74748        54.727    23104310.743    94608299.92444
        42.645  
  23912374.879   125660387.97247     -1894.961    23912377.400    97917201.05444
     -1476.597  
  19112637.813   102311485.362 9       -40.320    19112642.572    79575639.923 8
       -31.359  
  21390415.203   114544755.142 8      3482.999    21390421.138    89090413.673 7
      2708.999  
  23056505.922   123336758.352 7      3752.999                                  
                
  21358392.280   113972465.782 8     -3474.698    21358398.534    88645274.098 5
     -2702.546  
  19442756.174   103786778.054 9      1511.886    19442762.962    80723095.539 8
      1175.909  
  20645157.374   110476396.933 9     -2207.133    20645163.096    85926109.222 8
     -1716.664  
 16  3  2  6  7 30.0000000  0 15G29G20G21G18G26G15G10G16G13R 7R 8R23
                                R 6R22R21
  21876649.386   114962554.36549     -2936.145    21876650.948    89581211.63347
     -2287.909  
  22241602.703   116880405.86348     -2578.488    22241603.516    91075639.76446
     -2009.214  
  20145425.751   105864944.94749        42.823    20145425.212    82492169.74347
        33.367  
  19825566.968   104184097.72749       815.156    19825566.589    81182432.52448
       635.188  
  23198974.533   121911424.56848     -1783.577    23198980.134    94995938.22246
     -1389.805  
  21934570.135   115266989.83149       -58.121    21934571.424    89818448.39448
       -45.253  
  22006611.607   115645593.72749      2386.980    22006615.862    90113470.48147
      1859.983  
  23104049.887   121412626.34348        36.051    23104051.025    94607235.95645
        28.086  
  23923234.619   125717456.73047     -1910.280    23923236.988    97961670.19044
     -1488.530  
  19112929.557   102313047.310 9       -64.070    19112934.380    79576854.776 8
       -49.831  
  21370940.797   114440470.770 8      3469.128    21370946.896    89009303.704 7
      2698.211  
  23035456.553   123224158.327 7      3753.703    23035467.403    95841057.73714
      2919.550  
  21377953.060   114076846.573 8     -3484.227    21377959.502    88726459.095 5
     -2709.957  
  19434302.584   103741651.935 9      1496.344    19434309.271    80687997.466 8
      1163.823  
  20657574.223   110542842.348 9     -2222.886    20657579.921    85977788.960 8
     -1728.913  
 16  3  2  6  8  0.0000000  0 15G29G20G21G18G26G15G10G16G13R 7R 8R23
                                R 6R22R21
  21893443.653   115050808.76848     -2947.749    21893445.248    89649981.26447
     -2296.952  
  22256336.411   116957831.61548     -2583.176    22256337.118    91135971.49746
     -2012.866  
  20145213.063   105863827.35549        31.448    20145212.412    82491298.89147
        24.503  
  19820960.303   104159889.81949       798.569    19820959.980    81163569.23148
       622.258  
  23209194.092   121965128.52848     -1796.617    23209199.536    95037785.43646
     -1399.964  
  21934953.304   115269003.58449       -76.211    21934954.618    89820017.57147
       -59.386  
  21993016.062   115574148.34449      2376.140    21993020.140    90057798.80147
      1851.539  
  23103899.884   121411837.07048        16.449    23103900.924    94606620.94244
        12.813  
  23934183.347   125774993.37047     -1925.925    23934185.986    98006503.87945
     -1500.730  
  19113356.418   102315332.170 9       -88.570    19113361.048    79578631.896 8
       -68.891  
  21351545.961   114336612.745 8      3454.468    21351552.167    88928525.341 7
      2686.809  
  23014405.865   123111549.654 7      3753.444    23014416.350    95753473.350 4
      2919.347  
  21397569.456   114181523.448 8     -3494.308    21397575.783    88807874.413 5
     -2717.801  
  19425938.948   103697006.368 9      1479.859    19425945.482    80653273.149 8
      1151.000  
  20670081.810   110609772.598 9     -2239.468    20670087.513    86029845.790 8
     -1741.812  
 16  3  2  6  8 30.0000000  0 15G29G20G21G18G26G15G10G16G13R 7R 8R23
                                R 6R22R21
  21910302.591   115139403.30549     -2959.140    21910304.383    89719015.91647
     -2305.827  
  22271095.913   117035393.41748     -2587.964    22271096.657    91196409.21846
     -2016.602  
  20145064.304   105863045.83949        20.059    20145063.650    82490689.92647
        15.625  
  19816446.706   104136170.89549       782.129    19816446.432    81145086.97448
       609.449  
  23219486.372   122019214.32048     -1809.691    23219491.814    95079930.18746
     -1410.151  
  21935438.419   115271552.94349       -94.354    21935439.590    89822004.10647
       -73.522  
  21979482.292   115503028.36948      2365.016    21979486.305    90002380.69747
      1842.870  
  23103859.836   121411627.36647        -3.265    23103861.079    94606457.53245
        -2.543  
  23945221.702   125832999.84648     -1941.722    23945224.470    98051703.69044
     -1513.034  
  19113918.731   102318342.309 9      -112.823    19113923.422    79580973.124 8
       -87.754  
  21332231.890   114233187.521 8      3439.976    21332237.989    88848083.599 7
      2675.539  
  22993354.618   122998938.708 6      3753.190    22993364.810    95665887.184 4
      2919.148  
  21417241.524   114286496.907 8     -3504.359    21417247.873    88889520.391 5
     -2725.617  
  19417666.626   103652848.589 9      1463.390    19417673.239    80618928.228 8
      1138.190  
  20682680.523   110677191.074 8     -2255.792    20682686.252    86082282.353 8
     -1754.507  
 16  3  2  6  9  0.0000000  0 15G29G20G21G18G26G15G10G16G13R 7R 8R23
                                R 6R22R21
  21927226.289   115228337.87448     -2969.995    21927228.110    89788315.53347
     -2314.284  
  22285881.248   117113090.62548     -2591.949    22285881.867    91256952.46246
     -2019.702  
  20144979.814   105862601.99649         9.355    20144979.251    82490344.07648
         7.285  
  19812026.500   104112942.64849       766.262    19812026.199    81126987.04848
       597.082  
  23229851.144   122073680.68948     -1821.699    23229856.448    95122371.47446
     -1419.512  
  21936025.667   115274639.10949      -111.608    21936026.870    89824408.91947
       -86.972  
  21966010.879   115432235.95849      2354.601    21966014.925    89947217.83547
      1834.754  
  23103930.377   121411998.03448       -22.108    23103931.640    94606746.34445
       -17.226  
  23956349.292   125891475.94747     -1957.214    23956352.220    98097269.46545
     -1525.101  
  19114616.634   102322078.268 9      -136.382    19114621.280    79583878.878 8
      -106.073  
  21312999.455   114130199.235 8      3426.051    21313005.450    88767981.691 7
      2664.711  
  22972303.525   122886329.242 6      3753.956    22972313.424    95578302.102 4
      2919.750  
  21436968.582   114391764.485 8     -3513.733    21436975.102    88971395.120 5
     -2732.909  
  19409486.516   103609182.765 9      1447.504    19409493.129    80584965.923 8
      1125.836  
  20695370.580   110745098.473 9     -2271.500    20695376.380    86135099.188 8
     -1766.726  
 16  3  2  6  9 30.0000000  0 15G29G20G21G18G26G15G10G16G13R 7R 8R23
                                R 6R22R21
  21944213.375   115317604.99349     -2981.168    21944215.152    89857874.28447
     -2322.991  
  22300690.926   117190916.10448     -2596.515    22300691.701    91317595.66246
     -2023.261  
  20144958.698   105862491.09649        -2.026    20144958.104    82490257.66847
        -1.578  
  19807698.373   104090198.34549       749.902    19807698.128    81109264.22848
       584.339  
  23240286.664   122128519.21948     -1834.296    23240291.825    95165102.75646
     -1429.323  
  21936714.155   115278256.72749      -129.679    21936715.435    89827227.85548
      -101.055  
  21952600.975   115361766.03048      2343.332    21952604.727    89892306.25647
      1825.973  
  23104110.181   121412942.25047       -41.082    23104111.367    94607482.07745
       -32.015  
  23967565.170   125950414.06147     -1972.676    23967567.921    98143195.22944
     -1537.155  
  19115448.693   102326532.471 9      -160.617    19115453.380    79587343.269 8
      -124.926  
  21293848.089   114027644.385 8      3411.030    21293853.821    88688216.895 7
      2653.023  
  22951251.975   122773718.549 5      3753.210    22951262.010    95490716.119 5
      2919.168  
  21456748.982   114497316.803 8     -3523.300    21456755.678    89053491.324 5
     -2740.348  
  19401398.027   103566006.235 9      1430.863    19401404.714    80551384.194 8
      1112.895  
  20708150.899   110813488.478 8     -2287.781    20708156.733    86188291.383 8
     -1779.391  
 16  3  2  6 10  0.0000000  0 15G29G20G21G18G26G15G10G16G13R 7R 8R23
                                R 6R22R21
  21961264.640   115407209.71149     -2992.359    21961266.474    89927696.09747
     -2331.710  
  22315525.976   117268874.72148     -2600.733    22315526.875    91378342.59446
     -2026.550  
  20145002.205   105862719.75749       -13.148    20145001.624    82490435.84447
       -10.250  
  19803463.710   104067944.94949       733.722    19803463.435    81091923.92848
       571.730  
  23250793.767   122183733.97848     -1846.608    23250798.911    95208127.20346
     -1438.921  
  21937505.025   115282412.59249      -147.445    21937506.153    89830466.21347
      -114.891  
  21939253.776   115291625.99749      2332.613    21939257.553    89837651.74747
      1817.620  
  23104399.926   121414465.99648       -60.288    23104401.491    94608669.43044
       -46.977  
  23978869.531   126009819.32147     -1987.866    23978872.429    98189485.01845
     -1548.992  
  19116415.991   102331710.241 9      -184.562    19116420.624    79591370.428 8
      -143.551  
  21274779.266   113925532.390 8      3396.320    21274785.335    88608796.540 7
      2641.582  
  22930201.686   122661115.758 6      3753.391    22930212.566    95403136.365 5
      2919.304  
  21476583.361   114603156.410 8     -3532.616    21476590.016    89135810.974 5
     -2747.593  
  19393403.114   103523328.787 9      1414.245    19393409.718    80518190.637 8
      1099.969  
  20721022.518   110882367.366 8     -2303.937    20721028.406    86241863.818 8
     -1791.957  
 16  3  2  6 10 30.0000000  0 15G29G20G21G18G26G15G10G16G13R 7R 8R23
                                R 6R22R21
  21978379.107   115497146.40548     -3003.272    21978380.824    89997776.59547
     -2340.218  
  22330385.328   117346960.86448     -2605.207    22330386.180    91439188.90346
     -2030.034  
  20145109.666   105863284.40849       -24.387    20145109.112    82490875.83648
       -19.003  
  19799321.721   104046178.42949       717.569    19799321.362    81074963.02348
       559.145  
  23261371.222   122239318.60248     -1858.969    23261376.179    95251439.87846
     -1448.550  
  21938397.542   115287102.98649      -165.297    21938398.630    89834121.06847
      -128.809  
  21925968.843   115221812.85749      2321.875    21925972.608    89783251.96147
      1809.254  
  23104799.452   121416565.27047       -79.598    23104800.891    94610305.18745
       -62.026  
  23990261.945   126069686.29648     -2003.438    23990264.679    98236134.56345
     -1561.125  
  19117517.463   102337607.008 9      -208.538    19117522.192    79595956.812 8
      -162.199  
  21255793.020   113823862.250 8      3381.769    21255798.728    88529719.839 7
      2630.266  
  22909152.779   122548519.363 6      3753.059    22909163.323    95315561.448 5
      2919.047  
  21496470.059   114709276.206 8     -3541.930    21496476.837    89218348.539 5
     -2754.839  
  19385501.614   103481149.887 9      1397.602    19385508.281    80485384.834 8
      1087.023  
  20733984.694   110951730.867 8     -2320.254    20733990.663    86295813.172 8
     -1804.644  
 16  3  2  6 11  0.0000000  0 16G29G20G21G18G27G26G15G10G16G13R 7R 8
                                R23R 6R22R21
  21995556.339   115587413.18048     -3014.266    21995558.107    90068114.29147
     -2348.781  
  22345268.634   117425173.29148     -2609.003    22345269.372    91500133.61646
     -2032.991  
  20145281.171   105864185.82949       -35.598    20145280.771    82491578.24948
       -27.737  
  19795272.170   104024898.11449       701.413    19795271.940    81058380.97248
       546.555  
  24238500.569   127374178.35457      3451.409    24238503.445    99252628.31455
      2689.410  
  23272018.517   122295270.38948     -1870.844    23272023.667    95295038.62446
     -1457.805  
  21939391.770   115292328.09849      -182.831    21939393.024    89838192.60147
      -142.469  
  21912746.055   115152327.29549      2311.008    21912749.717    89729107.43247
      1800.785  
  23105308.585   121419239.53347       -98.555    23105309.613    94612389.03945
       -76.797  
  24001741.896   126130013.09648     -2018.160    24001744.505    98283142.41144
     -1572.597  
  19118753.007   102344220.909 9      -232.261    19118757.613    79601100.962 8
      -180.652  
  21236889.572   113722636.300 8      3366.941    21236895.306    88450988.626 7
      2618.729  
  22888105.453   122435932.236 6      3752.694    22888116.182    95227993.867 5
      2918.765  
  21516408.881   114815672.582 8     -3550.897    21516415.648    89301101.222 5
     -2761.812  
  19377694.011   103439472.278 9      1381.030    19377700.663    80452968.924 8
      1074.136  
  20747037.357   111021578.208 8     -2336.022    20747043.309    86350138.853 8
     -1816.909  
 16  3  2  6 11 30.0000000  0 16G29G20G21G18G27G26G15G10G16G13R 7R 8
                                R23R 6R22R21
  22012796.359   115678009.53349     -3025.371    22012798.039    90138708.80747
     -2357.438  
  22360175.894   117503511.31448     -2613.120    22360176.805    91561176.18646
     -2036.202  
  20145517.021   105865425.41549       -46.840    20145516.612    82492544.16847
       -36.499  
  19791315.437   104004105.34249       685.011    19791315.166    81042178.83148
       533.772  
  24218809.786   127270705.40048      3446.729    24218814.297    99172000.07444
      2685.761  
  23282735.086   122351587.33747     -1883.176    23282740.614    95338921.92146
     -1467.414  
  21940487.978   115298088.96249      -201.008    21940489.366    89842681.59547
      -156.632  
  21899585.994   115083170.61549      2299.898    21899589.553    89675219.16947
      1792.129  
  23105926.674   121422489.01847      -117.843    23105927.898    94614921.09044
       -91.831  
  24013309.230   126190798.47348     -2033.866    24013311.479    98330507.61044
     -1584.835  
  19120122.300   102351550.936 9      -256.152    19120126.876    79606802.112 8
      -199.230  
  21218069.683   113621857.806 8      3351.983    21218075.747    88372605.421 7
      2607.094  
  22867060.667   122323357.574 7      3752.379    22867071.447    95140435.863 5
      2918.516  
  21536398.843   114922342.346 8     -3560.188    21536405.561    89384066.534 5
     -2769.042  
  19369981.014   103398299.902 9      1363.995    19369987.695    80420945.989 8
      1060.887  
  20760180.524   111091909.610 8     -2352.397    20760186.546    86404841.017 8
     -1829.645  
 16  3  2  6 12  0.0000000  0 16G29G20G21G18G27G26G15G10G16G13R 7R 8
                                R23R 6R22R21
  22030098.760   115768934.10848     -3036.445    22030100.506    90209559.07847
     -2366.065  
  22375106.918   117581973.93848     -2617.511    22375107.653    91622315.85846
     -2039.625  
  20145817.362   105867003.65349       -58.495    20145816.971    82493773.96147
       -45.585  
  19787451.378   103983799.63549       668.621    19787451.131    81026356.22348
       520.999  
  24199145.051   127167366.11448      3442.223    24199149.718    99091476.00645
      2682.249  
  23293520.928   122408267.44547     -1895.448    23293526.334    95383088.20245
     -1476.972  
  21941686.266   115304386.19349      -218.965    21941687.701    89847588.54747
      -170.621  
  21886488.673   115014344.22849      2288.562    21886492.190    89621588.27847
      1783.296  
  23106654.259   121426313.03647      -137.183    23106655.596    94617900.83045
      -106.897  
  24024963.336   126252041.55847     -2048.948    24024965.667    98378229.46545
     -1596.585  
  19121625.264   102359596.543 9      -280.128    19121629.863    79613059.809 8
      -217.883  
  21199334.105   113521530.136 8      3336.515    21199340.283    88294572.878 7
      2595.065  
  22846018.925   122210798.910 7      3751.272    22846029.632    95052890.378 5
      2917.659  
  21556439.534   115029282.598 8     -3569.191    21556446.056    89467242.249 5
     -2776.043  
  19362363.379   103357636.382 9      1346.812    19362370.011    80389318.815 8
      1047.520  
  20773414.170   111162725.114 8     -2368.772    20773419.958    86459919.711 8
     -1842.383  
 16  3  2  6 12 30.0000000  0 16G29G20G21G18G27G26G15G10G16G13R 7R 8
                                R23R 6R22R21
  22047462.514   115860181.50548     -3047.473    22047464.341    90280660.89147
     -2374.655  
  22390060.737   117660556.25548     -2621.867    22390061.433    91683548.80846
     -2043.016  
  20146181.694   105868918.26649       -69.949    20146181.327    82495265.87548
       -54.507  
  19783679.309   103963977.27849       652.218    19783678.959    81010910.24448
       508.223  
  24179505.862   127064159.79448      3437.378    24179510.191    99011055.58445
      2678.476  
  23304374.659   122465304.78147     -1907.694    23304380.056    95427532.84945
     -1486.520  
  21942986.155   115311216.68949      -237.105    21942987.448    89852911.00948
      -184.761  
  21873453.742   114945845.45249      2277.316    21873457.208    89568212.67647
      1774.530  
  23107490.585   121430707.83247      -156.559    23107491.829    94621325.37644
      -121.992  
  24036703.846   126313737.10248     -2064.550    24036706.065    98426303.87345
     -1608.745  
  19123261.040   102368352.668 9      -304.195    19123265.629    79619870.141 8
      -236.598  
  21180682.538   113421652.308 8      3321.218    21180688.671    88216890.198 7
      2583.172  
  22824980.117   122098255.284 7      3750.672    22824990.908    94965356.538 5
      2917.188  
  21576529.633   115136486.244 8     -3578.293    21576536.087    89550622.804 5
     -2783.120  
  19354840.980   103317481.461 9      1329.562    19354847.674    80358087.218 8
      1034.101  
  20786737.465   111234020.509 8     -2384.941    20786743.303    86515371.649 8
     -1854.956  
